Timestamp,accelX(g),accelY(g),accelZ(g),accelUserX(g),accelUserY(g),accelUserZ(g),gyroX(rad/s),gyroY(rad/s),gyroZ(rad/s),Roll(rads),Pitch(rads),Yaw(rads),Lat,Long,Speed(m/s),TrueHeading,Alt(m), HorizontalAccuracy(m), VerticalAccuracy(m),ActivityType,ActivityConfidence,Pressure(kilopascals),RelativeAltitude(meters),magX(µT),magY(µT),magZ(µT),calMagX,calMagY,calMagZ
29-Jan-2019 12:35:24.390, 0.0736,-0.2503,-0.9173, 0.0165,-0.0093, 0.0515,-0.0541,-0.0151,-0.0120, 0.0588, 0.2434,-0.5854,49.736210,-123.103247, 0.0040, 223.0055, 121.185921, 4.0, 3.0,Stationary,Low, 100.7251,-0.7531,-31.3986,-121.2831,-448.7838, 0.0000, 0.0000, 0.0000
29-Jan-2019 12:35:24.393, 0.0736,-0.2503,-0.9173, 0.0165,-0.0093, 0.0515,-0.0541,-0.0151,-0.0120, 0.0588, 0.2434,-0.5854,49.736210,-123.103247, 0.0040, 223.0055, 121.185921, 4.0, 3.0,Stationary,Low, 100.7251,-0.7531,-31.3986,-121.2831,-448.7838, 0.0000, 0.0000, 0.0000
29-Jan-2019 12:35:24.393, 0.0736,-0.2503,-0.9173, 0.0165,-0.0093, 0.0515,-0.0541,-0.0151,-0.0120, 0.0588, 0.2434,-0.5854,49.736210,-123.103247, 0.0040, 223.0055, 121.185921, 4.0, 3.0,Stationary,Low, 100.7251,-0.7531,-31.3986,-121.2831,-448.7838, 0.0000, 0.0000, 0.0000
29-Jan-2019 12:35:24.394, 0.0736,-0.2503,-0.9173, 0.0165,-0.0093, 0.0515,-0.0541,-0.0151,-0.0120, 0.0588, 0.2434,-0.5854,49.736210,-123.103247, 0.0040, 223.0055, 121.185921, 4.0, 3.0,Stationary,Low, 100.7251,-0.7531,-31.3986,-121.2831,-448.7838, 0.0000, 0.0000, 0.0000
29-Jan-2019 12:35:24.395, 0.0736,-0.2503,-0.9173, 0.0165,-0.0095, 0.0515,-0.0211,-0.0203,-0.0129, 0.0588, 0.2433,-0.5854,49.736210,-123.103247, 0.0040, 223.0055, 121.185921, 4.0, 3.0,Stationary,Low, 100.7251,-0.7531,-31.3986,-121.2831,-448.7838, 0.0000, 0.0000, 0.0000
29-Jan-2019 12:35:24.395, 0.0736,-0.2503,-0.9173, 0.0165,-0.0095, 0.0515,-0.0211,-0.0203,-0.0129, 0.0588, 0.2433,-0.5854,49.736210,-123.103247, 0.0040, 223.0055, 121.185921, 4.0, 3.0,Stationary,Low, 100.7251,-0.7531,-31.3986,-121.2831,-448.7838, 0.0000, 0.0000, 0.0000
29-Jan-2019 12:35:24.396, 0.0736,-0.2503,-0.9173, 0.0165,-0.0095, 0.0515,-0.0211,-0.0203,-0.0129, 0.0588, 0.2433,-0.5854,49.736210,-123.103247, 0.0040, 223.0055, 121.185921, 4.0, 3.0,Stationary,Low, 100.7251,-0.7531,-31.3986,-121.2831,-448.7838, 0.0000, 0.0000, 0.0000
29-Jan-2019 12:35:24.396, 0.0500,-0.2483,-0.9556, 0.0165,-0.0095, 0.0515,-0.0211,-0.0203,-0.0129, 0.0588, 0.2433,-0.5854,49.736210,-123.103247, 0.0040, 223.0055, 121.185921, 4.0, 3.0,Stationary,Low, 100.7251,-0.7531,-31.3986,-121.2831,-448.7838, 0.0000, 0.0000, 0.0000
29-Jan-2019 12:35:24.397, 0.0500,-0.2483,-0.9556, 0.0165,-0.0095, 0.0515,-0.0211,-0.0203,-0.0129, 0.0588, 0.2433,-0.5854,49.736210,-123.103247, 0.0040, 223.0055, 121.185921, 4.0, 3.0,Stationary,Low, 100.7251,-0.7531,-31.3986,-121.2831,-448.7838, 0.0000, 0.0000, 0.0000
29-Jan-2019 12:35:24.399, 0.0500,-0.2483,-0.9556, 0.0165,-0.0095, 0.0515,-0.0211,-0.0203,-0.0129, 0.0588, 0.2433,-0.5854,49.736210,-123.103247, 0.0040, 223.0055, 121.185921, 4.0, 3.0,Stationary,Low, 100.7251,-0.7531,-31.3986,-121.2831,-448.7838, 0.0000, 0.0000, 0.0000
29-Jan-2019 12:35:24.406, 0.0175,-0.2599,-1.0166,-0.0070,-0.0071, 0.0132, 0.0597,-0.0124,-0.0093, 0.0588, 0.2437,-0.5854,49.736210,-123.103247, 0.0040, 223.0055, 121.185921, 4.0, 3.0,Stationary,Low, 100.7251,-0.7531,-31.3986,-121.2831,-448.7838, 0.0000, 0.0000, 0.0000
29-Jan-2019 12:35:24.416, 0.0466,-0.2452,-0.9266,-0.0395,-0.0183,-0.0479,-0.0201,-0.0139,-0.0108, 0.0588, 0.2441,-0.5854,49.736210,-123.103247, 0.0040, 223.0055, 121.185921, 4.0, 3.0,Stationary,Low, 100.7251,-0.7531,-31.3986,-121.2831,-448.7838, 0.0000, 0.0000, 0.0000
29-Jan-2019 12:35:24.426, 0.0478,-0.2377,-0.8906,-0.0103,-0.0040, 0.0422,-0.0701,-0.0142,-0.0132, 0.0587, 0.2436,-0.5853,49.736210,-123.103247, 0.0040, 223.0055, 121.185921, 4.0, 3.0,Stationary,Low, 100.7251,-0.7531,-31.3253,-121.5108,-450.4353, 0.0000, 0.0000, 0.0000
29-Jan-2019 12:35:24.436, 0.0157,-0.2570,-0.9978,-0.0092, 0.0034, 0.0783, 0.0310,-0.0104,-0.0095, 0.0587, 0.2435,-0.5853,49.736210,-123.103247, 0.0040, 223.0055, 121.185921, 4.0, 3.0,Stationary,Low, 100.7251,-0.7531,-31.3253,-121.5108,-450.4353, 0.0000, 0.0000, 0.0000
29-Jan-2019 12:35:24.446, 0.0390,-0.2605,-0.9963,-0.0413,-0.0153,-0.0291, 0.0396,-0.0167,-0.0116, 0.0587, 0.2441,-0.5854,49.736210,-123.103247, 0.0040, 223.0055, 121.185921, 4.0, 3.0,Stationary,Low, 100.7251,-0.7531,-31.3253,-121.5108,-450.4353, 0.0000, 0.0000, 0.0000
29-Jan-2019 12:35:24.456, 0.0656,-0.2395,-0.8968,-0.0179,-0.0189,-0.0276,-0.0658,-0.0163,-0.0131, 0.0587, 0.2441,-0.5854,49.736210,-123.103247, 0.0040, 223.0055, 121.185921, 4.0, 3.0,Stationary,Low, 100.7251,-0.7531,-31.3253,-121.5108,-450.4353, 0.0000, 0.0000, 0.0000
29-Jan-2019 12:35:24.466, 0.0323,-0.2474,-0.9491, 0.0088, 0.0018, 0.0720,-0.0147,-0.0149,-0.0139, 0.0586, 0.2437,-0.5853,49.736210,-123.103247, 0.0040, 223.0055, 121.185921, 4.0, 3.0,Stationary,Low, 100.7251,-0.7531,-31.3218,-121.1296,-447.3584, 0.0000, 0.0000, 0.0000
29-Jan-2019 12:35:24.476, 0.0128,-0.2597,-1.0119,-0.0245,-0.0057, 0.0196, 0.0608,-0.0102,-0.0125, 0.0586, 0.2441,-0.5854,49.736210,-123.103247, 0.0040, 223.0055, 121.185921, 4.0, 3.0,Stationary,Low, 100.7251,-0.7531,-31.3218,-121.1296,-447.3584, 0.0000, 0.0000, 0.0000
29-Jan-2019 12:35:24.486, 0.0548,-0.2510,-0.9228,-0.0440,-0.0176,-0.0433,-0.0264,-0.0150,-0.0119, 0.0586, 0.2445,-0.5854,49.736210,-123.103247, 0.0040, 223.0055, 121.185921, 4.0, 3.0,Stationary,Low, 100.7251,-0.7531,-31.3218,-121.1296,-447.3584, 0.0000, 0.0000, 0.0000
29-Jan-2019 12:35:24.496, 0.0561,-0.2402,-0.9022,-0.0020,-0.0094, 0.0459,-0.0626,-0.0141,-0.0121, 0.0586, 0.2440,-0.5853,49.736210,-123.103247, 0.0040, 223.0055, 121.185921, 4.0, 3.0,Stationary,Low, 100.7251,-0.7531,-31.3218,-121.1296,-447.3584, 0.0000, 0.0000, 0.0000
29-Jan-2019 12:35:24.506, 0.0155,-0.2598,-1.0033,-0.0007, 0.0014, 0.0665, 0.0416,-0.0103,-0.0105, 0.0586, 0.2440,-0.5853,49.736210,-123.103247, 0.0040, 223.0055, 121.185921, 4.0, 3.0,Stationary,Low, 100.7251,-0.7531,-31.4721,-121.8109,-449.9110, 0.0000, 0.0000, 0.0000
29-Jan-2019 12:35:24.516, 0.0353,-0.2572,-0.9799,-0.0414,-0.0176,-0.0348, 0.0236,-0.0136,-0.0095, 0.0586, 0.2446,-0.5853,49.736210,-123.103247, 0.0040, 223.0055, 121.185921, 4.0, 3.0,Stationary,Low, 100.7251,-0.7531,-31.4721,-121.8109,-449.9110, 0.0000, 0.0000, 0.0000
29-Jan-2019 12:35:24.526, 0.0672,-0.2409,-0.8947,-0.0214,-0.0152,-0.0113,-0.0711,-0.0184,-0.0100, 0.0585, 0.2444,-0.5853,49.736210,-123.103247, 0.0040, 223.0055, 121.185921, 4.0, 3.0,Stationary,Low, 100.7251,-0.7531,-31.4721,-121.8109,-449.9110, 0.0000, 0.0000, 0.0000
29-Jan-2019 12:35:24.536, 0.0247,-0.2476,-0.9649, 0.0105, 0.0008, 0.0740,-0.0062,-0.0149,-0.0128, 0.0584, 0.2441,-0.5853,49.736210,-123.103247, 0.0040, 223.0055, 121.185921, 4.0, 3.0,Stationary,Low, 100.7251,-0.7531,-31.4721,-121.8109,-449.9110, 0.0000, 0.0000, 0.0000
29-Jan-2019 12:35:24.545, 0.0051,-0.2644,-1.0171,-0.0320,-0.0055, 0.0037, 0.0672,-0.0102,-0.0093, 0.0585, 0.2446,-0.5853,49.736210,-123.103247, 0.0040, 223.0055, 121.185921, 4.0, 3.0,Stationary,Low, 100.7251,-0.7531,-31.2451,-121.5050,-447.8107, 0.0000, 0.0000, 0.0000
29-Jan-2019 12:35:24.555, 0.0508,-0.2490,-0.9179,-0.0515,-0.0218,-0.0487,-0.0254,-0.0171,-0.0087, 0.0584, 0.2450,-0.5853,49.736210,-123.103247, 0.0040, 223.0055, 121.185921, 4.0, 3.0,Stationary,Low, 100.7251,-0.7531,-31.2451,-121.5050,-447.8107, 0.0000, 0.0000, 0.0000
29-Jan-2019 12:35:24.565, 0.0591,-0.2401,-0.9035,-0.0058,-0.0068, 0.0507,-0.0626,-0.0216,-0.0099, 0.0583, 0.2445,-0.5852,49.736210,-123.103247, 0.0040, 223.0055, 121.185921, 4.0, 3.0,Stationary,Low, 100.7251,-0.7531,-31.2451,-121.5050,-447.8107, 0.0000, 0.0000, 0.0000
29-Jan-2019 12:35:24.575, 0.0227,-0.2609,-1.0159, 0.0027, 0.0021, 0.0651, 0.0576,-0.0198,-0.0083, 0.0582, 0.2446,-0.5852,49.736210,-123.103247, 0.0040, 223.0055, 121.185921, 4.0, 3.0,Stationary,Low, 100.7251,-0.7531,-31.2451,-121.5050,-447.8107, 0.0000, 0.0000, 0.0000
29-Jan-2019 12:35:24.585, 0.0291,-0.2576,-0.9857,-0.0337,-0.0179,-0.0475, 0.0512,-0.0167,-0.0072, 0.0582, 0.2455,-0.5852,49.736210,-123.103247, 0.0040, 223.0055, 121.185921, 4.0, 3.0,Stationary,Low, 100.7251,-0.7531,-31.5486,-121.5863,-449.8344, 0.0000, 0.0000, 0.0000
29-Jan-2019 12:35:24.595, 0.0579,-0.2358,-0.8741,-0.0272,-0.0146,-0.0173,-0.0669,-0.0163,-0.0089, 0.0581, 0.2455,-0.5852,49.736210,-123.103247, 0.0040, 223.0055, 121.185921, 4.0, 3.0,Stationary,Low, 100.7251,-0.7531,-31.5486,-121.5863,-449.8344, 0.0000, 0.0000, 0.0000
29-Jan-2019 12:35:24.605, 0.0316,-0.2434,-0.9442, 0.0016, 0.0068, 0.0944,-0.0179,-0.0171,-0.0129, 0.0580, 0.2450,-0.5851,49.736210,-123.103247, 0.0040, 223.0055, 121.185921, 4.0, 3.0,Stationary,Low, 100.7251,-0.7531,-31.5486,-121.5863,-449.8344, 0.0000, 0.0000, 0.0000
29-Jan-2019 12:35:24.615, 0.0153,-0.2613,-1.0308,-0.0247,-0.0003, 0.0242, 0.0842,-0.0165,-0.0081, 0.0580, 0.2456,-0.5851,49.736210,-123.103247, 0.0040, 223.0055, 121.185921, 4.0, 3.0,Stationary,Low, 100.7251,-0.7531,-31.5486,-121.5863,-449.8344, 0.0000, 0.0000, 0.0000
29-Jan-2019 12:35:24.625, 0.0553,-0.2506,-0.9306,-0.0409,-0.0176,-0.0626,-0.0136,-0.0245,-0.0076, 0.0579, 0.2461,-0.5851,49.736210,-123.103247, 0.0040, 223.0055, 121.185921, 4.0, 3.0,Stationary,Low, 100.7251,-0.7531,-31.4740,-121.4351,-449.5341, 0.0000, 0.0000, 0.0000
29-Jan-2019 12:35:24.635, 0.0633,-0.2355,-0.8843,-0.0007,-0.0074, 0.0378,-0.0785,-0.0281,-0.0100, 0.0578, 0.2457,-0.5851,49.736210,-123.103247, 0.0040, 223.0055, 121.185921, 4.0, 3.0,Stationary,Low, 100.7251,-0.7531,-31.4740,-121.4351,-449.5341, 0.0000, 0.0000, 0.0000
29-Jan-2019 12:35:24.645, 0.0180,-0.2553,-1.0043, 0.0075, 0.0076, 0.0841, 0.0470,-0.0188,-0.0136, 0.0576, 0.2456,-0.5851,49.736210,-123.103247, 0.0040, 223.0055, 121.185921, 4.0, 3.0,Stationary,Low, 100.7251,-0.7531,-31.4740,-121.4351,-449.5341, 0.0000, 0.0000, 0.0000
29-Jan-2019 12:35:24.655, 0.0189,-0.2658,-0.9962,-0.0379,-0.0114,-0.0361, 0.0502,-0.0114,-0.0104, 0.0576, 0.2463,-0.5851,49.736210,-123.103247, 0.0040, 223.0055, 121.185921, 4.0, 3.0,Stationary,Low, 100.7251,-0.7531,-31.4740,-121.4351,-449.5341, 0.0000, 0.0000, 0.0000
29-Jan-2019 12:35:24.665, 0.0558,-0.2449,-0.8762,-0.0369,-0.0221,-0.0280,-0.0861,-0.0132,-0.0122, 0.0576, 0.2462,-0.5851,49.736210,-123.103247, 0.0040, 223.0055, 121.185921, 4.0, 3.0,Stationary,Low, 100.7251,-0.7531,-31.3196,-121.4295,-447.2849, 0.0000, 0.0000, 0.0000
29-Jan-2019 12:35:24.675, 0.0401,-0.2466,-0.9433,-0.0000,-0.0018, 0.0922,-0.0467,-0.0119,-0.0152, 0.0576, 0.2456,-0.5851,49.736210,-123.103247, 0.0040, 223.0055, 121.185921, 4.0, 3.0,Stationary,Low, 100.7251,-0.7531,-31.3196,-121.4295,-447.2849, 0.0000, 0.0000, 0.0000
29-Jan-2019 12:35:24.685, 0.0144,-0.2711,-1.0512,-0.0158,-0.0031, 0.0250, 0.0799,-0.0091,-0.0113, 0.0576, 0.2459,-0.5851,49.736210,-123.103247, 0.0040, 223.0055, 121.185921, 4.0, 3.0,Stationary,Low, 100.7251,-0.7531,-31.3196,-121.4295,-447.2849, 0.0000, 0.0000, 0.0000
29-Jan-2019 12:35:24.695, 0.0415,-0.2596,-0.9479,-0.0415,-0.0272,-0.0830,-0.0265,-0.0129,-0.0108, 0.0577, 0.2464,-0.5851,49.736210,-123.103247, 0.0040, 223.0055, 121.185921, 4.0, 3.0,Stationary,Low, 100.7251,-0.7531,-31.3196,-121.4295,-447.2849, 0.0000, 0.0000, 0.0000
29-Jan-2019 12:35:24.704, 0.0620,-0.2491,-0.8816,-0.0143,-0.0163, 0.0204,-0.1031,-0.0165,-0.0112, 0.0576, 0.2458,-0.5851,49.736210,-123.103247, 0.0040, 223.0055, 121.185921, 4.0, 3.0,Stationary,Low, 100.7251,-0.7531,-31.2476,-121.3565,-448.5600, 0.0000, 0.0000, 0.0000
29-Jan-2019 12:35:24.715, 0.0267,-0.2525,-1.0054, 0.0062,-0.0061, 0.0868, 0.0246,-0.0136,-0.0138, 0.0576, 0.2454,-0.5850,49.736210,-123.103247, 0.0040, 223.0055, 121.185921, 4.0, 3.0,Stationary,Low, 100.7251,-0.7531,-31.2476,-121.3565,-448.5600, 0.0000, 0.0000, 0.0000
29-Jan-2019 12:35:24.725, 0.0167,-0.2636,-1.0154,-0.0292,-0.0089,-0.0371, 0.0597,-0.0028,-0.0114, 0.0576, 0.2462,-0.5851,49.736210,-123.103247, 0.0040, 223.0055, 121.185921, 4.0, 3.0,Stationary,Low, 100.7251,-0.7531,-31.2476,-121.3565,-448.5600, 0.0000, 0.0000, 0.0000
29-Jan-2019 12:35:24.734, 0.0530,-0.2469,-0.8781,-0.0392,-0.0199,-0.0472,-0.0754,-0.0067,-0.0132, 0.0577, 0.2462,-0.5851,49.736210,-123.103247, 0.0040, 223.0055, 121.185921, 4.0, 3.0,Stationary,Low, 100.7251,-0.7531,-31.2476,-121.3565,-448.5600, 0.0000, 0.0000, 0.0000
29-Jan-2019 12:35:24.744, 0.0509,-0.2401,-0.9118,-0.0030,-0.0039, 0.0903,-0.0616,-0.0120,-0.0131, 0.0577, 0.2455,-0.5851,49.736210,-123.103247, 0.0040, 223.0055, 121.185921, 4.0, 3.0,Stationary,Low, 100.7251,-0.7531,-31.5476,-121.9629,-450.6613, 0.0000, 0.0000, 0.0000
29-Jan-2019 12:35:24.754, 0.0226,-0.2637,-1.0384,-0.0051, 0.0032, 0.0566, 0.0757,-0.0123,-0.0124, 0.0577, 0.2457,-0.5851,49.736210,-123.103247, 0.0040, 223.0055, 121.185921, 4.0, 3.0,Stationary,Low, 100.7251,-0.7531,-31.5476,-121.9629,-450.6613, 0.0000, 0.0000, 0.0000
29-Jan-2019 12:35:24.764, 0.0411,-0.2584,-0.9624,-0.0333,-0.0198,-0.0702,-0.0041,-0.0170,-0.0096, 0.0577, 0.2463,-0.5851,49.736210,-123.103247, 0.0040, 223.0055, 121.185921, 4.0, 3.0,Stationary,Low, 100.7238,-0.6474,-31.5476,-121.9629,-450.6613, 0.0000, 0.0000, 0.0000
29-Jan-2019 12:35:24.774, 0.0637,-0.2465,-0.8754,-0.0147,-0.0151, 0.0060,-0.1052,-0.0218,-0.0102, 0.0576, 0.2458,-0.5850,49.736210,-123.103247, 0.0040, 223.0055, 121.185921, 4.0, 3.0,Stationary,Low, 100.7238,-0.6474,-31.5476,-121.9629,-450.6613, 0.0000, 0.0000, 0.0000
29-Jan-2019 12:35:24.784, 0.0244,-0.2538,-0.9913, 0.0080,-0.0036, 0.0930, 0.0140,-0.0126,-0.0149, 0.0575, 0.2454,-0.5850,49.736210,-123.103247, 0.0040, 223.0055, 121.185921, 4.0, 3.0,Stationary,Low, 100.7238,-0.6474,-31.0966,-121.8831,-449.9134, 0.0000, 0.0000, 0.0000
29-Jan-2019 12:35:24.794, 0.0004,-0.2598,-1.0195,-0.0314,-0.0102,-0.0230, 0.0639,-0.0049,-0.0114, 0.0576, 0.2461,-0.5851,49.736210,-123.103247, 0.0040, 223.0055, 121.185921, 4.0, 3.0,Stationary,Low, 100.7238,-0.6474,-31.0966,-121.8831,-449.9134, 0.0000, 0.0000, 0.0000
29-Jan-2019 12:35:24.804, 0.0468,-0.2492,-0.8840,-0.0555,-0.0162,-0.0512,-0.0787,-0.0079,-0.0089, 0.0576, 0.2461,-0.5851,49.736210,-123.103247, 0.0040, 223.0055, 121.185921, 4.0, 3.0,Stationary,Low, 100.7238,-0.6474,-31.0966,-121.8831,-449.9134, 0.0000, 0.0000, 0.0000
29-Jan-2019 12:35:24.814, 0.0656,-0.2424,-0.9053,-0.0090,-0.0063, 0.0844,-0.0679,-0.0163,-0.0110, 0.0576, 0.2454,-0.5850,49.736210,-123.103247, 0.0040, 223.0055, 121.185921, 4.0, 3.0,Stationary,Low, 100.7238,-0.6474,-31.0966,-121.8831,-449.9134, 0.0000, 0.0000, 0.0000
29-Jan-2019 12:35:24.824, 0.0269,-0.2534,-1.0337, 0.0097, 0.0006, 0.0631, 0.0598,-0.0156,-0.0104, 0.0576, 0.2455,-0.5850,49.736210,-123.103247, 0.0040, 223.0055, 121.185921, 4.0, 3.0,Stationary,Low, 100.7238,-0.6474,-31.0976,-121.2798,-448.2604, 0.0000, 0.0000, 0.0000
29-Jan-2019 12:35:24.834, 0.0216,-0.2605,-0.9705,-0.0289,-0.0098,-0.0655, 0.0129,-0.0095,-0.0095, 0.0576, 0.2461,-0.5850,49.736210,-123.103247, 0.0040, 223.0055, 121.185921, 4.0, 3.0,Stationary,Low, 100.7238,-0.6474,-31.0976,-121.2798,-448.2604, 0.0000, 0.0000, 0.0000
29-Jan-2019 12:35:24.844, 0.0498,-0.2381,-0.8635,-0.0342,-0.0172,-0.0022,-0.0946,-0.0122,-0.0101, 0.0576, 0.2457,-0.5849,49.736210,-123.103247, 0.0040, 223.0055, 121.185921, 4.0, 3.0,Stationary,Low, 100.7238,-0.6474,-31.0976,-121.2798,-448.2604, 0.0000, 0.0000, 0.0000
29-Jan-2019 12:35:24.854, 0.0314,-0.2438,-0.9564,-0.0060, 0.0047, 0.1050,-0.0137,-0.0096,-0.0161, 0.0576, 0.2452,-0.5849,49.736210,-123.103247, 0.0040, 223.0055, 121.185921, 4.0, 3.0,Stationary,Low, 100.7238,-0.6474,-31.0976,-121.2798,-448.2604, 0.0000, 0.0000, 0.0000
29-Jan-2019 12:35:24.863, 0.0144,-0.2625,-1.0339,-0.0245,-0.0006, 0.0119, 0.0661,-0.0038,-0.0125, 0.0576, 0.2457,-0.5850,49.736210,-123.103247, 0.0040, 223.0055, 121.185921, 4.0, 3.0,Stationary,Low, 100.7238,-0.6474,-31.0987,-121.3564,-449.0858, 0.0000, 0.0000, 0.0000
29-Jan-2019 12:35:24.873, 0.0463,-0.2501,-0.9220,-0.0415,-0.0188,-0.0657,-0.0308,-0.0065,-0.0108, 0.0577, 0.2461,-0.5850,49.736210,-123.103247, 0.0040, 223.0055, 121.185921, 4.0, 3.0,Stationary,Low, 100.7238,-0.6474,-31.0987,-121.3564,-449.0858, 0.0000, 0.0000, 0.0000
29-Jan-2019 12:35:24.884, 0.0614,-0.2387,-0.8841,-0.0096,-0.0071, 0.0464,-0.0807,-0.0121,-0.0132, 0.0577, 0.2455,-0.5849,49.736210,-123.103247, 0.0040, 223.0055, 121.185921, 4.0, 3.0,Stationary,Low, 100.7238,-0.6474,-31.0987,-121.3564,-449.0858, 0.0000, 0.0000, 0.0000
29-Jan-2019 12:35:24.893, 0.0213,-0.2512,-1.0050, 0.0055, 0.0042, 0.0844, 0.0352,-0.0072,-0.0126, 0.0577, 0.2454,-0.5849,49.736210,-123.103247, 0.0040, 223.0055, 121.185921, 4.0, 3.0,Stationary,Low, 100.7238,-0.6474,-31.0987,-121.3564,-449.0858, 0.0000, 0.0000, 0.0000
29-Jan-2019 12:35:24.903, 0.0256,-0.2574,-1.0023,-0.0347,-0.0076,-0.0367, 0.0405,-0.0061,-0.0094, 0.0578, 0.2460,-0.5849,49.736210,-123.103247, 0.0040, 223.0055, 121.185921, 4.0, 3.0,Stationary,Low, 100.7238,-0.6474,-31.3962,-121.9604,-449.9872, 0.0000, 0.0000, 0.0000
29-Jan-2019 12:35:24.913, 0.0646,-0.2462,-0.8910,-0.0304,-0.0139,-0.0341,-0.0786,-0.0142,-0.0100, 0.0578, 0.2459,-0.5849,49.736210,-123.103247, 0.0040, 223.0055, 121.185921, 4.0, 3.0,Stationary,Low, 100.7238,-0.6474,-31.3962,-121.9604,-449.9872, 0.0000, 0.0000, 0.0000
29-Jan-2019 12:35:24.923, 0.0436,-0.2458,-0.9466, 0.0086,-0.0033, 0.0775,-0.0307,-0.0129,-0.0130, 0.0577, 0.2454,-0.5849,49.736210,-123.103247, 0.0040, 223.0055, 121.185921, 4.0, 3.0,Stationary,Low, 100.7238,-0.6474,-31.3962,-121.9604,-449.9872, 0.0000, 0.0000, 0.0000
29-Jan-2019 12:35:24.933, 0.0105,-0.2623,-1.0387,-0.0124,-0.0025, 0.0217, 0.0757,-0.0048,-0.0113, 0.0578, 0.2458,-0.5849,49.736210,-123.103247, 0.0040, 223.0055, 121.185921, 4.0, 3.0,Stationary,Low, 100.7238,-0.6474,-31.3962,-121.9604,-449.9872, 0.0000, 0.0000, 0.0000
29-Jan-2019 12:35:24.943, 0.0410,-0.2492,-0.9360,-0.0456,-0.0185,-0.0705,-0.0254,-0.0065,-0.0129, 0.0578, 0.2463,-0.5849,49.736210,-123.103247, 0.0040, 223.0055, 121.185921, 4.0, 3.0,Stationary,Low, 100.7238,-0.6474,-32.1492,-122.1957,-452.3092, 0.0000, 0.0000, 0.0000
29-Jan-2019 12:35:24.953, 0.0666,-0.2466,-0.8847,-0.0150,-0.0060, 0.0323,-0.0924,-0.0132,-0.0133, 0.0578, 0.2457,-0.5849,49.736210,-123.103247, 0.0040, 223.0055, 121.185921, 4.0, 3.0,Stationary,Low, 100.7238,-0.6474,-32.1492,-122.1957,-452.3092, 0.0000, 0.0000, 0.0000
29-Jan-2019 12:35:24.963, 0.0306,-0.2603,-1.0160, 0.0105,-0.0035, 0.0837, 0.0406,-0.0125,-0.0126, 0.0578, 0.2455,-0.5849,49.736210,-123.103247, 0.0040, 223.0055, 121.185921, 4.0, 3.0,Stationary,Low, 100.7238,-0.6474,-32.1492,-122.1957,-452.3092, 0.0000, 0.0000, 0.0000
29-Jan-2019 12:35:24.973, 0.0159,-0.2570,-1.0120,-0.0254,-0.0165,-0.0478, 0.0565,-0.0092,-0.0093, 0.0578, 0.2463,-0.5849,49.736210,-123.103247, 0.0040, 223.0055, 121.185921, 4.0, 3.0,Stationary,Low, 100.7238,-0.6474,-32.1492,-122.1957,-452.3092, 0.0000, 0.0000, 0.0000
29-Jan-2019 12:35:24.984, 0.0580,-0.2462,-0.8794,-0.0402,-0.0133,-0.0438,-0.0946,-0.0132,-0.0133, 0.0578, 0.2461,-0.5849,49.736210,-123.103247, 0.0040, 223.0055, 121.185921, 4.0, 3.0,Stationary,Low, 100.7238,-0.6474,-31.5499,-121.2099,-449.1575, 0.0000, 0.0000, 0.0000
29-Jan-2019 12:35:24.992, 0.0500,-0.2488,-0.9362, 0.0020,-0.0032, 0.0890,-0.0286,-0.0139,-0.0130, 0.0578, 0.2455,-0.5849,49.736210,-123.103247, 0.0040, 223.0055, 121.185921, 4.0, 3.0,Stationary,Low, 100.7238,-0.6474,-31.5499,-121.2099,-449.1575, 0.0000, 0.0000, 0.0000
29-Jan-2019 12:35:25.003, 0.0177,-0.2603,-1.0396,-0.0060,-0.0053, 0.0321, 0.0767,-0.0080,-0.0113, 0.0578, 0.2459,-0.5849,49.736210,-123.103247, 0.0040, 223.0055, 121.185921, 4.0, 3.0,Stationary,Low, 100.7238,-0.6474,-31.5499,-121.2099,-449.1575, 0.0000, 0.0000, 0.0000
29-Jan-2019 12:35:25.012, 0.0378,-0.2522,-0.9307,-0.0383,-0.0164,-0.0714,-0.0222,-0.0096,-0.0118, 0.0578, 0.2464,-0.5849,49.736210,-123.103247, 0.0040, 223.0055, 121.185921, 4.0, 3.0,Stationary,Low, 100.7238,-0.6474,-31.5499,-121.2099,-449.1575, 0.0000, 0.0000, 0.0000
29-Jan-2019 12:35:25.022, 0.0656,-0.2402,-0.8713,-0.0182,-0.0088, 0.0376,-0.0882,-0.0153,-0.0122, 0.0578, 0.2459,-0.5849,49.736210,-123.103247, 0.0040, 223.0055, 121.185921, 4.0, 3.0,Stationary,Low, 100.7238,-0.6474,-31.1743,-121.2821,-449.1600, 0.0000, 0.0000, 0.0000
29-Jan-2019 12:35:25.042, 0.0221,-0.2619,-1.0034,-0.0273,-0.0139,-0.0278, 0.0512,-0.0145,-0.0104, 0.0578, 0.2463,-0.5849,49.736210,-123.103247, 0.0040, 223.0055, 121.185921, 4.0, 3.0,Stationary,Low, 100.7238,-0.6474,-31.1743,-121.2821,-449.1600, 0.0000, 0.0000, 0.0000
29-Jan-2019 12:35:25.044, 0.0221,-0.2619,-1.0034,-0.0273,-0.0139,-0.0278, 0.0512,-0.0145,-0.0104, 0.0578, 0.2463,-0.5849,49.736210,-123.103247, 0.0040, 223.0055, 121.185921, 4.0, 3.0,Stationary,Low, 100.7238,-0.6474,-31.1743,-121.2821,-449.1600, 0.0000, 0.0000, 0.0000
29-Jan-2019 12:35:25.052, 0.0570,-0.2438,-0.8803,-0.0338,-0.0181,-0.0352,-0.0786,-0.0185,-0.0089, 0.0577, 0.2463,-0.5849,49.736210,-123.103247, 0.0040, 223.0055, 121.185921, 4.0, 3.0,Stationary,Low, 100.7238,-0.6474,-31.1743,-121.2821,-449.1600, 0.0000, 0.0000, 0.0000
29-Jan-2019 12:35:25.062, 0.0467,-0.2491,-0.9241, 0.0012,-0.0006, 0.0881,-0.0424,-0.0183,-0.0141, 0.0576, 0.2456,-0.5848,49.736210,-123.103247, 0.0040, 223.0055, 121.185921, 4.0, 3.0,Stationary,Low, 100.7238,-0.6474,-31.7740,-121.9661,-451.4101, 0.0000, 0.0000, 0.0000
29-Jan-2019 12:35:25.072, 0.0088,-0.2648,-1.0281,-0.0092,-0.0056, 0.0442, 0.0778,-0.0101,-0.0103, 0.0576, 0.2460,-0.5848,49.736210,-123.103247, 0.0040, 223.0055, 121.185921, 4.0, 3.0,Stationary,Low, 100.7238,-0.6474,-31.7740,-121.9661,-451.4101, 0.0000, 0.0000, 0.0000
29-Jan-2019 12:35:25.082, 0.0337,-0.2486,-0.9308,-0.0471,-0.0207,-0.0600,-0.0137,-0.0096,-0.0129, 0.0577, 0.2466,-0.5848,49.736210,-123.103247, 0.0040, 223.0055, 121.185921, 4.0, 3.0,Stationary,Low, 100.7238,-0.6474,-31.7740,-121.9661,-451.4101, 0.0000, 0.0000, 0.0000
29-Jan-2019 12:35:25.092, 0.0691,-0.2453,-0.8641,-0.0222,-0.0051, 0.0375,-0.0967,-0.0186,-0.0101, 0.0576, 0.2460,-0.5848,49.736210,-123.103247, 0.0040, 223.0055, 121.185921, 4.0, 3.0,Stationary,Low, 100.7238,-0.6474,-31.7740,-121.9661,-451.4101, 0.0000, 0.0000, 0.0000
29-Jan-2019 12:35:25.102, 0.0391,-0.2581,-0.9948, 0.0133,-0.0021, 0.1043, 0.0289,-0.0179,-0.0116, 0.0575, 0.2457,-0.5848,49.736210,-123.103247, 0.0040, 223.0055, 121.185921, 4.0, 3.0,Stationary,Low, 100.7238,-0.6474,-31.7740,-121.9661,-451.4101, 0.0000, 0.0000, 0.0000
29-Jan-2019 12:35:25.112, 0.0180,-0.2651,-1.0142,-0.0167,-0.0142,-0.0266, 0.0544,-0.0145,-0.0104, 0.0575, 0.2464,-0.5848,49.736210,-123.103247, 0.0040, 223.0055, 121.185921, 4.0, 3.0,Stationary,Low, 100.7238,-0.6474,-31.1716,-121.5059,-448.5611, 0.0000, 0.0000, 0.0000
29-Jan-2019 12:35:25.122, 0.0414,-0.2430,-0.8829,-0.0377,-0.0212,-0.0460,-0.0701,-0.0153,-0.0089, 0.0575, 0.2464,-0.5848,49.736210,-123.103247, 0.0040, 223.0055, 121.185921, 4.0, 3.0,Stationary,Low, 100.7238,-0.6474,-31.1716,-121.5059,-448.5611, 0.0000, 0.0000, 0.0000
29-Jan-2019 12:35:25.132, 0.0462,-0.2497,-0.9152,-0.0143, 0.0004, 0.0854,-0.0541,-0.0141,-0.0131, 0.0574, 0.2458,-0.5847,49.736210,-123.103247, 0.0040, 223.0055, 121.185921, 4.0, 3.0,Stationary,Low, 100.7238,-0.6474,-31.1716,-121.5059,-448.5611, 0.0000, 0.0000, 0.0000
29-Jan-2019 12:35:25.142, 0.0223,-0.2612,-1.0316,-0.0095,-0.0062, 0.0531, 0.0597,-0.0124,-0.0114, 0.0575, 0.2460,-0.5847,49.736210,-123.103247, 0.0040, 223.0055, 121.185921, 4.0, 3.0,Stationary,Low, 100.7238,-0.6474,-31.1716,-121.5059,-448.5611, 0.0000, 0.0000, 0.0000
29-Jan-2019 12:35:25.151, 0.0334,-0.2524,-0.9647,-0.0334,-0.0171,-0.0634, 0.0076,-0.0105,-0.0117, 0.0575, 0.2466,-0.5848,49.736210,-123.103247, 0.0040, 223.0055, 121.185921, 4.0, 3.0,Stationary,Low, 100.7238,-0.6474,-31.5480,-121.7367,-450.0602, 0.0000, 0.0000, 0.0000
29-Jan-2019 12:35:25.161, 0.0588,-0.2412,-0.8765,-0.0223,-0.0087, 0.0035,-0.0850,-0.0111,-0.0143, 0.0575, 0.2462,-0.5847,49.736210,-123.103247, 0.0040, 223.0055, 121.185921, 4.0, 3.0,Stationary,Low, 100.7238,-0.6474,-31.5480,-121.7367,-450.0602, 0.0000, 0.0000, 0.0000
29-Jan-2019 12:35:25.171, 0.0218,-0.2506,-0.9712, 0.0031, 0.0021, 0.0919,-0.0009,-0.0106,-0.0139, 0.0575, 0.2458,-0.5847,49.736210,-123.103247, 0.0013, 223.0055, 121.183189, 4.0, 3.0,Stationary,Low, 100.7238,-0.6474,-31.5480,-121.7367,-450.0602, 0.0000, 0.0000, 0.0000
29-Jan-2019 12:35:25.181, 0.0119,-0.2625,-1.0253,-0.0340,-0.0067,-0.0030, 0.0565,-0.0103,-0.0104, 0.0575, 0.2463,-0.5848,49.736210,-123.103247, 0.0013, 223.0055, 121.183189, 4.0, 3.0,Stationary,Low, 100.7238,-0.6474,-31.5480,-121.7367,-450.0602, 0.0000, 0.0000, 0.0000
29-Jan-2019 12:35:25.191, 0.0559,-0.2448,-0.9212,-0.0438,-0.0185,-0.0571,-0.0520,-0.0194,-0.0120, 0.0575, 0.2465,-0.5848,49.736210,-123.103247, 0.0013, 223.0055, 121.183189, 4.0, 3.0,Stationary,Low, 100.7238,-0.6474,-31.1718,-121.5817,-448.9365, 0.0000, 0.0000, 0.0000
29-Jan-2019 12:35:25.201, 0.0485,-0.2423,-0.9251, 0.0003,-0.0013, 0.0472,-0.0605,-0.0173,-0.0131, 0.0574, 0.2459,-0.5847,49.736210,-123.103247, 0.0013, 223.0055, 121.183189, 4.0, 3.0,Stationary,Low, 100.7238,-0.6474,-31.1718,-121.5817,-448.9365, 0.0000, 0.0000, 0.0000
29-Jan-2019 12:35:25.211, 0.0011,-0.2621,-1.0322,-0.0071, 0.0013, 0.0432, 0.0640,-0.0091,-0.0114, 0.0574, 0.2461,-0.5847,49.736210,-123.103247, 0.0013, 223.0055, 121.183189, 4.0, 3.0,Stationary,Low, 100.7238,-0.6474,-31.1718,-121.5817,-448.9365, 0.0000, 0.0000, 0.0000
29-Jan-2019 12:35:25.221, 0.0233,-0.2528,-0.9670,-0.0546,-0.0178,-0.0641, 0.0097,-0.0063,-0.0106, 0.0575, 0.2468,-0.5848,49.736210,-123.103247, 0.0013, 223.0055, 121.183189, 4.0, 3.0,Stationary,Low, 100.7238,-0.6474,-31.1718,-121.5817,-448.9365, 0.0000, 0.0000, 0.0000
29-Jan-2019 12:35:25.231, 0.0590,-0.2328,-0.8718,-0.0324,-0.0089, 0.0012,-0.0935,-0.0175,-0.0122, 0.0574, 0.2464,-0.5847,49.736210,-123.103247, 0.0013, 223.0055, 121.183189, 4.0, 3.0,Stationary,Low, 100.7238,-0.6474,-31.5485,-121.8128,-450.5856, 0.0000, 0.0000, 0.0000
29-Jan-2019 12:35:25.241, 0.0342,-0.2508,-0.9858, 0.0034, 0.0107, 0.0966, 0.0023,-0.0180,-0.0117, 0.0573, 0.2459,-0.5847,49.736210,-123.103247, 0.0013, 223.0055, 121.183189, 4.0, 3.0,Stationary,Low, 100.7238,-0.6474,-31.5485,-121.8128,-450.5856, 0.0000, 0.0000, 0.0000
29-Jan-2019 12:35:25.251, 0.0223,-0.2755,-1.0462,-0.0213,-0.0067,-0.0176, 0.0810,-0.0154,-0.0092, 0.0573, 0.2466,-0.5847,49.736210,-123.103247, 0.0013, 223.0055, 121.183189, 4.0, 3.0,Stationary,Low, 100.7238,-0.6474,-31.5485,-121.8128,-450.5856, 0.0000, 0.0000, 0.0000
29-Jan-2019 12:35:25.261, 0.0422,-0.2364,-0.8988,-0.0332,-0.0311,-0.0781,-0.0520,-0.0162,-0.0109, 0.0573, 0.2469,-0.5847,49.736210,-123.103247, 0.0013, 223.0055, 121.183189, 4.0, 3.0,Stationary,Low, 100.7238,-0.6474,-31.5485,-121.8128,-450.5856, 0.0000, 0.0000, 0.0000
29-Jan-2019 12:35:25.271, 0.0413,-0.2324,-0.8839,-0.0132, 0.0072, 0.0694,-0.0892,-0.0143,-0.0122, 0.0572, 0.2462,-0.5846,49.736210,-123.103247, 0.0013, 223.0055, 121.183189, 4.0, 3.0,Stationary,Low, 100.7238,-0.6474,-30.8709,-121.4275,-447.9624, 0.0000, 0.0000, 0.0000
29-Jan-2019 12:35:25.281, 0.0176,-0.2708,-1.0386,-0.0141, 0.0113, 0.0844, 0.0682,-0.0081,-0.0114, 0.0572, 0.2462,-0.5846,49.736210,-123.103247, 0.0013, 223.0055, 121.183189, 4.0, 3.0,Stationary,Low, 100.7238,-0.6474,-30.8709,-121.4275,-447.9624, 0.0000, 0.0000, 0.0000
29-Jan-2019 12:35:25.291, 0.0286,-0.2579,-0.9892,-0.0379,-0.0264,-0.0705, 0.0299,-0.0040,-0.0116, 0.0573, 0.2470,-0.5847,49.736210,-123.103247, 0.0013, 223.0055, 121.183189, 4.0, 3.0,Stationary,Low, 100.7238,-0.6474,-30.8709,-121.4275,-447.9624, 0.0000, 0.0000, 0.0000
29-Jan-2019 12:35:25.301, 0.0571,-0.2418,-0.8559,-0.0270,-0.0138,-0.0211,-0.1148,-0.0059,-0.0134, 0.0573, 0.2466,-0.5846,49.736210,-123.103247, 0.0013, 223.0055, 121.183189, 4.0, 3.0,Stationary,Low, 100.7238,-0.6474,-30.8709,-121.4275,-447.9624, 0.0000, 0.0000, 0.0000
29-Jan-2019 12:35:25.310, 0.0349,-0.2556,-0.9560, 0.0015, 0.0016, 0.1125,-0.0094,-0.0063,-0.0171, 0.0573, 0.2459,-0.5846,49.736210,-123.103247, 0.0013, 223.0055, 121.183189, 4.0, 3.0,Stationary,Low, 100.7238,-0.6474,-31.6217,-121.8871,-449.9855, 0.0000, 0.0000, 0.0000
29-Jan-2019 12:35:25.320, 0.0189,-0.2600,-1.0316,-0.0208,-0.0116, 0.0122, 0.0767,-0.0048,-0.0103, 0.0574, 0.2465,-0.5847,49.736210,-123.103247, 0.0013, 223.0055, 121.183189, 4.0, 3.0,Stationary,Low, 100.7238,-0.6474,-31.6217,-121.8871,-449.9855, 0.0000, 0.0000, 0.0000
29-Jan-2019 12:35:25.330, 0.0590,-0.2482,-0.8926,-0.0368,-0.0158,-0.0635,-0.0626,-0.0120,-0.0121, 0.0575, 0.2468,-0.5847,49.736210,-123.103247, 0.0013, 223.0055, 121.183189, 4.0, 3.0,Stationary,Low, 100.7238,-0.6474,-31.6217,-121.8871,-449.9855, 0.0000, 0.0000, 0.0000
29-Jan-2019 12:35:25.341, 0.0543,-0.2389,-0.8820, 0.0033,-0.0046, 0.0757,-0.0711,-0.0120,-0.0142, 0.0574, 0.2460,-0.5846,49.736210,-123.103247, 0.0013, 223.0055, 121.183189, 4.0, 3.0,Stationary,Low, 100.7238,-0.6474,-31.6217,-121.8871,-449.9855, 0.0000, 0.0000, 0.0000
29-Jan-2019 12:35:25.350, 0.0070,-0.2611,-1.0176,-0.0014, 0.0048, 0.0862, 0.0693,-0.0038,-0.0103, 0.0575, 0.2462,-0.5847,49.736210,-123.103247, 0.0013, 223.0055, 121.183189, 4.0, 3.0,Stationary,Low, 100.7238,-0.6474,-31.5480,-121.9634,-450.8863, 0.0000, 0.0000, 0.0000
29-Jan-2019 12:35:25.360, 0.0302,-0.2558,-0.9624,-0.0488,-0.0167,-0.0495, 0.0118,-0.0062,-0.0138, 0.0575, 0.2469,-0.5847,49.736210,-123.103247, 0.0013, 223.0055, 121.183189, 4.0, 3.0,Stationary,Low, 100.7238,-0.6474,-31.5480,-121.9634,-450.8863, 0.0000, 0.0000, 0.0000
29-Jan-2019 12:35:25.370, 0.0713,-0.2412,-0.8688,-0.0255,-0.0119, 0.0058,-0.0988,-0.0143,-0.0133, 0.0575, 0.2464,-0.5847,49.736210,-123.103247, 0.0013, 223.0055, 121.183189, 4.0, 3.0,Stationary,Low, 100.7238,-0.6474,-31.5480,-121.9634,-450.8863, 0.0000, 0.0000, 0.0000
29-Jan-2019 12:35:25.380, 0.0417,-0.2632,-0.9861, 0.0156, 0.0023, 0.0995, 0.0108,-0.0148,-0.0128, 0.0575, 0.2460,-0.5846,49.736210,-123.103247, 0.0013, 223.0055, 121.183189, 4.0, 3.0,Stationary,Low, 100.7238,-0.6474,-31.5480,-121.9634,-450.8863, 0.0000, 0.0000, 0.0000
29-Jan-2019 12:35:25.390, 0.0213,-0.2709,-1.0310,-0.0140,-0.0190,-0.0179, 0.0746,-0.0080,-0.0092, 0.0575, 0.2467,-0.5847,49.736210,-123.103247, 0.0013, 223.0055, 121.183189, 4.0, 3.0,Stationary,Low, 100.7238,-0.6474,-30.7222,-120.8989,-446.7606, 0.0000, 0.0000, 0.0000
29-Jan-2019 12:35:25.400, 0.0556,-0.2474,-0.8876,-0.0345,-0.0265,-0.0629,-0.0658,-0.0131,-0.0121, 0.0575, 0.2469,-0.5847,49.736210,-123.103247, 0.0013, 223.0055, 121.183189, 4.0, 3.0,Stationary,Low, 100.7238,-0.6474,-30.7222,-120.8989,-446.7606, 0.0000, 0.0000, 0.0000
29-Jan-2019 12:35:25.410, 0.0496,-0.2481,-0.8926,-0.0001,-0.0037, 0.0806,-0.0743,-0.0142,-0.0132, 0.0575, 0.2461,-0.5846,49.736210,-123.103247, 0.0013, 223.0055, 121.183189, 4.0, 3.0,Stationary,Low, 100.7238,-0.6474,-30.7222,-120.8989,-446.7606, 0.0000, 0.0000, 0.0000
29-Jan-2019 12:35:25.420, 0.0196,-0.2690,-1.0344,-0.0062,-0.0043, 0.0756, 0.0683,-0.0123,-0.0103, 0.0575, 0.2463,-0.5846,49.736210,-123.103247, 0.0013, 223.0055, 121.183189, 4.0, 3.0,Stationary,Low, 100.7238,-0.6474,-30.7222,-120.8989,-446.7606, 0.0000, 0.0000, 0.0000
29-Jan-2019 12:35:25.430, 0.0453,-0.2565,-0.9795,-0.0362,-0.0246,-0.0664, 0.0140,-0.0148,-0.0106, 0.0575, 0.2470,-0.5846,49.736210,-123.103247, 0.0013, 223.0055, 121.183189, 4.0, 3.0,Stationary,Low, 100.7238,-0.6474,-31.6247,-121.8902,-451.4855, 0.0000, 0.0000, 0.0000
29-Jan-2019 12:35:25.439, 0.0662,-0.2413,-0.8779,-0.0104,-0.0124,-0.0114,-0.0999,-0.0165,-0.0122, 0.0574, 0.2465,-0.5846,49.736210,-123.103247, 0.0013, 223.0055, 121.183189, 4.0, 3.0,Stationary,Low, 100.7238,-0.6474,-31.6247,-121.8902,-451.4855, 0.0000, 0.0000, 0.0000
29-Jan-2019 12:35:25.450, 0.0275,-0.2577,-0.9880, 0.0106, 0.0024, 0.0904, 0.0161,-0.0105,-0.0149, 0.0574, 0.2462,-0.5846,49.736210,-123.103247, 0.0013, 223.0055, 121.183189, 4.0, 3.0,Stationary,Low, 100.7238,-0.6474,-31.6247,-121.8902,-451.4855, 0.0000, 0.0000, 0.0000
29-Jan-2019 12:35:25.459, 0.0137,-0.2639,-1.0304,-0.0282,-0.0134,-0.0199, 0.0640,-0.0049,-0.0125, 0.0575, 0.2468,-0.5846,49.736210,-123.103247, 0.0013, 223.0055, 121.183189, 4.0, 3.0,Stationary,Low, 100.7238,-0.6474,-31.6247,-121.8902,-451.4855, 0.0000, 0.0000, 0.0000
29-Jan-2019 12:35:25.469, 0.0553,-0.2472,-0.8981,-0.0420,-0.0195,-0.0624,-0.0712,-0.0099,-0.0110, 0.0575, 0.2470,-0.5846,49.736210,-123.103247, 0.0013, 223.0055, 121.183189, 4.0, 3.0,Stationary,Low, 100.7238,-0.6474,-31.2479,-121.5078,-449.2357, 0.0000, 0.0000, 0.0000
29-Jan-2019 12:35:25.479, 0.0588,-0.2495,-0.9168,-0.0004,-0.0034, 0.0702,-0.0616,-0.0163,-0.0121, 0.0575, 0.2462,-0.5846,49.736210,-123.103247, 0.0013, 223.0055, 121.183189, 4.0, 3.0,Stationary,Low, 100.7238,-0.6474,-31.2479,-121.5078,-449.2357, 0.0000, 0.0000, 0.0000
29-Jan-2019 12:35:25.489, 0.0191,-0.2644,-1.0385, 0.0031,-0.0055, 0.0514, 0.0672,-0.0091,-0.0103, 0.0575, 0.2465,-0.5846,49.736210,-123.103247, 0.0013, 223.0055, 121.183189, 4.0, 3.0,Stationary,Low, 100.7238,-0.6474,-31.2479,-121.5078,-449.2357, 0.0000, 0.0000, 0.0000
29-Jan-2019 12:35:25.499, 0.0408,-0.2504,-0.9631,-0.0366,-0.0199,-0.0704,-0.0030,-0.0138,-0.0118, 0.0575, 0.2471,-0.5846,49.736210,-123.103247, 0.0013, 223.0055, 121.183189, 4.0, 3.0,Stationary,Low, 100.7238,-0.6474,-31.2479,-121.5078,-449.2357, 0.0000, 0.0000, 0.0000
29-Jan-2019 12:35:25.509, 0.0598,-0.2349,-0.8779,-0.0148,-0.0064, 0.0051,-0.0988,-0.0154,-0.0133, 0.0574, 0.2466,-0.5846,49.736210,-123.103247, 0.0013, 223.0055, 121.183189, 4.0, 3.0,Stationary,Low, 100.7238,-0.6474,-30.6460,-120.5951,-445.1094, 0.0000, 0.0000, 0.0000
29-Jan-2019 12:35:25.519, 0.0095,-0.2499,-0.9950, 0.0042, 0.0088, 0.0903, 0.0278,-0.0125,-0.0137, 0.0574, 0.2462,-0.5846,49.736210,-123.103247, 0.0013, 223.0055, 121.183189, 4.0, 3.0,Stationary,Low, 100.7238,-0.6474,-30.6460,-120.5951,-445.1094, 0.0000, 0.0000, 0.0000
29-Jan-2019 12:35:25.529, 0.0091,-0.2594,-1.0223,-0.0462,-0.0054,-0.0269, 0.0597,-0.0060,-0.0114, 0.0575, 0.2470,-0.5846,49.736210,-123.103247, 0.0013, 223.0055, 121.183189, 4.0, 3.0,Stationary,Low, 100.7238,-0.6474,-30.6460,-120.5951,-445.1094, 0.0000, 0.0000, 0.0000
29-Jan-2019 12:35:25.539, 0.0625,-0.2389,-0.8872,-0.0465,-0.0149,-0.0542,-0.0743,-0.0174,-0.0111, 0.0574, 0.2470,-0.5846,49.736210,-123.103247, 0.0013, 223.0055, 121.183189, 4.0, 3.0,Stationary,Low, 100.7238,-0.6474,-30.6460,-120.5951,-445.1094, 0.0000, 0.0000, 0.0000
29-Jan-2019 12:35:25.549, 0.0479,-0.2435,-0.9202, 0.0069, 0.0049, 0.0810,-0.0573,-0.0194,-0.0110, 0.0573, 0.2463,-0.5845,49.736210,-123.103247, 0.0013, 223.0055, 121.183189, 4.0, 3.0,Stationary,Low, 100.7238,-0.6474,-31.6979,-122.0399,-451.1109, 0.0000, 0.0000, 0.0000
29-Jan-2019 12:35:25.559, 0.0157,-0.2683,-1.0418,-0.0076, 0.0006, 0.0480, 0.0810,-0.0154,-0.0092, 0.0573, 0.2466,-0.5845,49.736210,-123.103247, 0.0013, 223.0055, 121.183189, 4.0, 3.0,Stationary,Low, 100.7238,-0.6474,-31.6979,-122.0399,-451.1109, 0.0000, 0.0000, 0.0000
29-Jan-2019 12:35:25.568, 0.0368,-0.2458,-0.9486,-0.0398,-0.0236,-0.0738,-0.0105,-0.0170,-0.0118, 0.0573, 0.2472,-0.5845,49.736210,-123.103247, 0.0013, 223.0055, 121.183189, 4.0, 3.0,Stationary,Low, 100.7238,-0.6474,-31.6979,-122.0399,-451.1109, 0.0000, 0.0000, 0.0000
29-Jan-2019 12:35:25.579, 0.0535,-0.2379,-0.8641,-0.0186,-0.0017, 0.0196,-0.1009,-0.0144,-0.0122, 0.0572, 0.2466,-0.5845,49.736210,-123.103247, 0.0013, 223.0055, 121.183189, 4.0, 3.0,Stationary,Low, 100.7238,-0.6474,-31.6979,-122.0399,-451.1109, 0.0000, 0.0000, 0.0000
29-Jan-2019 12:35:25.589, 0.0244,-0.2519,-0.9925,-0.0020, 0.0060, 0.1041, 0.0321,-0.0093,-0.0126, 0.0572, 0.2464,-0.5845,49.736210,-123.103247, 0.0013, 223.0055, 121.183189, 4.0, 3.0,Stationary,Low, 100.7238,-0.6474,-30.8729,-121.2784,-448.4116, 0.0000, 0.0000, 0.0000
29-Jan-2019 12:35:25.598, 0.0274,-0.2570,-1.0111,-0.0311,-0.0073,-0.0244, 0.0544,-0.0081,-0.0115, 0.0573, 0.2471,-0.5845,49.736210,-123.103247, 0.0013, 223.0055, 121.183189, 4.0, 3.0,Stationary,Low, 100.7238,-0.6474,-30.8729,-121.2784,-448.4116, 0.0000, 0.0000, 0.0000
29-Jan-2019 12:35:25.608, 0.0607,-0.2399,-0.8752,-0.0281,-0.0124,-0.0430,-0.0775,-0.0131,-0.0143, 0.0573, 0.2471,-0.5845,49.736210,-123.103247, 0.0013, 223.0055, 121.183189, 4.0, 3.0,Stationary,Low, 100.7238,-0.6474,-30.8729,-121.2784,-448.4116, 0.0000, 0.0000, 0.0000
29-Jan-2019 12:35:25.618, 0.0320,-0.2451,-0.9156, 0.0052, 0.0040, 0.0930,-0.0414,-0.0119,-0.0130, 0.0572, 0.2464,-0.5845,49.736210,-123.103247, 0.0013, 223.0055, 121.183189, 4.0, 3.0,Stationary,Low, 100.7238,-0.6474,-30.8729,-121.2784,-448.4116, 0.0000, 0.0000, 0.0000
29-Jan-2019 12:35:25.628,-0.0009,-0.2649,-1.0216,-0.0235,-0.0008, 0.0525, 0.0693,-0.0049,-0.0093, 0.0573, 0.2468,-0.5845,49.736210,-123.103247, 0.0013, 223.0055, 121.183189, 4.0, 3.0,Stationary,Low, 100.7238,-0.6474,-31.7730,-122.1161,-451.4109, 0.0000, 0.0000, 0.0000
29-Jan-2019 12:35:25.638, 0.0512,-0.2565,-0.9393,-0.0565,-0.0203,-0.0536,-0.0350,-0.0140,-0.0119, 0.0573, 0.2472,-0.5845,49.736210,-123.103247, 0.0013, 223.0055, 121.183189, 4.0, 3.0,Stationary,Low, 100.7238,-0.6474,-31.7730,-122.1161,-451.4109, 0.0000, 0.0000, 0.0000
29-Jan-2019 12:35:25.648, 0.0593,-0.2455,-0.8984,-0.0043,-0.0124, 0.0288,-0.0796,-0.0164,-0.0132, 0.0572, 0.2466,-0.5845,49.736210,-123.103247, 0.0013, 223.0055, 121.183189, 4.0, 3.0,Stationary,Low, 100.7238,-0.6474,-31.7730,-122.1161,-451.4109, 0.0000, 0.0000, 0.0000
29-Jan-2019 12:35:25.658, 0.0019,-0.2615,-1.0163, 0.0039,-0.0015, 0.0697, 0.0544,-0.0081,-0.0125, 0.0572, 0.2465,-0.5845,49.736210,-123.103247, 0.0013, 223.0055, 121.183189, 4.0, 3.0,Stationary,Low, 100.7238,-0.6474,-31.7730,-122.1161,-451.4109, 0.0000, 0.0000, 0.0000
29-Jan-2019 12:35:25.668, 0.0156,-0.2629,-0.9840,-0.0536,-0.0167,-0.0483, 0.0310,-0.0040,-0.0116, 0.0573, 0.2473,-0.5845,49.736210,-123.103247, 0.0013, 223.0055, 121.183189, 4.0, 3.0,Stationary,Low, 100.7238,-0.6474,-30.7992,-121.1281,-448.5613, 0.0000, 0.0000, 0.0000
29-Jan-2019 12:35:25.678, 0.0643,-0.2411,-0.8626,-0.0400,-0.0184,-0.0159,-0.0946,-0.0132,-0.0143, 0.0573, 0.2470,-0.5845,49.736210,-123.103247, 0.0013, 223.0055, 121.183189, 4.0, 3.0,Stationary,Low, 100.7238,-0.6474,-30.7992,-121.1281,-448.5613, 0.0000, 0.0000, 0.0000
29-Jan-2019 12:35:25.688, 0.0421,-0.2578,-0.9536, 0.0087, 0.0028, 0.1056,-0.0222,-0.0171,-0.0119, 0.0573, 0.2464,-0.5845,49.736210,-123.103247, 0.0013, 223.0055, 121.183189, 4.0, 3.0,Stationary,Low, 100.7238,-0.6474,-30.7992,-121.1281,-448.5613, 0.0000, 0.0000, 0.0000
29-Jan-2019 12:35:25.698, 0.0256,-0.2771,-1.0488,-0.0134,-0.0133, 0.0144, 0.0853,-0.0133,-0.0071, 0.0573, 0.2469,-0.5845,49.736210,-123.103247, 0.0013, 223.0055, 121.183189, 4.0, 3.0,Stationary,Low, 100.7197,-0.3092,-30.7992,-121.1281,-448.5613, 0.0000, 0.0000, 0.0000
29-Jan-2019 12:35:25.708, 0.0555,-0.2493,-0.9194,-0.0299,-0.0323,-0.0808,-0.0435,-0.0161,-0.0130, 0.0573, 0.2473,-0.5845,49.736210,-123.103247, 0.0013, 223.0055, 121.183189, 4.0, 3.0,Stationary,Low, 100.7197,-0.3092,-31.6259,-122.0424,-452.6113, 0.0000, 0.0000, 0.0000
29-Jan-2019 12:35:25.718, 0.0400,-0.2396,-0.8801, 0.0001,-0.0052, 0.0488,-0.0914,-0.0100,-0.0133, 0.0572, 0.2466,-0.5844,49.736210,-123.103247, 0.0013, 223.0055, 121.183189, 4.0, 3.0,Stationary,Low, 100.7197,-0.3092,-31.6259,-122.0424,-452.6113, 0.0000, 0.0000, 0.0000
29-Jan-2019 12:35:25.728, 0.0040,-0.2638,-1.0242,-0.0155, 0.0045, 0.0881, 0.0650,-0.0028,-0.0114, 0.0573, 0.2466,-0.5845,49.736210,-123.103247, 0.0013, 223.0055, 121.183189, 4.0, 3.0,Stationary,Low, 100.7197,-0.3092,-31.6259,-122.0424,-452.6113, 0.0000, 0.0000, 0.0000
29-Jan-2019 12:35:25.737, 0.0440,-0.2615,-0.9894,-0.0515,-0.0189,-0.0563, 0.0278,-0.0094,-0.0116, 0.0574, 0.2474,-0.5845,49.736210,-123.103247, 0.0013, 223.0055, 121.183189, 4.0, 3.0,Stationary,Low, 100.7197,-0.3092,-31.6259,-122.0424,-452.6113, 0.0000, 0.0000, 0.0000
29-Jan-2019 12:35:25.747, 0.0795,-0.2409,-0.8650,-0.0116,-0.0170,-0.0214,-0.1073,-0.0165,-0.0133, 0.0573, 0.2470,-0.5845,49.736210,-123.103247, 0.0013, 223.0055, 121.183189, 4.0, 3.0,Stationary,Low, 100.7197,-0.3092,-31.1746,-121.5089,-450.0611, 0.0000, 0.0000, 0.0000
29-Jan-2019 12:35:25.757, 0.0316,-0.2543,-0.9675, 0.0240, 0.0031, 0.1032, 0.0034,-0.0137,-0.0139, 0.0572, 0.2464,-0.5844,49.736210,-123.103247, 0.0013, 223.0055, 121.183189, 4.0, 3.0,Stationary,Low, 100.7197,-0.3092,-31.1746,-121.5089,-450.0611, 0.0000, 0.0000, 0.0000
29-Jan-2019 12:35:25.768, 0.0122,-0.2649,-1.0341,-0.0240,-0.0097, 0.0005, 0.0757,-0.0080,-0.0103, 0.0573, 0.2471,-0.5845,49.736210,-123.103247, 0.0013, 223.0055, 121.183189, 4.0, 3.0,Stationary,Low, 100.7197,-0.3092,-31.1746,-121.5089,-450.0611, 0.0000, 0.0000, 0.0000
29-Jan-2019 12:35:25.777, 0.0598,-0.2471,-0.8983,-0.0433,-0.0202,-0.0661,-0.0786,-0.0131,-0.0153, 0.0573, 0.2473,-0.5845,49.736210,-123.103247, 0.0013, 223.0055, 121.183189, 4.0, 3.0,Stationary,Low, 100.7197,-0.3092,-31.1746,-121.5089,-450.0611, 0.0000, 0.0000, 0.0000
29-Jan-2019 12:35:25.787, 0.0475,-0.2413,-0.9147, 0.0042,-0.0031, 0.0699,-0.0605,-0.0109,-0.0152, 0.0573, 0.2465,-0.5845,49.736210,-123.103247, 0.0013, 223.0055, 121.183189, 4.0, 3.0,Stationary,Low, 100.7197,-0.3092,-30.8730,-120.9008,-447.1347, 0.0000, 0.0000, 0.0000
29-Jan-2019 12:35:25.798, 0.0103,-0.2631,-1.0492,-0.0081, 0.0030, 0.0535, 0.0820,-0.0059,-0.0103, 0.0573, 0.2468,-0.5845,49.736210,-123.103247, 0.0013, 223.0055, 121.183189, 4.0, 3.0,Stationary,Low, 100.7197,-0.3092,-30.8730,-120.9008,-447.1347, 0.0000, 0.0000, 0.0000
29-Jan-2019 12:35:25.807, 0.0466,-0.2542,-0.9587,-0.0453,-0.0182,-0.0812,-0.0084,-0.0117,-0.0139, 0.0574, 0.2474,-0.5845,49.736210,-123.103247, 0.0013, 223.0055, 121.183189, 4.0, 3.0,Stationary,Low, 100.7197,-0.3092,-30.8730,-120.9008,-447.1347, 0.0000, 0.0000, 0.0000
29-Jan-2019 12:35:25.817, 0.0662,-0.2370,-0.8647,-0.0090,-0.0098, 0.0094,-0.1052,-0.0176,-0.0101, 0.0573, 0.2468,-0.5845,49.736210,-123.103247, 0.0013, 223.0055, 121.183189, 4.0, 3.0,Stationary,Low, 100.7197,-0.3092,-30.8730,-120.9008,-447.1347, 0.0000, 0.0000, 0.0000
29-Jan-2019 12:35:25.827, 0.0216,-0.2550,-0.9937, 0.0107, 0.0070, 0.1035, 0.0289,-0.0136,-0.0105, 0.0573, 0.2465,-0.5845,49.736210,-123.103247, 0.0013, 223.0055, 121.183189, 4.0, 3.0,Stationary,Low, 100.7197,-0.3092,-31.9251,-121.9683,-451.9343, 0.0000, 0.0000, 0.0000
29-Jan-2019 12:35:25.837, 0.0231,-0.2642,-1.0222,-0.0339,-0.0103,-0.0257, 0.0512,-0.0135,-0.0104, 0.0573, 0.2472,-0.5845,49.736210,-123.103247, 0.0013, 223.0055, 121.183189, 4.0, 3.0,Stationary,Low, 100.7197,-0.3092,-31.9251,-121.9683,-451.9343, 0.0000, 0.0000, 0.0000
29-Jan-2019 12:35:25.847, 0.0584,-0.2439,-0.8910,-0.0324,-0.0196,-0.0542,-0.0807,-0.0153,-0.0121, 0.0573, 0.2472,-0.5845,49.736210,-123.103247, 0.0013, 223.0055, 121.183189, 4.0, 3.0,Stationary,Low, 100.7197,-0.3092,-31.9251,-121.9683,-451.9343, 0.0000, 0.0000, 0.0000
29-Jan-2019 12:35:25.856, 0.0349,-0.2402,-0.9278, 0.0029, 0.0001, 0.0772,-0.0318,-0.0118,-0.0140, 0.0572, 0.2465,-0.5844,49.736210,-123.103247, 0.0013, 223.0055, 121.183189, 4.0, 3.0,Stationary,Low, 100.7197,-0.3092,-31.9251,-121.9683,-451.9343, 0.0000, 0.0000, 0.0000
29-Jan-2019 12:35:25.867, 0.0155,-0.2617,-1.0267,-0.0206, 0.0042, 0.0403, 0.0597,-0.0092,-0.0114, 0.0573, 0.2469,-0.5844,49.736210,-123.103247, 0.0013, 223.0055, 121.183189, 4.0, 3.0,Stationary,Low, 100.7197,-0.3092,-31.3241,-121.2075,-448.7838, 0.0000, 0.0000, 0.0000
29-Jan-2019 12:35:25.877, 0.0571,-0.2542,-0.9395,-0.0400,-0.0169,-0.0587,-0.0201,-0.0139,-0.0129, 0.0573, 0.2473,-0.5845,49.736210,-123.103247, 0.0013, 223.0055, 121.183189, 4.0, 3.0,Stationary,Low, 100.7197,-0.3092,-31.3241,-121.2075,-448.7838, 0.0000, 0.0000, 0.0000
29-Jan-2019 12:35:25.886, 0.0589,-0.2346,-0.8831, 0.0017,-0.0099, 0.0286,-0.0754,-0.0163,-0.0121, 0.0572, 0.2468,-0.5844,49.736210,-123.103247, 0.0013, 223.0055, 121.183189, 4.0, 3.0,Stationary,Low, 100.7197,-0.3092,-31.3241,-121.2075,-448.7838, 0.0000, 0.0000, 0.0000
29-Jan-2019 12:35:25.896, 0.0152,-0.2563,-0.9879, 0.0035, 0.0096, 0.0850, 0.0310,-0.0104,-0.0116, 0.0572, 0.2467,-0.5844,49.736210,-123.103247, 0.0013, 223.0055, 121.183189, 4.0, 3.0,Stationary,Low, 100.7197,-0.3092,-31.3241,-121.2075,-448.7838, 0.0000, 0.0000, 0.0000
29-Jan-2019 12:35:25.907, 0.0379,-0.2644,-0.9912,-0.0403,-0.0115,-0.0199, 0.0278,-0.0104,-0.0127, 0.0573, 0.2472,-0.5845,49.736210,-123.103247, 0.0013, 223.0055, 121.183189, 4.0, 3.0,Stationary,Low, 100.7197,-0.3092,-31.7776,-121.9698,-453.2101, 0.0000, 0.0000, 0.0000
29-Jan-2019 12:35:25.916, 0.0592,-0.2376,-0.8931,-0.0176,-0.0199,-0.0232,-0.0786,-0.0153,-0.0132, 0.0573, 0.2471,-0.5845,49.736210,-123.103247, 0.0013, 223.0055, 121.183189, 4.0, 3.0,Stationary,Low, 100.7197,-0.3092,-31.7776,-121.9698,-453.2101, 0.0000, 0.0000, 0.0000
29-Jan-2019 12:35:25.926, 0.0184,-0.2484,-0.9552, 0.0038, 0.0065, 0.0750,-0.0094,-0.0085,-0.0139, 0.0572, 0.2466,-0.5844,49.736210,-123.103247, 0.0013, 223.0055, 121.183189, 4.0, 3.0,Stationary,Low, 100.7197,-0.3092,-31.7776,-121.9698,-453.2101, 0.0000, 0.0000, 0.0000
29-Jan-2019 12:35:25.936, 0.0129,-0.2695,-1.0198,-0.0372,-0.0038, 0.0129, 0.0639,-0.0038,-0.0114, 0.0573, 0.2471,-0.5845,49.736210,-123.103247, 0.0013, 223.0055, 121.183189, 4.0, 3.0,Stationary,Low, 100.7197,-0.3092,-31.7776,-121.9698,-453.2101, 0.0000, 0.0000, 0.0000
29-Jan-2019 12:35:25.946, 0.0591,-0.2471,-0.9092,-0.0427,-0.0246,-0.0518,-0.0530,-0.0151,-0.0141, 0.0573, 0.2474,-0.5845,49.736210,-123.103247, 0.0013, 223.0055, 121.183189, 4.0, 3.0,Stationary,Low, 100.7197,-0.3092,-31.4747,-121.5113,-450.1345, 0.0000, 0.0000, 0.0000
29-Jan-2019 12:35:25.956, 0.0480,-0.2457,-0.9079, 0.0037,-0.0029, 0.0589,-0.0679,-0.0184,-0.0153, 0.0572, 0.2467,-0.5844,49.736210,-123.103247, 0.0013, 223.0055, 121.183189, 4.0, 3.0,Stationary,Low, 100.7197,-0.3092,-31.4747,-121.5113,-450.1345, 0.0000, 0.0000, 0.0000
29-Jan-2019 12:35:25.966, 0.0103,-0.2743,-1.0344,-0.0075,-0.0013, 0.0602, 0.0757,-0.0123,-0.0103, 0.0572, 0.2469,-0.5844,49.736210,-123.103247, 0.0013, 223.0055, 121.183189, 4.0, 3.0,Stationary,Low, 100.7197,-0.3092,-31.4747,-121.5113,-450.1345, 0.0000, 0.0000, 0.0000
29-Jan-2019 12:35:25.976, 0.0351,-0.2543,-0.9620,-0.0452,-0.0292,-0.0665, 0.0001,-0.0116,-0.0117, 0.0573, 0.2476,-0.5845,49.736210,-123.103247, 0.0013, 223.0055, 121.183189, 4.0, 3.0,Stationary,Low, 100.7197,-0.3092,-31.4747,-121.5113,-450.1345, 0.0000, 0.0000, 0.0000
29-Jan-2019 12:35:25.986, 0.0503,-0.2411,-0.8676,-0.0204,-0.0098, 0.0060,-0.1052,-0.0112,-0.0123, 0.0572, 0.2470,-0.5844,49.736210,-123.103247, 0.0013, 223.0055, 121.183189, 4.0, 3.0,Stationary,Low, 100.7197,-0.3092,-31.4751,-121.2097,-449.3080, 0.0000, 0.0000, 0.0000
29-Jan-2019 12:35:25.996, 0.0214,-0.2580,-0.9946,-0.0052, 0.0031, 0.1006, 0.0321,-0.0115,-0.0094, 0.0572, 0.2467,-0.5844,49.736210,-123.103247, 0.0013, 223.0055, 121.183189, 4.0, 3.0,Stationary,Low, 100.7197,-0.3092,-31.4751,-121.2097,-449.3080, 0.0000, 0.0000, 0.0000
29-Jan-2019 12:35:26.006, 0.0320,-0.2656,-1.0202,-0.0341,-0.0131,-0.0266, 0.0544,-0.0113,-0.0093, 0.0573, 0.2474,-0.5844,49.736210,-123.103247, 0.0013, 223.0055, 121.183189, 4.0, 3.0,Stationary,Low, 100.7197,-0.3092,-31.4751,-121.2097,-449.3080, 0.0000, 0.0000, 0.0000
29-Jan-2019 12:35:26.016, 0.0670,-0.2442,-0.8817,-0.0235,-0.0207,-0.0522,-0.0839,-0.0175,-0.0111, 0.0572, 0.2474,-0.5844,49.736210,-123.103247, 0.0013, 223.0055, 121.183189, 4.0, 3.0,Stationary,Low, 100.7197,-0.3092,-31.4751,-121.2097,-449.3080, 0.0000, 0.0000, 0.0000
29-Jan-2019 12:35:26.025, 0.0352,-0.2446,-0.9263, 0.0117, 0.0000, 0.0864,-0.0318,-0.0129,-0.0140, 0.0571, 0.2468,-0.5844,49.736210,-123.103247, 0.0013, 223.0055, 121.183189, 4.0, 3.0,Stationary,Low, 100.7197,-0.3092,-31.3240,-121.2830,-449.0092, 0.0000, 0.0000, 0.0000
29-Jan-2019 12:35:26.035, 0.0083,-0.2635,-1.0253,-0.0202, 0.0000, 0.0417, 0.0682,-0.0049,-0.0114, 0.0572, 0.2472,-0.5844,49.736210,-123.103247, 0.0013, 223.0055, 121.183189, 4.0, 3.0,Stationary,Low, 100.7197,-0.3092,-31.3240,-121.2830,-449.0092, 0.0000, 0.0000, 0.0000
29-Jan-2019 12:35:26.046, 0.0501,-0.2523,-0.9328,-0.0472,-0.0185,-0.0574,-0.0424,-0.0108,-0.0119, 0.0573, 0.2475,-0.5844,49.736210,-123.103247, 0.0013, 223.0055, 121.183189, 4.0, 3.0,Stationary,Low, 100.7197,-0.3092,-31.3240,-121.2830,-449.0092, 0.0000, 0.0000, 0.0000
29-Jan-2019 12:35:26.055, 0.0608,-0.2435,-0.9029,-0.0053,-0.0079, 0.0353,-0.0690,-0.0120,-0.0131, 0.0572, 0.2469,-0.5844,49.736210,-123.103247, 0.0013, 223.0055, 121.183189, 4.0, 3.0,Stationary,Low, 100.7197,-0.3092,-31.3240,-121.2830,-449.0092, 0.0000, 0.0000, 0.0000
29-Jan-2019 12:35:26.072, 0.0168,-0.2577,-1.0143,-0.0387,-0.0129,-0.0463, 0.0502,-0.0103,-0.0115, 0.0573, 0.2473,-0.5844,49.736210,-123.103247, 0.0013, 223.0055, 121.183189, 4.0, 3.0,Stationary,Low, 100.7197,-0.3092,-31.4011,-121.4367,-450.5845, 0.0000, 0.0000, 0.0000
29-Jan-2019 12:35:26.086, 0.0318,-0.2582,-0.9765,-0.0236,-0.0132,-0.0085, 0.0097,-0.0105,-0.0096, 0.0572, 0.2475,-0.5844,49.736210,-123.103247, 0.0013, 223.0055, 121.183189, 4.0, 3.0,Stationary,Low, 100.7197,-0.3092,-31.4011,-121.4367,-450.5845, 0.0000, 0.0000, 0.0000
29-Jan-2019 12:35:26.090, 0.0646,-0.2438,-0.8837, 0.0092, 0.0006, 0.0843,-0.0807,-0.0164,-0.0111, 0.0572, 0.2469,-0.5844,49.736210,-123.103247, 0.0013, 223.0055, 121.183189, 4.0, 3.0,Stationary,Low, 100.7197,-0.3092,-31.4011,-121.4367,-450.5845, 0.0000, 0.0000, 0.0000
29-Jan-2019 12:35:26.100, 0.0289,-0.2499,-0.9657,-0.0265,-0.0054, 0.0024, 0.0012,-0.0148,-0.0128, 0.0572, 0.2471,-0.5844,49.736210,-123.103247, 0.0013, 223.0055, 121.183189, 4.0, 3.0,Stationary,Low, 100.7197,-0.3092,-31.4011,-121.4367,-450.5845, 0.0000, 0.0000, 0.0000
29-Jan-2019 12:35:26.105, 0.0149,-0.2621,-1.0133,-0.0266,-0.0051, 0.0023, 0.0480,-0.0092,-0.0094, 0.0572, 0.2474,-0.5844,49.736210,-123.103247, 0.0013, 223.0055, 121.183189, 4.0, 3.0,Stationary,Low, 100.7197,-0.3092,-31.5491,-121.8134,-450.8856, 0.0000, 0.0000, 0.0000
29-Jan-2019 12:35:26.115, 0.0590,-0.2451,-0.9148,-0.0405,-0.0172,-0.0453,-0.0498,-0.0162,-0.0120, 0.0572, 0.2475,-0.5844,49.736210,-123.103247, 0.0013, 223.0055, 121.183189, 4.0, 3.0,Stationary,Low, 100.7197,-0.3092,-31.5491,-121.8134,-450.8856, 0.0000, 0.0000, 0.0000
29-Jan-2019 12:35:26.125, 0.0421,-0.2384,-0.9159, 0.0037,-0.0007, 0.0533,-0.0509,-0.0183,-0.0131, 0.0571, 0.2470,-0.5843,49.736210,-123.103247, 0.0013, 223.0055, 121.183189, 4.0, 3.0,Stationary,Low, 100.7197,-0.3092,-31.5491,-121.8134,-450.8856, 0.0000, 0.0000, 0.0000
29-Jan-2019 12:35:26.135, 0.0110,-0.2620,-1.0137,-0.0132, 0.0063, 0.0521, 0.0534,-0.0156,-0.0083, 0.0570, 0.2471,-0.5843,49.736210,-123.103247, 0.0013, 223.0055, 121.183189, 4.0, 3.0,Stationary,Low, 100.7197,-0.3092,-31.5491,-121.8134,-450.8856, 0.0000, 0.0000, 0.0000
29-Jan-2019 12:35:26.144, 0.0482,-0.2527,-0.9612,-0.0443,-0.0169,-0.0458,-0.0020,-0.0202,-0.0075, 0.0570, 0.2476,-0.5843,49.736210,-123.103247, 0.0013, 223.0055, 121.183189, 4.0, 3.0,Stationary,Low, 100.7197,-0.3092,-31.4739,-121.6616,-450.2852, 0.0000, 0.0000, 0.0000
29-Jan-2019 12:35:26.162, 0.0593,-0.2381,-0.8898, 0.0043, 0.0064, 0.0783,-0.0775,-0.0217,-0.0111, 0.0568, 0.2470,-0.5842,49.736208,-123.103246, 0.0126, 223.0055, 121.182014, 4.0, 3.0,Stationary,Low, 100.7197,-0.3092,-31.4739,-121.6616,-450.2852, 0.0000, 0.0000, 0.0000
29-Jan-2019 12:35:26.165, 0.0119,-0.2543,-0.9822, 0.0043, 0.0064, 0.0783, 0.0214,-0.0147,-0.0116, 0.0568, 0.2470,-0.5842,49.736208,-123.103246, 0.0126, 223.0055, 121.182014, 4.0, 3.0,Stationary,Low, 100.7197,-0.3092,-31.4739,-121.6616,-450.2852, 0.0000, 0.0000, 0.0000
29-Jan-2019 12:35:26.174, 0.0205,-0.2630,-0.9989,-0.0432,-0.0092,-0.0143, 0.0395,-0.0104,-0.0105, 0.0568, 0.2476,-0.5842,49.736208,-123.103246, 0.0126, 223.0055, 121.182014, 4.0, 3.0,Stationary,Low, 100.7197,-0.3092,-31.4739,-121.6616,-450.2852, 0.0000, 0.0000, 0.0000
29-Jan-2019 12:35:26.184, 0.0588,-0.2431,-0.8962,-0.0346,-0.0180,-0.0309,-0.0807,-0.0121,-0.0143, 0.0568, 0.2475,-0.5842,49.736208,-123.103246, 0.0126, 223.0055, 121.182014, 4.0, 3.0,Stationary,Low, 100.7197,-0.3092,-30.7976,-120.6733,-446.1590, 0.0000, 0.0000, 0.0000
29-Jan-2019 12:35:26.194, 0.0323,-0.2502,-0.9477, 0.0037, 0.0013, 0.0719,-0.0286,-0.0086,-0.0140, 0.0568, 0.2469,-0.5842,49.736208,-123.103246, 0.0126, 223.0055, 121.182014, 4.0, 3.0,Stationary,Low, 100.7197,-0.3092,-30.7976,-120.6733,-446.1590, 0.0000, 0.0000, 0.0000
29-Jan-2019 12:35:26.204, 0.0075,-0.2690,-1.0326,-0.0229,-0.0054, 0.0203, 0.0725,-0.0038,-0.0114, 0.0569, 0.2474,-0.5842,49.736208,-123.103246, 0.0126, 223.0055, 121.182014, 4.0, 3.0,Stationary,Low, 100.7197,-0.3092,-30.7976,-120.6733,-446.1590, 0.0000, 0.0000, 0.0000
29-Jan-2019 12:35:26.214, 0.0517,-0.2497,-0.9240,-0.0477,-0.0237,-0.0647,-0.0403,-0.0087,-0.0119, 0.0569, 0.2477,-0.5843,49.736208,-123.103246, 0.0126, 223.0055, 121.182014, 4.0, 3.0,Stationary,Low, 100.7197,-0.3092,-30.7976,-120.6733,-446.1590, 0.0000, 0.0000, 0.0000
29-Jan-2019 12:35:26.224, 0.0531,-0.2398,-0.8842,-0.0035,-0.0051, 0.0441,-0.0775,-0.0110,-0.0132, 0.0569, 0.2471,-0.5842,49.736208,-123.103246, 0.0126, 223.0055, 121.182014, 4.0, 3.0,Stationary,Low, 100.7197,-0.3092,-31.5519,-121.5142,-451.2591, 0.0000, 0.0000, 0.0000
29-Jan-2019 12:35:26.234, 0.0126,-0.2567,-1.0147,-0.0021, 0.0048, 0.0839, 0.0565,-0.0060,-0.0104, 0.0570, 0.2471,-0.5843,49.736208,-123.103246, 0.0126, 223.0055, 121.182014, 4.0, 3.0,Stationary,Low, 100.7197,-0.3092,-31.5519,-121.5142,-451.2591, 0.0000, 0.0000, 0.0000
29-Jan-2019 12:35:26.244, 0.0319,-0.2724,-0.9885,-0.0427,-0.0115,-0.0468, 0.0235,-0.0051,-0.0127, 0.0571, 0.2478,-0.5843,49.736208,-123.103246, 0.0126, 223.0055, 121.182014, 4.0, 3.0,Stationary,Low, 100.7197,-0.3092,-31.5519,-121.5142,-451.2591, 0.0000, 0.0000, 0.0000
29-Jan-2019 12:35:26.254, 0.0550,-0.2366,-0.8755,-0.0234,-0.0274,-0.0205,-0.0872,-0.0058,-0.0132, 0.0571, 0.2475,-0.5843,49.736208,-123.103246, 0.0126, 223.0055, 121.182014, 4.0, 3.0,Stationary,Low, 100.7197,-0.3092,-31.5519,-121.5142,-451.2591, 0.0000, 0.0000, 0.0000
29-Jan-2019 12:35:26.264, 0.0237,-0.2487,-0.9598,-0.0004, 0.0079, 0.0925,-0.0084,-0.0042,-0.0150, 0.0572, 0.2470,-0.5843,49.736208,-123.103246, 0.0126, 223.0055, 121.182014, 4.0, 3.0,Stationary,Low, 100.7197,-0.3092,-31.0985,-120.9786,-447.6589, 0.0000, 0.0000, 0.0000
29-Jan-2019 12:35:26.274, 0.0274,-0.2719,-1.0300,-0.0318,-0.0037, 0.0081, 0.0672,-0.0070,-0.0114, 0.0573, 0.2476,-0.5843,49.736208,-123.103246, 0.0126, 223.0055, 121.182014, 4.0, 3.0,Stationary,Low, 100.7197,-0.3092,-31.0985,-120.9786,-447.6589, 0.0000, 0.0000, 0.0000
29-Jan-2019 12:35:26.284, 0.0728,-0.2509,-0.9138,-0.0280,-0.0267,-0.0621,-0.0541,-0.0194,-0.0120, 0.0572, 0.2478,-0.5843,49.736208,-123.103246, 0.0126, 223.0055, 121.182014, 4.0, 3.0,Stationary,Low, 100.7197,-0.3092,-31.0985,-120.9786,-447.6589, 0.0000, 0.0000, 0.0000
29-Jan-2019 12:35:26.294, 0.0441,-0.2471,-0.9072, 0.0174,-0.0062, 0.0542,-0.0615,-0.0162,-0.0131, 0.0571, 0.2472,-0.5843,49.736208,-123.103246, 0.0126, 223.0055, 121.182014, 4.0, 3.0,Stationary,Low, 100.7197,-0.3092,-31.0985,-120.9786,-447.6589, 0.0000, 0.0000, 0.0000
29-Jan-2019 12:35:26.303, 0.0004,-0.2687,-1.0173,-0.0112,-0.0023, 0.0607, 0.0629,-0.0060,-0.0093, 0.0571, 0.2474,-0.5843,49.736208,-123.103246, 0.0126, 223.0055, 121.182014, 4.0, 3.0,Stationary,Low, 100.7197,-0.3092,-31.7743,-122.0419,-451.7855, 0.0000, 0.0000, 0.0000
29-Jan-2019 12:35:26.313, 0.0433,-0.2558,-0.9557,-0.0551,-0.0234,-0.0494,-0.0148,-0.0096,-0.0118, 0.0572, 0.2479,-0.5843,49.736208,-123.103246, 0.0126, 223.0055, 121.182014, 4.0, 3.0,Stationary,Low, 100.7197,-0.3092,-31.7743,-122.0419,-451.7855, 0.0000, 0.0000, 0.0000
29-Jan-2019 12:35:26.323, 0.0664,-0.2430,-0.8877,-0.0121,-0.0109, 0.0123,-0.0882,-0.0143,-0.0132, 0.0572, 0.2473,-0.5843,49.736208,-123.103246, 0.0126, 223.0055, 121.182014, 4.0, 3.0,Stationary,Low, 100.7197,-0.3092,-31.7743,-122.0419,-451.7855, 0.0000, 0.0000, 0.0000
29-Jan-2019 12:35:26.333, 0.0258,-0.2574,-1.0016, 0.0110, 0.0017, 0.0803, 0.0459,-0.0093,-0.0104, 0.0572, 0.2472,-0.5843,49.736208,-123.103246, 0.0126, 223.0055, 121.182014, 4.0, 3.0,Stationary,Low, 100.7197,-0.3092,-31.7743,-122.0419,-451.7855, 0.0000, 0.0000, 0.0000
29-Jan-2019 12:35:26.343, 0.0356,-0.2579,-0.9916,-0.0296,-0.0120,-0.0337, 0.0363,-0.0104,-0.0105, 0.0572, 0.2479,-0.5843,49.736208,-123.103246, 0.0126, 223.0055, 121.182014, 4.0, 3.0,Stationary,Low, 100.7197,-0.3092,-31.4744,-121.6621,-450.5102, 0.0000, 0.0000, 0.0000
29-Jan-2019 12:35:26.353, 0.0663,-0.2422,-0.8678,-0.0198,-0.0128,-0.0237,-0.0967,-0.0165,-0.0122, 0.0572, 0.2477,-0.5842,49.736208,-123.103246, 0.0126, 223.0055, 121.182014, 4.0, 3.0,Stationary,Low, 100.7197,-0.3092,-31.4744,-121.6621,-450.5102, 0.0000, 0.0000, 0.0000
29-Jan-2019 12:35:26.363, 0.0317,-0.2503,-0.9474, 0.0109, 0.0023, 0.1002,-0.0169,-0.0117,-0.0140, 0.0571, 0.2471,-0.5842,49.736208,-123.103246, 0.0126, 223.0055, 121.182014, 4.0, 3.0,Stationary,Low, 100.7197,-0.3092,-31.4744,-121.6621,-450.5102, 0.0000, 0.0000, 0.0000
29-Jan-2019 12:35:26.373, 0.0185,-0.2715,-1.0370,-0.0237,-0.0052, 0.0205, 0.0725,-0.0112,-0.0103, 0.0572, 0.2476,-0.5842,49.736208,-123.103246, 0.0126, 223.0055, 121.182014, 4.0, 3.0,Stationary,Low, 100.7197,-0.3092,-31.4744,-121.6621,-450.5102, 0.0000, 0.0000, 0.0000
29-Jan-2019 12:35:26.384, 0.0570,-0.2468,-0.9213,-0.0369,-0.0262,-0.0691,-0.0552,-0.0162,-0.0110, 0.0572, 0.2479,-0.5842,49.736208,-123.103246, 0.0126, 223.0055, 121.182014, 4.0, 3.0,Stationary,Low, 100.7197,-0.3092,-30.7216,-120.8227,-446.1602, 0.0000, 0.0000, 0.0000
29-Jan-2019 12:35:26.393, 0.0539,-0.2416,-0.9039, 0.0017,-0.0021, 0.0467,-0.0594,-0.0162,-0.0142, 0.0571, 0.2472,-0.5842,49.736208,-123.103246, 0.0126, 223.0055, 121.182014, 4.0, 3.0,Stationary,Low, 100.7197,-0.3092,-30.7216,-120.8227,-446.1602, 0.0000, 0.0000, 0.0000
29-Jan-2019 12:35:26.403, 0.0181,-0.2567,-1.0196,-0.0014, 0.0033, 0.0640, 0.0576,-0.0103,-0.0093, 0.0571, 0.2474,-0.5842,49.736208,-123.103246, 0.0126, 223.0055, 121.182014, 4.0, 3.0,Stationary,Low, 100.7197,-0.3092,-30.7216,-120.8227,-446.1602, 0.0000, 0.0000, 0.0000
29-Jan-2019 12:35:26.413, 0.0355,-0.2534,-0.9640,-0.0372,-0.0113,-0.0517,-0.0009,-0.0106,-0.0107, 0.0571, 0.2479,-0.5842,49.736208,-123.103246, 0.0126, 223.0055, 121.182014, 4.0, 3.0,Stationary,Low, 100.7197,-0.3092,-30.7216,-120.8227,-446.1602, 0.0000, 0.0000, 0.0000
29-Jan-2019 12:35:26.423, 0.0612,-0.2417,-0.8816,-0.0198,-0.0084, 0.0039,-0.0775,-0.0142,-0.0143, 0.0571, 0.2476,-0.5842,49.736208,-123.103246, 0.0126, 223.0055, 121.182014, 4.0, 3.0,Stationary,Low, 100.7197,-0.3092,-31.4006,-121.5117,-450.5849, 0.0000, 0.0000, 0.0000
29-Jan-2019 12:35:26.433, 0.0316,-0.2507,-0.9710, 0.0059, 0.0030, 0.0864, 0.0118,-0.0116,-0.0106, 0.0570, 0.2473,-0.5842,49.736208,-123.103246, 0.0126, 223.0055, 121.182014, 4.0, 3.0,Stationary,Low, 100.7197,-0.3092,-31.4006,-121.5117,-450.5849, 0.0000, 0.0000, 0.0000
29-Jan-2019 12:35:26.443, 0.0277,-0.2609,-1.0034,-0.0237,-0.0055,-0.0031, 0.0353,-0.0114,-0.0105, 0.0571, 0.2478,-0.5842,49.736208,-123.103246, 0.0126, 223.0055, 121.182014, 4.0, 3.0,Stationary,Low, 100.7197,-0.3092,-31.4006,-121.5117,-450.5849, 0.0000, 0.0000, 0.0000
29-Jan-2019 12:35:26.453, 0.0608,-0.2493,-0.9149,-0.0275,-0.0156,-0.0355,-0.0509,-0.0173,-0.0131, 0.0570, 0.2478,-0.5842,49.736208,-123.103246, 0.0126, 223.0055, 121.182014, 4.0, 3.0,Stationary,Low, 100.7197,-0.3092,-31.4006,-121.5117,-450.5849, 0.0000, 0.0000, 0.0000
29-Jan-2019 12:35:26.463, 0.0281,-0.2442,-0.9333, 0.0056,-0.0044, 0.0531,-0.0286,-0.0129,-0.0140, 0.0570, 0.2474,-0.5841,49.736208,-123.103246, 0.0126, 223.0055, 121.182014, 4.0, 3.0,Stationary,Low, 100.7197,-0.3092,-31.0976,-121.2043,-448.0350, 0.0000, 0.0000, 0.0000
29-Jan-2019 12:35:26.472, 0.0014,-0.2642,-1.0044,-0.0271, 0.0009, 0.0346, 0.0405,-0.0061,-0.0094, 0.0570, 0.2477,-0.5842,49.736208,-123.103246, 0.0126, 223.0055, 121.182014, 4.0, 3.0,Stationary,Low, 100.7197,-0.3092,-31.0976,-121.2043,-448.0350, 0.0000, 0.0000, 0.0000
29-Jan-2019 12:35:26.482, 0.0508,-0.2584,-0.9437,-0.0539,-0.0188,-0.0366,-0.0190,-0.0139,-0.0108, 0.0571, 0.2480,-0.5842,49.736208,-123.103246, 0.0126, 223.0055, 121.182014, 4.0, 3.0,Stationary,Low, 100.7197,-0.3092,-31.0976,-121.2043,-448.0350, 0.0000, 0.0000, 0.0000
29-Jan-2019 12:35:26.492, 0.0685,-0.2456,-0.9104,-0.0045,-0.0134, 0.0242,-0.0679,-0.0205,-0.0121, 0.0570, 0.2475,-0.5841,49.736208,-123.103246, 0.0126, 223.0055, 121.182014, 4.0, 3.0,Stationary,Low, 100.7197,-0.3092,-31.0976,-121.2043,-448.0350, 0.0000, 0.0000, 0.0000
