Timestamp,accelX(g),accelY(g),accelZ(g),accelUserX(g),accelUserY(g),accelUserZ(g),gyroX(rad/s),gyroY(rad/s),gyroZ(rad/s),Roll(rads),Pitch(rads),Yaw(rads),Lat,Long,Speed(m/s),TrueHeading,Alt(m), HorizontalAccuracy(m), VerticalAccuracy(m)
50:57.5,-0.0296,-0.0828,-0.9589,-0.0253,0.0214,0.0471,0.1024,0.0539,0.0461,0.0203,0.0959,2.8562,49.737092,-123.098369,3.1312,285.1794,140.841736,8,3
50:57.5,0.0343,-0.0634,-1.0119,-0.0004,0.0177,-0.0158,-0.299,0.2778,0.0234,0.0348,0.0811,2.8578,49.737092,-123.098369,3.1312,285.1794,140.841736,8,3
50:57.6,0.0502,-0.0635,-0.962,0.0085,0.0197,0.0336,0.0096,0.0541,0.0247,0.0419,0.0833,2.8612,49.737092,-123.098369,3.1312,285.1794,140.841736,8,3
50:57.7,0.0282,-0.0671,-0.9796,-0.014,0.0107,0.0165,-0.0481,0.0254,0.0236,0.0423,0.0779,2.8634,49.737092,-123.098369,3.1312,285.1794,140.841736,8,3
50:57.8,0.0454,-0.0711,-0.9716,0.0033,0.0038,0.0247,-0.0278,0.0265,0.0118,0.0423,0.0749,2.8641,49.737092,-123.098369,3.1312,285.1794,140.841736,8,3
50:57.9,0.0405,-0.0724,-0.984,-0.0023,0,0.0124,-0.0257,0.036,0.0322,0.0429,0.0725,2.8659,49.737092,-123.098369,3.1312,284.1617,140.841736,8,3
50:58.0,0.0414,-0.0888,-0.9642,0.0014,-0.0146,0.035,-0.0139,0.0106,0.0022,0.0432,0.0746,2.8658,49.737092,-123.098369,3.1312,284.1617,140.841736,8,3
50:58.1,0.0247,-0.07,-0.9819,-0.0149,-0.0077,0.0153,-0.1292,-0.0157,-0.0257,0.0396,0.0623,2.8639,49.737092,-123.098369,3.1312,284.1617,140.841736,8,3
50:58.2,0.044,-0.0626,-0.9765,0.0037,-0.0073,0.0211,-0.0513,0.0287,0.0108,0.0404,0.0553,2.8637,49.73709,-123.098378,1.5471,284.1617,140.841736,8,3
50:58.3,0.0419,-0.0522,-0.9787,-0.0003,0.0005,0.019,0.0128,0.0435,0.0151,0.0423,0.0528,2.8645,49.73709,-123.098378,1.5471,284.1617,140.841736,8,3
50:58.4,0.0409,-0.0678,-0.9794,-0.0008,-0.0152,0.0184,0.0075,0.0063,0.0107,0.0418,0.0526,2.8654,49.73709,-123.098378,1.5471,284.1617,140.841736,8,3
50:58.5,0.0446,-0.1018,-0.9944,0.0027,-0.0439,0.003,0.0555,0.0114,0.0395,0.042,0.0579,2.8682,49.73709,-123.098378,1.5471,284.1617,140.841736,8,3
50:58.6,0.0291,-0.1273,-0.9588,-0.0056,-0.0663,0.0387,0.0139,-0.0616,-0.0194,0.0348,0.061,2.867,49.73709,-123.098378,1.5471,284.1617,140.841736,8,3
50:58.7,0.0269,-0.1498,-0.957,-0.0032,-0.0926,0.0409,-0.0032,0.0203,-0.0063,0.0301,0.0572,2.8641,49.73709,-123.098378,1.5471,284.1617,140.841736,8,3
50:58.8,0.0227,-0.111,-0.9852,-0.0084,-0.0589,0.013,-0.0758,-0.0023,0.0267,0.0311,0.0521,2.8669,49.73709,-123.098378,1.5471,284.1617,140.841736,8,3
50:58.9,0.0317,-0.1216,-0.964,-0.003,-0.0697,0.034,0.0299,0.0712,0.0131,0.0348,0.0519,2.868,49.73709,-123.098378,1.5471,284.1617,140.841736,8,3
50:59.0,0.0333,-0.1006,-1.0084,-0.0041,-0.0563,-0.0079,-0.0502,0.0786,0.0344,0.0377,0.0467,2.87,49.73709,-123.098378,1.5471,283.1358,140.841736,8,3
50:59.1,0.0282,-0.1162,-0.9445,-0.0098,-0.0695,0.0537,0.0438,0.0234,0.0011,0.038,0.0468,2.8711,49.73709,-123.098378,1.5471,283.1358,140.841736,8,3
50:59.2,0.0359,-0.0826,-0.9938,0.0004,-0.0468,0.0049,-0.0875,-0.0009,-0.0139,0.0356,0.0358,2.8697,49.737083,-123.09838,0.3718,283.1358,140.841736,6,3
50:59.3,0.0329,-0.0848,-0.9915,-0.0048,-0.0481,0.0011,0.0054,0.0363,-0.0127,0.0351,0.0325,2.868,49.737083,-123.09838,0.3718,283.1358,140.841736,6,3
50:59.4,0.04,-0.0867,-0.9851,0.0036,-0.0534,0.0137,0.0043,0.0383,0.0076,0.0364,0.0333,2.8673,49.737083,-123.09838,0.3718,283.1358,140.841736,6,3
50:59.5,0.0257,-0.0967,-0.9775,-0.0097,-0.0631,0.0213,0.0117,0.0149,-0.0021,0.0354,0.0336,2.8665,49.737083,-123.09838,0.3718,283.1358,140.841736,6,3
50:59.6,0.0311,-0.0822,-0.9937,-0.0038,-0.0494,0.0052,0.0011,0.0128,-0.0074,0.0349,0.0328,2.866,49.737083,-123.09838,0.3718,283.1358,140.841736,6,3
50:59.7,0.0263,-0.0856,-0.9815,-0.007,-0.0488,0.022,0.0245,0.0296,0.0215,0.0366,0.0351,2.8675,49.737083,-123.09838,0.3718,283.1358,140.841736,6,3
50:59.8,0.0323,-0.0821,-0.9632,-0.0028,-0.0478,0.0356,-0.0085,-0.0062,-0.0321,0.0352,0.0343,2.8652,49.737083,-123.09838,0.3718,283.1358,140.841736,6,3
50:59.9,0.0339,-0.0776,-0.9783,-0.0008,-0.0457,0.0206,-0.0363,0.0245,-0.0053,0.0347,0.0319,2.8642,49.737083,-123.09838,0.3718,283.1358,140.841736,6,3
51:00.0,0.0264,-0.0924,-0.9743,-0.0085,-0.0576,0.0245,0.048,0.0181,-0.0031,0.0349,0.0348,2.8638,49.737083,-123.09838,0.3718,283.1358,140.841736,6,3
51:00.1,0.0323,-0.1344,-0.9783,-0.0001,-0.096,0.0204,0.0427,-0.017,-0.0022,0.0325,0.0384,2.8628,49.737083,-123.09838,0.3718,283.1358,140.841736,6,3
51:00.2,0.0281,-0.1931,-0.9408,0.0052,-0.1562,0.0583,-0.0319,-0.1078,-0.1157,0.0229,0.0368,2.8556,49.737081,-123.098382,0.3718,283.1358,140.841736,8,3
51:00.3,0.0163,-0.2442,-0.9755,-0.0133,-0.203,0.0232,0.0084,0.0938,0.1434,0.0297,0.0412,2.8654,49.737081,-123.098382,0.3718,283.1358,140.841736,8,3
51:00.4,0.0188,-0.3284,-1.0063,-0.0243,-0.3032,-0.0076,-0.2338,0.1266,0.0207,0.0432,0.0253,2.8697,49.737081,-123.098382,0.3718,283.1358,140.841736,8,3
51:00.5,0.062,-0.243,-1.003,-0.019,-0.2911,-0.0075,-0.7543,0.3117,0.4036,0.0812,-0.0481,2.8973,49.737081,-123.098382,0.3718,281.9012,140.841736,8,3
51:00.6,0.0323,-0.0854,-0.7889,-0.068,-0.2137,0.1978,-0.8025,0.3012,0.5456,0.1013,-0.1286,2.9421,49.737081,-123.098382,0.3718,278.7738,140.841736,8,3
51:00.7,0.0276,-0.0026,-1.0551,-0.0455,-0.1586,-0.07,-0.3345,-0.1919,-0.5772,0.074,-0.1567,2.9014,49.737081,-123.098382,0.3718,280.2751,140.841736,8,3
51:00.8,0.0268,-0.0138,-0.8767,-0.0001,-0.1583,0.0968,0.1351,-0.3909,-0.4498,0.0335,-0.1472,2.8603,49.737081,-123.098382,0.3718,282.7741,140.841736,8,3
51:00.9,0.0329,-0.0147,-1.0141,0.0105,-0.142,-0.0225,0.22,-0.1361,-0.0368,0.0226,-0.1276,2.8462,49.737081,-123.098382,0.3718,283.7769,140.841736,8,3
51:01.0,-0.1007,-0.1378,-1.1102,-0.1074,-0.2393,-0.1154,0.1849,-0.1672,-0.1629,0.0067,-0.1018,2.8302,49.737081,-123.098382,0.3718,283.7769,140.841736,8,3
51:01.1,-0.0116,-0.0673,-0.9919,-0.0337,-0.1544,0.0041,0.251,0.1858,-0.1179,0.0221,-0.0872,2.8177,49.737081,-123.098382,0.3718,284.8173,140.841736,8,3
51:01.2,-0.0505,-0.1239,-1.0163,-0.0765,-0.1952,-0.0192,0.1828,0.1586,-0.1788,0.0261,-0.0714,2.7977,49.737083,-123.098389,1.6428,285.8302,140.841736,8,3
51:01.3,-0.0181,-0.1547,-0.9605,-0.0488,-0.2161,0.0371,0.0602,0.1745,-0.3304,0.0308,-0.0614,2.7683,49.737083,-123.098389,1.6428,287.0825,140.841736,8,3
51:01.4,-0.0362,-0.153,-1.0476,-0.0785,-0.2044,-0.0498,0.0301,0.168,-0.1403,0.0424,-0.0514,2.7537,49.737083,-123.098389,1.6428,288.3527,140.841736,8,3
51:01.5,-0.0154,-0.1669,-1.0017,-0.0604,-0.2103,-0.0037,0.1113,0.1589,-0.2237,0.045,-0.0434,2.7298,49.737083,-123.098389,1.6428,289.5717,140.841736,8,3
51:01.6,-0.0081,-0.1344,-1.0085,-0.06,-0.1812,-0.011,-0.0306,0.1039,-0.2698,0.052,-0.0468,2.7052,49.737083,-123.098389,1.6428,290.8672,140.841736,8,3
51:01.7,-0.0336,-0.1155,-1.0192,-0.0864,-0.1655,-0.0218,-0.0296,0.0304,-0.2583,0.0529,-0.05,2.6783,49.737083,-123.098389,1.6428,293.1399,140.841736,8,3
51:01.8,-0.0069,-0.1395,-0.9618,-0.0678,-0.1807,0.0415,0.153,0.072,-0.2838,0.057,-0.041,2.6511,49.737083,-123.098389,1.6428,294.3275,140.841736,8,3
51:01.9,0.0102,-0.0834,-1.0139,-0.0428,-0.1247,-0.0161,-0.053,-0.0769,-0.2885,0.053,-0.0413,2.6216,49.737083,-123.098389,1.6428,295.5049,140.841736,8,3
51:02.0,-0.032,-0.138,-0.9666,-0.0782,-0.1599,0.0234,0.2524,-0.0662,-0.3141,0.0431,-0.0224,2.5912,49.737083,-123.098389,1.6428,298.1471,140.841736,8,3
51:02.1,-0.023,-0.133,-0.9385,-0.0619,-0.1422,0.0607,0.1327,-0.0188,-0.2264,0.0389,-0.0092,2.5662,49.737083,-123.098389,1.6428,299.2008,140.841736,8,3
51:02.2,-0.0321,-0.0995,-1.0053,-0.0562,-0.105,-0.0056,0.0312,-0.1615,-0.2141,0.0241,-0.0055,2.5442,49.737099,-123.09841,3.0447,300.4843,140.841736,8,3
51:02.3,-0.1113,-0.1074,-0.9834,-0.1233,-0.1005,0.0165,0.1988,-0.0575,-0.1806,0.012,0.0069,2.5249,49.737099,-123.09841,3.0447,301.563,140.841736,8,3
51:02.4,-0.103,-0.0727,-1.0922,-0.1252,-0.0668,-0.0925,-0.0672,0.2708,-0.0674,0.0221,0.0059,2.5135,49.737099,-123.09841,3.0447,302.6269,140.841736,8,3
51:02.5,-0.07,-0.169,-0.8256,-0.0766,-0.1393,0.1739,0.2802,-0.2562,-0.3906,0.0066,0.0297,2.4815,49.737099,-123.09841,3.0447,304.1681,140.841736,8,3
51:02.6,0.0029,-0.0476,-1.1878,-0.0007,-0.0497,-0.1878,-0.3926,0.0743,-0.2613,0.0036,-0.0022,2.4553,49.737099,-123.09841,3.0447,305.458,140.841736,8,3
51:02.7,-0.0629,-0.1259,-0.997,-0.0557,-0.102,0.0027,0.485,-0.0156,-0.2606,-0.0073,0.0239,2.4317,49.737099,-123.09841,3.0447,306.829,140.841736,8,3
51:02.8,-0.0614,-0.1031,-0.9875,-0.0495,-0.0784,0.0121,-0.0244,-0.0345,-0.0983,-0.0119,0.0247,2.4202,49.737099,-123.09841,3.0447,307.8362,140.841736,8,3
51:02.9,-0.0816,-0.0625,-0.9989,-0.068,-0.0395,0.0007,0.0547,0.0415,-0.1664,-0.0136,0.023,2.4058,49.737099,-123.09841,3.0447,307.8362,140.841736,8,3
51:03.0,0.0267,-0.1116,-1.0258,0.0327,-0.0894,-0.026,-0.0275,0.0246,-0.1846,-0.0061,0.0222,2.3876,49.737099,-123.09841,3.0447,309.052,140.841736,8,3
51:03.1,-0.0993,-0.13,-0.9146,-0.0768,-0.1049,0.0849,0.0084,-0.1985,0.0783,-0.0225,0.0251,2.3881,49.737099,-123.09841,3.0447,309.052,140.841736,8,3
51:03.2,-0.1003,-0.0556,-0.8599,-0.0604,-0.0173,0.1385,0.1346,-0.2783,-0.0864,-0.0399,0.0383,2.3829,49.737135,-123.098426,3.0447,309.052,140.841736,6,3
51:03.3,-0.0256,-0.0859,-1.0008,0.0134,-0.055,-0.0021,-0.0235,0.0212,0.0161,-0.0391,0.0309,2.3819,49.737135,-123.098426,3.0447,310.1091,140.841736,6,3
51:03.4,-0.023,-0.1311,-1.0117,0.0175,-0.0945,-0.0132,0.112,-0.0219,0.0789,-0.0405,0.0366,2.3892,49.737135,-123.098426,3.0447,310.1091,140.841736,6,3
51:03.5,-0.0129,-0.1173,-0.9478,0.032,-0.0677,0.05,0.2102,0.0044,0.1217,-0.0449,0.0496,2.4018,49.737135,-123.098426,3.0447,310.1091,140.841736,6,3
51:03.6,-0.0506,-0.069,-0.9621,-0.0002,-0.0154,0.0352,0.034,-0.0797,0.1481,-0.0504,0.0536,2.4169,49.737135,-123.098426,3.0447,308.8879,140.841736,6,3
51:03.7,-0.0208,-0.038,-1.0262,0.0367,-0.0006,-0.0285,-0.1859,-0.0611,0.0873,-0.0575,0.0373,2.426,49.737135,-123.098426,3.0447,307.8284,140.841736,6,3
51:03.8,0.0256,-0.0886,-1.0391,0.0771,-0.0476,-0.0413,0.0236,0.0706,-0.0627,-0.0516,0.041,2.4182,49.737135,-123.098426,3.0447,307.8284,140.841736,6,3
51:03.9,0.0374,-0.1076,-1.0126,0.0821,-0.0634,-0.0146,0.0448,0.0977,0.0228,-0.0447,0.0442,2.4165,49.737135,-123.098426,3.0447,307.8284,140.841736,6,3
51:04.0,-0.0253,-0.1356,-0.9257,0.0312,-0.0755,0.0709,0.1933,-0.1285,-0.057,-0.0567,0.0602,2.4144,49.737135,-123.098426,3.0447,307.8284,140.841736,6,3
51:04.1,0.0276,-0.1328,-0.9743,0.0904,-0.0441,0.0198,0.3213,-0.0145,0.0822,-0.0631,0.0888,2.4176,49.737135,-123.098426,3.0447,307.8284,140.841736,6,3
51:04.2,-0.0129,-0.2137,-1.0438,0.0869,-0.1398,-0.0515,-0.2104,-0.5995,0.0758,-0.1002,0.0739,2.4223,49.737173,-123.098448,4.1756,307.8284,140.841736,6,3
51:04.3,0.0912,-0.1277,-0.9132,0.1666,-0.0428,0.0803,0.3232,0.3364,0.2809,-0.0757,0.0851,2.4451,49.737173,-123.098448,4.1756,306.6593,140.841736,6,3
51:04.4,0.0593,-0.1222,-1.0019,0.1416,-0.0488,-0.008,-0.0503,-0.037,0.1227,-0.0826,0.0735,2.4581,49.737173,-123.098448,4.1756,306.6593,140.841736,6,3
51:04.5,0.0903,-0.1401,-0.9838,0.1726,-0.0584,0.0095,0.1172,0.0763,0.2031,-0.0827,0.0818,2.4763,49.737173,-123.098448,4.1756,305.565,140.841736,6,3
51:04.6,-0.0002,-0.1444,-0.9466,0.0947,-0.0627,0.0362,0.0701,-0.1221,0.2729,-0.0999,0.0846,2.4997,49.737173,-123.098448,4.1756,303.3949,140.841736,6,3
51:04.7,0.0364,-0.1284,-0.8944,0.146,-0.0389,0.0955,0.0605,-0.1243,0.2889,-0.1103,0.0897,2.5296,49.737173,-123.098448,4.1756,302.1049,140.841736,6,3
51:04.8,0.0371,-0.079,-1.0229,0.1552,-0.0016,-0.0329,-0.1402,-0.1015,0.2356,-0.1187,0.0775,2.5528,49.737173,-123.098448,4.1756,300.9801,140.841736,6,3
51:04.9,0.1211,-0.0983,-0.9423,0.2348,-0.0186,0.048,0.1128,0.1012,0.2972,-0.1143,0.0798,2.5817,49.737173,-123.098448,4.1756,298.6546,140.841736,6,3
51:05.0,0.0746,-0.0627,-0.9783,0.1954,0.0139,0.0114,0.0402,-0.0157,0.2861,-0.1215,0.0767,2.6093,49.737173,-123.098448,4.1756,297.4613,140.841736,6,3
51:05.1,0.0596,-0.0509,-0.9618,0.1948,0.0318,0.0256,0.0488,-0.0785,0.288,-0.1361,0.0828,2.6367,49.737173,-123.098448,4.1756,296.2348,140.841736,6,3
51:05.2,0.0977,-0.0913,-0.9826,0.2235,-0.0022,0.0055,0.0486,0.1601,0.4159,-0.1266,0.0892,2.6751,49.737209,-123.098481,4.3107,293.3839,140.841736,6,3
51:05.3,0.0264,-0.0751,-1.0413,0.1618,0.0322,-0.0379,0.2044,0.0886,0.4413,-0.1253,0.1029,2.7194,49.737209,-123.098481,4.3107,290.678,140.841736,6,3
51:05.4,0.0773,-0.1721,-0.9354,0.1974,-0.0532,0.0413,0.2002,0.0619,0.4422,-0.124,0.1111,2.7684,49.737209,-123.098481,4.3107,287.7998,140.841736,6,3
51:05.5,0.0874,-0.073,-0.9549,0.2189,0.0326,0.0308,-0.0722,-0.0598,0.5326,-0.1326,0.1058,2.8214,49.737209,-123.098481,4.3107,285.045,140.841736,6,3
51:05.6,0.0558,-0.1229,-1.0598,0.1578,-0.0284,-0.0695,-0.0071,0.4276,0.5268,-0.1026,0.0946,2.8732,49.737209,-123.098481,4.3107,281.899,140.841736,6,3
51:05.7,0.1254,-0.1188,-0.9224,0.2374,-0.0262,0.067,0.0114,-0.0487,0.2945,-0.1128,0.0928,2.9049,49.737209,-123.098481,4.3107,280.8242,140.841736,6,3
51:05.8,0.0768,-0.1062,-1.0103,0.1901,-0.0193,-0.0206,-0.0624,0.037,0.3738,-0.114,0.087,2.9422,49.737209,-123.098481,4.3107,278.4095,140.841736,6,3
51:05.9,0.1091,-0.1172,-0.9241,0.2189,-0.0218,0.0653,0.197,0.1089,0.4157,-0.1105,0.0955,2.9845,49.737209,-123.098481,4.3107,276.1591,140.841736,6,3
51:06.0,0.0891,-0.1538,-1.0088,0.1951,-0.0505,-0.0198,0.0839,0.1049,0.3943,-0.1068,0.1035,3.0248,49.737209,-123.098481,4.3107,273.7374,140.841736,6,3
51:06.1,0.114,-0.1748,-0.9761,0.2247,-0.065,0.0117,0.148,-0.0397,0.3618,-0.1116,0.11,3.0618,49.737209,-123.098481,4.3107,271.564,140.841736,6,3
51:06.2,0.1184,-0.1541,-0.9952,0.2246,-0.0408,-0.0073,0.0838,0.1196,0.4275,-0.1071,0.1136,3.103,49.737244,-123.098523,5.7783,269.3348,140.841736,6,3
51:06.3,0.1293,-0.1236,-0.9343,0.2336,-0.024,0.0582,-0.0144,-0.0091,0.426,-0.1133,0.11,-3.141,49.737244,-123.098523,5.7783,266.984,140.841736,6,3
51:06.4,0.1792,-0.1093,-0.9984,0.272,-0.0007,-0.0087,0.0614,0.2237,0.4556,-0.0935,0.1088,-3.0916,49.737244,-123.098523,5.7783,264.4022,140.841736,6,3
51:06.5,0.1803,-0.1437,-0.9798,0.263,-0.031,0.0103,0.0442,0.0436,0.4998,-0.0833,0.1129,-3.0411,49.737244,-123.098523,5.7783,261.5928,140.841736,6,3
51:06.6,0.2014,-0.1262,-0.9283,0.2836,-0.014,0.062,0.0026,0.0053,0.4954,-0.0828,0.1124,-2.9905,49.737244,-123.098523,5.7783,258.6751,140.841736,6,3
51:06.7,0.2593,-0.1259,-1.0789,0.331,-0.0282,-0.0863,-0.1629,0.2098,0.4844,-0.0721,0.0979,-2.9435,49.737244,-123.098523,5.7783,255.9324,140.841736,6,3
51:06.8,0.2694,-0.1329,-0.9429,0.3462,-0.027,0.0485,0.1266,-0.0835,0.3937,-0.0773,0.1061,-2.9034,49.737244,-123.098523,5.7783,253.6069,140.841736,6,3
51:06.9,0.2077,-0.1085,-0.9776,0.2875,0.003,0.0129,0.1018,0.1037,0.5737,-0.0803,0.1118,-2.8466,49.737244,-123.098523,5.7783,250.8287,140.841736,6,3
51:07.0,0.2048,-0.1489,-0.9951,0.2751,-0.0355,-0.0146,0.0014,-0.0166,0.5861,-0.0763,0.1119,-2.7917,49.737244,-123.098523,5.7783,247.5488,140.841736,6,3
51:07.1,0.2037,-0.1255,-1.0096,0.2827,-0.0154,-0.0188,0.09,0.0672,0.6302,-0.0796,0.1104,-2.7255,49.737244,-123.098523,5.7783,244.0323,140.841736,6,3
51:07.2,0.1727,-0.1335,-1.0048,0.2416,-0.0225,-0.0133,0.1297,0.2672,0.4686,-0.0694,0.1113,-2.6756,49.737269,-123.098588,5.7783,240.9125,141.337875,6,3
51:07.3,0.2306,-0.1183,-0.9301,0.2975,-0.0077,0.0615,0.0346,-0.0096,0.4943,-0.0674,0.1109,-2.6263,49.737269,-123.098588,5.7783,238.2168,141.337875,6,3
51:07.4,0.2427,-0.0858,-1.0531,0.2918,0.0179,-0.0597,-0.0807,0.2213,0.5015,-0.0494,0.1039,-2.5737,49.737269,-123.098588,5.7783,235.2516,141.337875,6,3
51:07.5,0.2774,-0.1261,-1.0317,0.3156,-0.0256,-0.0375,-0.0253,0.0953,0.5747,-0.0384,0.1006,-2.5185,49.737269,-123.098588,5.7783,232.3866,141.337875,6,3
51:07.6,0.2879,-0.0851,-0.9142,0.3249,0.0161,0.08,0.0281,-0.0143,0.5583,-0.0372,0.1014,-2.4629,49.737269,-123.098588,5.7783,229.2093,141.337875,6,3
51:07.7,0.2245,-0.0515,-0.959,0.2644,0.0517,0.0349,0.0355,0.0502,0.6237,-0.0401,0.1034,-2.4041,49.737269,-123.098588,5.7783,226.1816,141.337875,6,3
51:07.8,0.2825,-0.1249,-1.0419,0.3072,-0.0256,-0.0471,-0.0199,0.1678,0.5398,-0.0249,0.0994,-2.3485,49.737269,-123.098588,5.7783,222.8109,141.337875,6,3
51:07.9,0.2624,-0.1124,-1.0036,0.2812,-0.0046,-0.0096,0.1327,0.1132,0.5834,-0.0189,0.108,-2.2933,49.737269,-123.098588,5.7783,219.937,141.337875,6,3
51:08.0,0.2804,-0.1183,-0.9587,0.3057,-0.0138,0.0355,0.0101,-0.118,0.4694,-0.0254,0.1047,-2.2411,49.737269,-123.098588,5.7783,216.7796,141.337875,6,3
51:08.1,0.2953,-0.1267,-1.0709,0.311,-0.0236,-0.0763,-0.0007,0.2169,0.5293,-0.0158,0.1032,-2.1869,49.737269,-123.098588,5.7783,213.8996,141.337875,6,3
51:08.2,0.2618,-0.0875,-0.9559,0.2851,0.01,0.0391,0.0174,0.0484,0.5778,-0.0234,0.0976,-2.131,49.737267,-123.098814,5.7783,210.995,141.956619,11.1,3
51:08.3,0.2984,-0.0475,-0.9103,0.3229,0.0503,0.0846,0.0026,0.0744,0.5117,-0.0247,0.098,-2.0781,49.737267,-123.098814,5.7783,207.9823,141.956619,11.1,3
51:08.4,0.2616,-0.0835,-1.1273,0.2737,0.0009,-0.1309,-0.1427,0.2954,0.5744,-0.0121,0.0844,-2.0216,49.737267,-123.098814,5.7783,205.0391,141.956619,11.1,3
51:08.5,0.2887,-0.0388,-0.9337,0.3113,0.0461,0.0624,-0.0028,-0.1075,0.495,-0.0228,0.0851,-1.9716,49.737267,-123.098814,5.7783,202.2851,141.956619,11.1,3
51:08.6,0.2888,-0.028,-1.138,0.3103,0.0496,-0.1412,-0.0839,0.0668,0.5383,-0.0216,0.0777,-1.9147,49.737267,-123.098814,5.7783,199.2165,141.956619,11.1,3
51:08.7,0.3103,-0.0895,-0.9275,0.3258,0.011,0.0673,0.3463,0.2004,0.5847,-0.0156,0.1007,-1.8567,49.737267,-123.098814,5.7783,196.2445,141.956619,11.1,3
51:08.8,0.2129,-0.0571,-0.9879,0.2337,0.0524,0.0059,0.1369,0.0501,0.629,-0.0209,0.1097,-1.7929,49.737267,-123.098814,5.7783,192.8206,141.956619,11.1,3
51:08.9,0.3269,-0.1087,-1.1925,0.3357,-0.0126,-0.1971,-0.1426,0.2298,0.5122,-0.0089,0.0962,-1.7388,49.737267,-123.098814,5.7783,189.6474,141.956619,11.1,3
51:09.0,0.3974,-0.0793,-0.9503,0.4155,0.0077,0.0475,0.0582,0.1205,0.4553,-0.0084,0.0945,-1.6946,49.737267,-123.098814,5.7783,187.0598,141.956619,11.1,3
51:09.1,0.249,-0.0003,-0.8916,0.2676,0.1039,0.1028,0.1359,-0.1049,0.5762,-0.0187,0.1044,-1.6351,49.737267,-123.098814,5.7783,184.3247,141.956619,11.1,3
51:09.2,0.2716,-0.0347,-1.0227,0.2948,0.0767,-0.0292,0.0847,-0.0356,0.5529,-0.0234,0.1116,-1.5779,49.737267,-123.098815,6.1585,181.0747,142.078552,6,3
51:09.3,0.3288,-0.1149,-1.002,0.3414,0.003,-0.009,0.1008,0.2402,0.5379,-0.0127,0.1182,-1.5244,49.737267,-123.098815,6.1585,178.2377,142.078552,6,3
51:09.4,0.2647,-0.0665,-1.0385,0.294,0.0492,-0.0279,-0.0061,0.0609,0.6152,-0.0118,0.1259,-1.4685,49.737267,-123.098815,6.1585,175.2785,142.078552,6,3
51:09.5,0.3037,-0.1131,-1.0544,0.3097,0.0161,-0.0628,0.0527,0.1412,0.5375,-0.0061,0.1296,-1.4097,49.737267,-123.098815,6.1585,172.0911,142.078552,6,3
51:09.6,0.3425,-0.1147,-0.8896,0.3495,0.0232,0.1008,0.0528,0,0.4943,-0.007,0.1383,-1.3598,49.737267,-123.098815,6.1585,169.3973,142.078552,6,3
51:09.7,0.282,0.0024,-0.904,0.3135,0.1285,0.0972,-0.02,-0.0591,0.587,-0.0168,0.1382,-1.3068,49.737267,-123.098815,6.1585,166.6129,142.078552,6,3
51:09.8,0.3311,-0.1394,-1.0858,0.3455,-0.0214,-0.0929,-0.2474,0.0357,0.5841,-0.0145,0.1184,-1.251,49.737267,-123.098815,6.1585,163.8305,142.078552,6,3
51:09.9,0.3175,-0.0521,-0.9107,0.3263,0.0831,0.0801,0.1231,0.0622,0.581,-0.0089,0.1356,-1.1967,49.737267,-123.098815,6.1585,161.0532,142.078552,6,3
51:10.0,0.2628,-0.0761,-0.9776,0.2681,0.0634,0.0126,0.0687,0.1093,0.5396,-0.0054,0.14,-1.1414,49.737267,-123.098815,6.1585,157.9392,142.078552,6,3
51:10.1,0.3064,-0.0965,-1.0258,0.3031,0.0494,-0.0365,0.0474,0.1722,0.5195,0.0033,0.1464,-1.0907,49.737267,-123.098815,6.1585,155.2166,142.078552,6,3
51:10.2,0.3565,-0.1073,-0.9799,0.3506,0.0363,0.0098,-0.023,0.0672,0.4743,0.006,0.1441,-1.0431,49.737261,-123.098837,6.3978,152.6915,141.469971,6,3
51:10.3,0.3655,-0.0763,-0.933,0.3609,0.0629,0.0573,-0.0252,0.0402,0.5361,0.0046,0.1397,-0.9904,49.737261,-123.098837,6.3978,150.0332,141.469971,6,3
51:10.4,0.3148,-0.0614,-0.9556,0.3323,0.0814,0.046,0.0537,-0.0634,0.5774,-0.0015,0.1454,-0.9387,49.737261,-123.098837,6.3978,147.293,141.469971,6,3
51:10.5,0.2509,-0.1045,-1.0812,0.2689,0.0405,-0.0919,0.0623,-0.0388,0.5561,-0.0182,0.1455,-0.8805,49.737261,-123.098837,6.3978,144.2972,141.469971,6,3
51:10.6,0.2864,-0.1226,-0.9655,0.2885,0.039,0.0213,0.2139,0.3454,0.5447,-0.0021,0.1624,-0.827,49.737261,-123.098837,6.3978,141.451,141.469971,6,3
51:10.7,0.3452,-0.0747,-0.9208,0.3394,0.0824,0.0668,-0.1694,0.1221,0.5546,0.0059,0.1578,-0.7741,49.737261,-123.098837,6.3978,138.7149,141.469971,6,3
51:10.8,0.3814,-0.0568,-1.0019,0.3809,0.0976,-0.0139,-0.0657,0.0075,0.4858,0.0005,0.155,-0.7256,49.737261,-123.098837,6.3978,135.9662,141.469971,6,3
51:10.9,0.3597,-0.0967,-1.046,0.3833,0.0565,-0.0581,0.0369,-0.0844,0.3809,-0.0238,0.1538,-0.6862,49.737261,-123.098837,6.3978,133.3478,141.469971,6,3
51:11.0,0.353,-0.0599,-1.0187,0.3814,0.1006,-0.0321,0.0046,0.0113,0.552,-0.0287,0.1611,-0.6355,49.737261,-123.098837,6.3978,130.9347,141.469971,6,3
51:11.1,0.3156,-0.0499,-1.0306,0.3573,0.1205,-0.0461,0.1361,0.0426,0.4817,-0.0424,0.1713,-0.5863,49.737261,-123.098837,6.3978,128.2979,141.469971,6,3
51:11.2,0.2803,-0.0427,-1.0282,0.3315,0.1329,-0.045,0.0963,0.0265,0.6663,-0.052,0.1766,-0.5255,49.737114,-123.098912,5.0028,125.3118,140.904556,9.8,3
51:11.3,0.3024,-0.1285,-0.9402,0.3345,0.0684,0.0397,0.2233,0.3752,0.7092,-0.0327,0.1982,-0.4573,49.737114,-123.098912,5.0028,121.6759,140.904556,9.8,3
51:11.4,0.3818,-0.0273,-1.0142,0.4124,0.1677,-0.0339,-0.1256,0.0028,0.568,-0.0312,0.1963,-0.4006,49.737114,-123.098912,5.0028,118.5665,140.904556,9.8,3
51:11.5,0.2574,-0.0835,-1.0821,0.3282,0.1081,-0.1032,-0.0154,-0.4025,0.3701,-0.0721,0.1928,-0.3621,49.737114,-123.098912,5.0028,117.2819,140.904556,9.8,3
51:11.6,0.2514,-0.1477,-1.0139,0.3165,0.0571,-0.0373,0.2237,0.1546,0.434,-0.0665,0.2063,-0.3179,49.737114,-123.098912,5.0028,114.4637,140.904556,9.8,3
51:11.7,0.3083,-0.0654,-0.9539,0.3653,0.146,0.0246,-0.0041,0.3668,0.7124,-0.0403,0.2104,-0.2466,49.737114,-123.098912,5.0028,110.3553,140.904556,9.8,3
51:11.8,0.1439,-0.1467,-1.0893,0.1939,0.0543,-0.111,-0.1654,-0.1317,0.7971,-0.051,0.2024,-0.1602,49.737114,-123.098912,5.0028,105.7407,140.904556,9.8,3
51:11.9,0.4804,-0.1933,-0.9417,0.4753,0.039,0.0309,0.4538,0.7034,0.7926,0.0053,0.2344,-0.0732,49.737114,-123.098912,5.0028,100.4486,140.904556,9.8,3
51:12.0,0.3152,-0.1482,-1.0228,0.3328,0.0731,-0.0477,-0.1118,-0.1733,0.6389,-0.018,0.2231,-0.0099,49.737114,-123.098912,5.0028,96.865,140.904556,9.8,3
51:12.1,0.3758,-0.1228,-0.9705,0.3996,0.0934,0.0055,-0.0989,0.0017,0.5584,-0.0244,0.2179,0.0436,49.737114,-123.098912,5.0028,93.6702,140.904556,9.8,3
51:12.2,0.2607,-0.1578,-1.0234,0.2928,0.0534,-0.0465,-0.0231,0.1541,0.5237,-0.0328,0.2129,0.0939,49.73707,-123.098878,6.3622,90.7888,140.848022,11.9,3
51:12.3,0.3052,-0.1653,-0.8904,0.3197,0.0556,0.0848,0.1681,0.2723,0.4964,-0.0148,0.2228,0.1435,49.73707,-123.098878,6.3622,88.0194,140.848022,11.9,3
51:12.4,0.3489,-0.077,-1.0119,0.3706,0.1123,-0.0302,-0.3816,-0.2172,0.3793,-0.0221,0.1905,0.1887,49.73707,-123.098878,6.3622,85.1084,140.848022,11.9,3
51:12.5,0.3998,-0.0861,-0.9037,0.4276,0.0864,0.0809,-0.1564,0.1121,0.4488,-0.0282,0.1734,0.2281,49.73707,-123.098878,6.3622,83.7317,140.848022,11.9,3
51:12.6,0.2747,-0.1035,-0.898,0.3223,0.0781,0.0842,0.0581,-0.2342,0.4925,-0.0483,0.1826,0.2765,49.73707,-123.098878,6.3622,81.0907,140.848022,11.9,3
51:12.7,0.1542,-0.1574,-1.0008,0.2157,0.0338,-0.0211,0.0923,-0.2042,0.4701,-0.0627,0.1924,0.3305,49.73707,-123.098878,6.3622,77.9742,140.848022,11.9,3
51:12.8,0.298,-0.1287,-0.9371,0.3357,0.07,0.0422,0.1199,0.2695,0.6085,-0.0385,0.2001,0.3935,49.73707,-123.098878,6.3622,74.5957,140.848022,11.9,3
51:12.9,0.2673,-0.1277,-1.0106,0.2948,0.0642,-0.0295,-0.0018,0.2963,0.5872,-0.028,0.1931,0.4511,49.73707,-123.098878,6.3622,71.2466,140.848022,11.9,3
51:13.0,0.3372,-0.1245,-0.8961,0.354,0.0714,0.0844,0.1404,0.2612,0.4152,-0.017,0.1971,0.4958,49.73707,-123.098878,6.3622,68.3103,140.848022,11.9,3
51:13.1,0.2663,-0.0915,-1.0487,0.2971,0.0988,-0.0674,-0.0069,-0.2239,0.3857,-0.0314,0.1914,0.5374,49.73707,-123.098878,6.3622,65.8276,140.848022,11.9,3
51:13.2,0.3555,-0.1245,-0.8796,0.3704,0.0644,0.1022,0.1199,0.7496,0.5877,-0.0152,0.1901,0.5878,49.737092,-123.098644,6.1979,63.4282,140.842361,6,3
51:13.3,0.2763,-0.0713,-1.0179,0.3063,0.1125,-0.0354,-0.1885,-0.3001,0.5029,-0.0305,0.1848,0.6414,49.737092,-123.098644,6.1979,60.1602,140.842361,6,3
51:13.4,0.2626,-0.1251,-0.9963,0.3027,0.064,-0.0151,0.1959,0.1416,0.4649,-0.0408,0.1902,0.6904,49.737092,-123.098644,6.1979,57.2827,140.842361,6,3
51:13.5,0.323,-0.1278,-0.9645,0.3573,0.0643,0.0163,0.0655,0.254,0.5401,-0.035,0.1934,0.7424,49.737092,-123.098644,6.1979,54.4892,140.842361,6,3
51:13.6,0.2257,-0.107,-1.0182,0.2834,0.0924,-0.0272,0.0655,-0.1162,0.5238,-0.0447,0.1956,0.7945,49.737092,-123.098644,6.1979,51.3375,140.842361,6,3
51:13.7,0.2367,-0.1458,-0.9216,0.2732,0.0573,0.0569,0.1424,0.2743,0.5252,-0.0373,0.2045,0.8534,49.737092,-123.098644,6.1979,48.1632,140.842361,6,3
51:13.8,0.2757,-0.1493,-1.0046,0.3027,0.0592,-0.0269,0.0644,0.1123,0.5641,-0.0276,0.2101,0.9086,49.737092,-123.098644,6.1979,45.0002,140.842361,6,3
51:13.9,0.2665,-0.1714,-0.9794,0.2845,0.04,-0.0021,0.1061,0.3051,0.537,-0.0185,0.213,0.9631,49.737092,-123.098644,6.1979,41.8272,140.842361,6,3
51:14.0,0.2928,-0.182,-0.9817,0.3062,0.031,-0.0047,-0.0113,-0.0116,0.4751,-0.0138,0.2146,1.0118,49.737092,-123.098644,6.1979,38.828,140.842361,6,3
51:14.1,0.303,-0.1667,-0.9861,0.3134,0.0444,-0.0087,0.0176,0.2417,0.4685,-0.0107,0.2127,1.0569,49.737092,-123.098644,6.1979,36.1982,140.842361,6,3
51:14.2,0.2914,-0.1548,-0.9901,0.3124,0.0522,-0.0119,-0.0315,-0.0111,0.4046,-0.0215,0.2086,1.0981,49.737102,-123.098551,6.3622,33.7988,140.841797,6,3
51:14.3,0.2607,-0.168,-0.9835,0.2854,0.039,-0.0055,0.0442,0.0947,0.4925,-0.0253,0.2085,1.1468,49.737102,-123.098551,6.3622,31.2465,140.841797,6,3
51:14.4,0.2687,-0.1813,-0.9897,0.268,0.0339,-0.007,0.0442,0.1616,0.5131,-0.0193,0.2112,1.1964,49.737102,-123.098551,6.3622,28.2875,140.841797,6,3
51:14.5,0.2536,-0.1751,-0.9823,0.2615,0.0357,-0.0048,0.0367,0.2616,0.5262,-0.0081,0.2125,1.2511,49.737102,-123.098551,6.3622,25.2907,140.841797,6,3
51:14.6,0.3228,-0.1668,-0.9875,0.3233,0.0443,-0.01,0.0261,0.1373,0.4895,-0.0005,0.2127,1.3001,49.737102,-123.098551,6.3622,22.4103,140.841797,6,3
51:14.7,0.3388,-0.1678,-0.9532,0.3083,0.0445,0.0135,0.0485,0.2342,0.4781,0.0075,0.2155,1.3451,49.737102,-123.098551,6.3622,19.6708,140.841797,6,3
51:14.8,0.3501,-0.1538,-0.9126,0.3437,0.0591,0.0645,0.0176,0.0748,0.4369,0.0065,0.2145,1.3916,49.737102,-123.098551,6.3622,17.0735,140.841797,6,3
51:14.9,0.2245,-0.1975,-0.9996,0.238,0.018,-0.0232,0.1008,-0.2287,0.47,-0.0138,0.2172,1.4379,49.737102,-123.098551,6.3622,14.4567,140.841797,6,3
51:15.0,0.2188,-0.183,-0.9981,0.2285,0.041,-0.0236,-0.0017,-0.0161,0.5103,-0.0099,0.226,1.4893,49.737102,-123.098551,6.3622,11.6497,140.841797,6,3
51:15.1,0.2529,-0.1973,-1.0264,0.2584,0.0286,-0.0523,0.0677,0.1521,0.5034,-0.0056,0.2279,1.5404,49.737102,-123.098551,6.3622,8.6758,140.841797,6,3
51:15.2,0.2813,-0.168,-1.0818,0.2875,0.0569,-0.1075,-0.0615,-0.1279,0.5334,-0.0063,0.2268,1.5901,49.737132,-123.098473,6.1979,5.9021,140.841736,6,3
51:15.3,0.3701,-0.2029,-0.802,0.347,0.0346,0.1691,0.1948,0.6076,0.489,0.0239,0.2397,1.6411,49.737132,-123.098473,6.1979,2.9505,140.841736,6,3
51:15.4,0.2709,-0.1872,-1.1076,0.2856,0.0395,-0.1337,-0.1201,-0.4433,0.433,-0.0151,0.2287,1.6864,49.737132,-123.098473,6.1979,0.1802,140.841736,6,3
51:15.5,0.3458,-0.2027,-0.909,0.3531,0.0363,0.062,0.2119,0.4875,0.4576,-0.0076,0.2413,1.731,49.737132,-123.098473,6.1979,357.7596,140.841736,6,3
51:15.6,0.2366,-0.1913,-1.0923,0.2692,0.0499,-0.1223,-0.0081,-0.3599,0.5198,-0.0336,0.2436,1.7837,49.737132,-123.098473,6.1979,354.8645,140.841736,6,3
51:15.7,0.2687,-0.2144,-0.8634,0.2915,0.0408,0.1032,0.2364,0.4595,0.5045,-0.0235,0.258,1.8379,49.737132,-123.098473,6.1979,351.8159,140.841736,6,3
51:15.8,0.2119,-0.2091,-1.1115,0.2537,0.0407,-0.1441,-0.0722,-0.3303,0.5572,-0.0433,0.2525,1.8938,49.737132,-123.098473,6.1979,348.6238,140.841736,6,3
51:15.9,0.3976,-0.1843,-0.836,0.4249,0.0767,0.1289,0.1745,0.4472,0.4436,-0.0282,0.264,1.941,49.737132,-123.098473,6.1979,345.6523,140.841736,6,3
51:16.0,0.1828,-0.1947,-1.0648,0.2644,0.0535,-0.0995,-0.0849,-0.5105,0.4413,-0.0844,0.2509,1.9836,49.737132,-123.098473,6.1979,343.2127,140.841736,6,3
51:16.1,0.182,-0.2042,-0.9262,0.2595,0.063,0.0343,0.2203,0.208,0.5698,-0.0806,0.2705,2.0407,49.737132,-123.098473,6.1979,340.401,140.841736,6,3
51:16.2,0.1402,-0.2548,-0.9776,0.225,0.0114,-0.0174,0.0591,0.0698,0.548,-0.0881,0.2694,2.0985,49.737179,-123.09843,5.726,336.8957,140.841736,6,3
51:16.3,0.2357,-0.182,-1.0109,0.315,0.0764,-0.0481,-0.0241,0.1947,0.5004,-0.0822,0.2614,2.1492,49.737179,-123.09843,5.726,333.8982,140.841736,6,3
51:16.4,0.1647,-0.2324,-0.9715,0.23,0.0198,-0.0309,0.1551,0.3547,0.5906,-0.0758,0.2652,2.2056,49.737179,-123.09843,5.726,330.7509,140.841736,6,3
51:16.5,0.1532,-0.239,-0.8953,0.2263,0.0197,0.0679,-0.022,-0.0098,0.5306,-0.0757,0.2616,2.2626,49.737179,-123.09843,5.726,327.4456,140.841736,6,3
51:16.6,0.1461,-0.2023,-0.9895,0.2346,0.0482,-0.0255,-0.0326,-0.0371,0.4664,-0.0916,0.2532,2.3118,49.737179,-123.09843,5.726,324.471,140.841736,6,3
51:16.7,0.1623,-0.2355,-0.9821,0.2409,0.0201,-0.0149,0.0773,0.1306,0.53,-0.0957,0.2546,2.3618,49.737179,-123.09843,5.726,321.6329,140.841736,6,3
51:16.8,0.1536,-0.2395,-0.9128,0.2427,0.0063,0.0524,-0.021,0.1666,0.5707,-0.092,0.2483,2.4209,49.737179,-123.09843,5.726,318.4254,140.841736,6,3
51:16.9,0.1357,-0.2088,-1.0008,0.2381,0.0264,-0.0343,-0.0647,-0.0446,0.4803,-0.1056,0.2374,2.4705,49.737179,-123.09843,5.726,315.3361,140.841736,6,3
51:17.0,0.1447,-0.2418,-0.9229,0.2471,-0.007,0.0437,0.0902,0.2502,0.4728,-0.1056,0.2371,2.5179,49.737179,-123.09843,5.726,312.6783,140.841736,6,3
51:17.1,0.1423,-0.2395,-0.9633,0.2436,-0.012,0.0052,-0.0829,0.0836,0.579,-0.1043,0.2295,2.573,49.737179,-123.09843,5.726,309.6988,140.841736,6,3
51:17.2,0.1059,-0.2277,-0.963,0.2237,-0.0021,-0.0192,0.0485,0.0459,0.471,-0.1121,0.2259,2.6238,49.737165,-123.098577,5.726,306.4825,140.841736,6,3
51:17.3,0.16,-0.1881,-0.9368,0.2694,0.0318,0.0325,-0.008,0.0896,0.4594,-0.1124,0.2217,2.6673,49.737165,-123.098577,5.726,304.0059,140.841736,6,3
51:17.4,0.0919,-0.2566,-1.0144,0.2119,-0.029,-0.0481,0.2278,0.102,0.5075,-0.1236,0.2296,2.7205,49.737165,-123.098577,5.726,301.2008,140.841736,6,3
51:17.5,0.1534,-0.2616,-0.884,0.2542,-0.041,0.0671,0.072,0.2671,0.4931,-0.114,0.2319,2.7694,49.737165,-123.098577,5.726,298.0758,140.841736,6,3
51:17.6,0.1614,-0.1917,-0.9673,0.2818,0.0206,0.0024,-0.1201,-0.0134,0.442,-0.1236,0.214,2.815,49.737165,-123.098577,5.726,295.4537,140.841736,6,3
51:17.7,0.0164,-0.2343,-0.9854,0.1218,-0.0321,-0.0922,0.1064,-0.0064,0.3278,-0.1493,0.2125,2.8535,49.737165,-123.098577,5.726,293.0616,140.841736,6,3
51:17.8,0.1632,-0.1937,-0.9791,0.2925,0.0116,-0.009,-0.1447,-0.0094,0.4762,-0.1325,0.2068,2.9028,49.737165,-123.098577,5.726,290.4662,140.841736,6,3
51:17.9,0.0971,-0.1864,-0.881,0.226,0.023,0.0883,0.2279,0.2567,0.4387,-0.1321,0.2109,2.949,49.737165,-123.098577,5.726,287.8576,140.841736,6,3
51:18.0,0.109,-0.1874,-0.9329,0.2322,0.0175,0.0381,-0.0796,-0.0448,0.5091,-0.1262,0.2063,2.9978,49.737165,-123.098577,5.726,285.1967,140.841736,6,3
51:18.1,0.1212,-0.1982,-0.9957,0.2336,0.008,-0.0237,0.0987,0.1873,0.4811,-0.1151,0.2076,3.0478,49.737165,-123.098577,5.726,282.2993,140.841736,6,3
51:18.2,0.19,-0.2359,-0.9128,0.2802,-0.0299,0.0616,0.0196,0.2733,0.5231,-0.0923,0.2075,3.0974,49.737165,-123.098577,5.726,279.4454,140.841736,6,3
51:18.3,0.1021,-0.2222,-1.021,0.1967,-0.0262,-0.0449,-0.0486,0.0462,0.4336,-0.0966,0.1973,-3.1411,49.7372,-123.098592,5.6822,276.7099,140.944397,6,3
51:18.4,0.1784,-0.1894,-0.926,0.2654,0.0027,0.0515,-0.1073,0.0814,0.4274,-0.0887,0.1932,-3.0973,49.7372,-123.098592,5.6822,274.0915,140.944397,6,3
51:18.5,0.0873,-0.1643,-1.0053,0.1798,0.0215,-0.0271,0.0198,0.0348,0.3792,-0.0943,0.1868,-3.0574,49.7372,-123.098592,5.6822,271.6921,140.944397,6,3
51:18.6,0.1129,-0.1843,-1.0037,0.1994,0.0029,-0.0252,-0.0593,-0.0787,0.4813,-0.0881,0.1884,-3.0096,49.7372,-123.098592,5.6822,269.1674,140.944397,6,3
51:18.7,0.1956,-0.168,-0.8301,0.261,0.0238,0.1492,0.2151,0.4993,0.4491,-0.0666,0.193,-2.9629,49.7372,-123.098592,5.6822,266.406,140.944397,6,3
51:18.8,0.1027,-0.1582,-1.2473,0.2056,0.0144,-0.2677,-0.246,-0.6504,0.3682,-0.1047,0.1735,-2.9254,49.7372,-123.098592,5.6822,263.8868,140.944397,6,3
51:18.9,0.2549,-0.1628,-0.7671,0.331,0.0252,0.2121,0.3251,0.5577,0.4621,-0.0776,0.1891,-2.8808,49.7372,-123.098592,5.6822,261.0314,140.944397,6,3
51:19.0,0.0447,-0.1794,-1.1944,0.1662,-0.0084,-0.2166,-0.1266,-0.5492,0.5095,-0.1236,0.1719,-2.8321,49.7372,-123.098592,5.6822,258.1297,140.944397,6,3
51:19.1,0.2252,-0.1494,-0.8091,0.3205,0.0376,0.1686,0.2675,0.6222,0.3631,-0.0972,0.1882,-2.7947,49.7372,-123.098592,5.6822,256.0197,140.944397,6,3
51:19.2,0.1092,-0.151,-1.1258,0.2307,0.0211,-0.1482,-0.0935,-0.202,0.468,-0.1237,0.173,-2.7502,49.737242,-123.098619,5.3439,253.5344,141.790375,6,3
51:19.3,0.1726,-0.1484,-0.8537,0.2708,0.0367,0.1241,0.1873,0.4223,0.5054,-0.1001,0.1862,-2.699,49.737242,-123.098619,5.3439,250.7254,141.790375,6,3
51:19.4,0.1378,-0.1741,-1.0589,0.2458,0.0121,-0.0695,-0.0488,-0.0165,0.5744,-0.0987,0.1768,-2.646,49.737242,-123.098619,5.3439,247.5386,141.790375,6,3
51:19.5,0.2126,-0.1588,-1.0056,0.2942,0.0163,-0.0244,0.0058,0.2779,0.4729,-0.083,0.176,-2.5957,49.737242,-123.098619,5.3439,244.7226,141.790375,6,3
51:19.6,0.222,-0.1551,-1.0523,0.3085,0.016,-0.0708,0.0903,0.2368,0.398,-0.0879,0.1719,-2.5569,49.737242,-123.098619,5.3439,242.512,141.790375,6,3
51:19.7,0.1709,-0.1467,-0.958,0.2592,0.027,0.0228,0.1298,0.0601,0.4038,-0.0898,0.1746,-2.5151,49.737242,-123.098619,5.3439,240.1595,141.790375,6,3
51:19.8,0.212,-0.1093,-0.987,0.297,0.0643,-0.0058,0.039,0.0358,0.3856,-0.0864,0.1745,-2.4747,49.737242,-123.098619,5.3439,237.8815,141.790375,6,3
51:19.9,0.1571,-0.1314,-0.9714,0.2418,0.0463,0.0091,0.1393,0.3077,0.4527,-0.0862,0.1786,-2.4319,49.737242,-123.098619,5.3439,235.5867,141.790375,6,3
51:20.0,0.1957,-0.1348,-1.0887,0.285,0.0414,-0.1084,-0.0732,-0.2214,0.5021,-0.0909,0.1771,-2.3824,49.737242,-123.098619,5.3439,232.8062,141.790375,6,3
51:20.1,0.2765,-0.1127,-0.8881,0.3427,0.065,0.0937,0.104,0.5065,0.4908,-0.0674,0.1787,-2.3322,49.737242,-123.098619,5.3439,230.0243,141.790375,6,3
51:20.2,0.1074,-0.1427,-1.1118,0.2028,0.0264,-0.1308,-0.0049,-0.4248,0.5153,-0.0969,0.1699,-2.2825,49.737239,-123.098617,5.3439,227.2431,142.314346,6,3
51:20.3,0.2754,-0.1127,-0.9071,0.3448,0.0619,0.0751,0.1232,0.4614,0.5515,-0.0705,0.1755,-2.2305,49.737239,-123.098617,5.3439,224.4294,142.314346,6,3
51:20.4,0.2175,-0.1384,-1.0697,0.2892,0.0266,-0.086,-0.0189,0.024,0.5713,-0.0727,0.1657,-2.1739,49.737239,-123.098617,5.3439,221.301,142.314346,6,3
51:20.5,0.2858,-0.1342,-0.8475,0.335,0.0369,0.1365,0.1211,0.3829,0.5117,-0.05,0.1719,-2.1203,49.737239,-123.098617,5.3439,218.2894,142.314346,6,3
51:20.6,0.2646,-0.0666,-1.1172,0.3581,0.0949,-0.1347,-0.1468,-0.771,0.4233,-0.095,0.1622,-2.0756,49.737239,-123.098617,5.3439,215.6684,142.314346,6,3
51:20.7,0.2299,-0.1656,-0.9539,0.3252,0.0193,-0.0137,0.4233,0.2787,0.4868,-0.1046,0.1879,-2.0302,49.737239,-123.098617,5.3439,214.0611,142.314346,6,3
51:20.8,0.2449,-0.1573,-0.9496,0.3136,0.025,0.0442,0.0587,0.3468,0.8361,-0.0822,0.1894,-1.9521,49.737239,-123.098617,5.3439,209.155,142.314346,6,3
51:20.9,0.2136,-0.1756,-1.0789,0.2911,0.0088,-0.0991,0.011,0.1396,0.6294,-0.0789,0.1854,-1.8796,49.737239,-123.098617,5.3439,205.8376,142.314346,6,3
51:21.0,0.3029,-0.1477,-1.111,0.3778,0.0275,-0.1293,-0.0592,0.2468,0.3553,-0.0762,0.176,-1.8397,49.737239,-123.098617,5.3439,203.1911,142.314346,6,3
51:21.1,0.3251,-0.0631,-1.0274,0.3794,0.1142,-0.0448,0.0464,0.3216,0.4517,-0.0552,0.1782,-1.7939,49.737239,-123.098617,5.3439,200.381,142.314346,6,3
51:21.2,0.3215,-0.0925,-0.9497,0.3694,0.0989,0.0307,0.2545,0.4016,0.5748,-0.0489,0.1926,-1.7398,49.737239,-123.098617,5.3439,197.5218,142.314346,6,3
51:21.3,0.2081,-0.1441,-0.996,0.2624,0.0547,-0.0175,0.1188,-0.0991,0.6595,-0.0554,0.2002,-1.6735,49.737241,-123.098619,6.0862,194.0364,142.261673,6,3
51:21.4,0.307,-0.1746,-1.0066,0.3486,0.0239,-0.0274,0.0408,0.3564,0.6686,-0.0425,0.1998,-1.6066,49.737241,-123.098619,6.0862,190.3064,142.261673,6,3
51:21.5,0.2328,-0.1418,-1.0219,0.265,0.0555,-0.0421,-0.0232,0.0472,0.6002,-0.0328,0.1987,-1.5437,49.737241,-123.098619,6.0862,186.8772,142.261673,6,3
51:21.6,0.3158,-0.1531,-1.0158,0.3273,0.0313,-0.033,-0.0648,0.4036,0.6228,-0.0117,0.1855,-1.4823,49.737241,-123.098619,6.0862,183.5509,142.261673,6,3
51:21.7,0.4322,-0.0804,-0.8999,0.4105,0.0916,0.085,-0.1395,0.4921,0.6018,0.022,0.1729,-1.4241,49.737241,-123.098619,6.0862,180.3558,142.261673,6,3
51:21.8,0.3261,-0.1365,-1.0598,0.3226,0.0345,-0.0746,-0.006,-0.1725,0.5065,0.0035,0.1719,-1.3709,49.737241,-123.098619,6.0862,177.588,142.261673,6,3
51:21.9,0.3634,-0.1355,-0.8963,0.3456,0.0352,0.0889,0.0365,0.4702,0.6775,0.018,0.1715,-1.3067,49.737241,-123.098619,6.0862,174.1555,142.261673,6,3
51:22.0,0.3145,-0.1164,-1.0051,0.3004,0.0408,-0.0176,-0.1877,-0.1555,0.6924,0.0142,0.1579,-1.237,49.737241,-123.098619,6.0862,170.4071,142.261673,6,3
51:22.1,0.3623,-0.1043,-0.9139,0.3375,0.0602,0.0642,-0.0339,0.2959,0.6566,0.0333,0.1545,-1.1725,49.737241,-123.098619,6.0862,166.8116,142.261673,6,3
51:22.2,0.3822,-0.1261,-0.9991,0.3586,0.0256,-0.011,-0.0242,0.0091,0.568,0.0239,0.1523,-1.1174,49.737241,-123.098619,6.0862,163.8248,142.261673,6,3
51:22.3,0.4053,-0.1132,-0.9757,0.3839,0.0409,0.0122,0.0026,0.0318,0.5115,0.0217,0.1548,-1.0671,49.737242,-123.09862,6.0862,161.1395,141.719284,6,3
51:22.4,0.3967,-0.0975,-0.8891,0.3729,0.0605,0.098,0.0591,0.1548,0.5696,0.024,0.1588,-1.0109,49.737242,-123.09862,6.0862,158.1927,141.719284,6,3
51:22.5,0.2918,-0.1041,-1.0206,0.2974,0.0634,-0.0398,-0.0466,-0.3524,0.5155,-0.001,0.1613,-0.9601,49.737242,-123.09862,6.0862,155.3035,141.719284,6,3
51:22.6,0.3646,-0.1582,-0.9917,0.3532,0.0121,-0.0064,0.1071,0.3132,0.5926,0.0115,0.1711,-0.8986,49.737242,-123.09862,6.0862,152.2084,141.719284,6,3
51:22.7,0.3512,-0.1014,-0.9815,0.3413,0.0632,0.0048,-0.1139,0.021,0.5499,0.01,0.1653,-0.8419,49.737242,-123.09862,6.0862,149.2252,141.719284,6,3
51:22.8,0.3857,-0.0927,-0.9001,0.3732,0.0725,0.0803,0.0346,0.0241,0.5403,0.0116,0.1674,-0.7907,49.737242,-123.09862,6.0862,146.3135,141.719284,6,3
51:22.9,0.364,-0.0792,-1.0782,0.3825,0.0851,-0.092,-0.0411,-0.3709,0.4162,-0.0187,0.165,-0.7444,49.737242,-123.09862,6.0862,143.8991,141.719284,6,3
51:23.0,0.41,-0.1208,-1.0083,0.4415,0.0507,-0.0236,0.183,0.1817,0.5259,-0.032,0.1723,-0.6955,49.737242,-123.09862,6.0862,141.5281,141.719284,6,3
51:23.1,0.3085,-0.0771,-1.0502,0.36,0.1014,-0.0676,0.0484,-0.0663,0.5315,-0.0523,0.1794,-0.6402,49.737242,-123.09862,6.0862,138.5153,141.719284,6,3
51:23.2,0.3151,-0.0556,-1.0393,0.3742,0.128,-0.0581,0.0143,0.1383,0.497,-0.0602,0.1846,-0.5934,49.737242,-123.09862,6.0862,135.9143,141.719284,6,3
51:23.3,0.2593,-0.1497,-1.0747,0.3128,0.0483,-0.096,0.1614,0.2095,0.6712,-0.0546,0.1994,-0.527,49.737086,-123.098892,6.0862,132.4248,140.929489,11.5,3
51:23.4,0.4155,-0.1191,-0.8982,0.4316,0.0898,0.0796,0.1476,0.5256,0.6574,-0.0165,0.2105,-0.4546,49.737086,-123.098892,6.0862,129.016,140.929489,11.5,3
51:23.5,0.2965,-0.0862,-1.1323,0.3483,0.1187,-0.1549,0.04,-0.3434,0.4376,-0.053,0.2064,-0.4066,49.737086,-123.098892,6.0862,125.8308,140.929489,11.5,3
51:23.6,0.3839,-0.1418,-1.0486,0.4223,0.0731,-0.0727,0.1541,0.5346,0.587,-0.0393,0.2165,-0.3478,49.737086,-123.098892,6.0862,122.8689,140.929489,11.5,3
51:23.7,0.3591,-0.1189,-0.975,0.3918,0.0995,0.0003,0.043,0.1917,0.6295,-0.0335,0.2201,-0.2859,49.737086,-123.098892,6.0862,119.3644,140.929489,11.5,3
51:23.8,0.2709,-0.1379,-1.0833,0.3146,0.0843,-0.1093,0.0933,-0.2247,0.5149,-0.0448,0.2241,-0.2317,49.737086,-123.098892,6.0862,115.8771,140.929489,11.5,3
51:23.9,0.4518,-0.138,-0.9054,0.4676,0.0914,0.0678,0.1712,0.5612,0.5913,-0.0163,0.2315,-0.1712,49.737086,-123.098892,6.0862,112.8236,140.929489,11.5,3
51:24.0,0.3413,-0.1457,-1.0924,0.3734,0.078,-0.1183,-0.0211,0.032,0.6514,-0.0329,0.2255,-0.1082,49.737086,-123.098892,6.0862,109.1852,140.929489,11.5,3
51:24.1,0.4198,-0.1079,-0.9547,0.448,0.1208,0.0184,0.0121,0.1838,0.5324,-0.029,0.2308,-0.054,49.737086,-123.098892,6.0862,105.8603,140.929489,11.5,3
51:24.2,0.2815,-0.1134,-1.0315,0.3269,0.1147,-0.0589,0.011,0.057,0.565,-0.0467,0.2302,0.0007,49.737086,-123.098892,6.0862,102.8619,140.929489,11.5,3
51:24.3,0.3676,-0.1548,-0.9052,0.3951,0.0791,0.0667,-0.0072,0.379,0.6377,-0.0283,0.236,0.0625,49.737113,-123.098717,6.3337,99.4933,140.85051,4,3
51:24.4,0.3441,-0.1682,-1.0373,0.3794,0.0622,-0.0649,-0.0017,-0.1375,0.5291,-0.0363,0.2325,0.1189,49.737113,-123.098717,6.3337,96.0385,140.85051,4,3
51:24.5,0.4527,-0.141,-0.8976,0.4722,0.0901,0.0751,0.0463,0.4241,0.5674,-0.02,0.2332,0.1732,49.737113,-123.098717,6.3337,92.9499,140.85051,4,3
51:24.6,0.3104,-0.1539,-0.9271,0.3419,0.0724,0.0465,0.0078,-0.0153,0.5583,-0.0324,0.2282,0.2281,49.737113,-123.098717,6.3337,89.7831,140.85051,4,3
51:24.7,0.2736,-0.1903,-1.0138,0.3069,0.0658,-0.0377,0.0014,0.1078,0.6036,-0.0339,0.2281,0.283,49.737113,-123.098717,6.3337,86.633,140.85051,4,3
51:24.8,0.423,-0.1669,-0.9619,0.4341,0.0556,0.013,-0.0606,0.232,0.667,-0.0113,0.2244,0.352,49.737113,-123.098717,6.3337,82.9194,140.85051,4,3
51:24.9,0.4017,-0.124,-0.9793,0.4187,0.0923,-0.0032,0.0603,0.0852,0.4818,-0.0173,0.218,0.399,49.737113,-123.098717,6.3337,79.6856,140.85051,4,3
51:25.0,0.3541,-0.0894,-0.9642,0.3814,0.1229,0.0126,0.0038,-0.0357,0.4109,-0.0279,0.2139,0.4386,49.737113,-123.098717,6.3337,77.3812,140.85051,4,3
51:25.1,0.3412,-0.0971,-1.043,0.3849,0.1198,-0.0678,0.0955,-0.1509,0.4575,-0.0448,0.2187,0.4838,49.737113,-123.098717,6.3337,74.9198,140.85051,4,3
51:25.2,0.4222,-0.1232,-0.9194,0.4429,0.0859,0.0383,0.0506,0.4168,0.5417,-0.0374,0.22,0.5306,49.737113,-123.098717,6.3337,72.3238,140.85051,4,3
51:25.3,0.2637,-0.1663,-1.0299,0.3129,0.0506,-0.055,-0.0252,-0.1707,0.5535,-0.0504,0.2187,0.5903,49.737094,-123.098629,6.3337,69.101,140.842621,4,3
51:25.4,0.3074,-0.1414,-0.9759,0.346,0.0817,-0.0018,0.121,0.1848,0.5452,-0.0396,0.2249,0.647,49.737094,-123.098629,6.3337,65.8915,140.842621,4,3
51:25.5,0.358,-0.1397,-1.0167,0.3934,0.0827,-0.0424,0.0099,0.1941,0.5954,-0.0364,0.2242,0.7085,49.737094,-123.098629,6.3337,62.4556,140.842621,4,3
51:25.6,0.3292,-0.1556,-0.9678,0.3611,0.0691,0.0061,0.0622,0.3036,0.6043,-0.0328,0.2266,0.7683,49.737094,-123.098629,6.3337,59.0525,140.842621,4,3
51:25.7,0.3456,-0.1573,-0.95,0.384,0.0681,0.0419,0.107,0.2257,0.6425,-0.0255,0.2286,0.826,49.737094,-123.098629,6.3337,55.6461,140.842621,4,3
51:25.8,0.3062,-0.1825,-1.0155,0.3304,0.0532,-0.0305,0.0292,0.1624,0.5536,-0.0235,0.2285,0.8842,49.737094,-123.098629,6.3337,52.1515,140.842621,4,3
51:25.9,0.4205,-0.1586,-0.9293,0.4148,0.0597,0.0533,-0.0189,0.4461,0.6347,-0.0023,0.2263,0.9449,49.737094,-123.098629,6.3337,48.8465,140.842621,4,3
51:26.0,0.3403,-0.2185,-1.0017,0.3468,0.0036,-0.0267,-0.0178,0.0389,0.5703,-0.0067,0.224,1.0066,49.737094,-123.098629,6.3337,45.3317,140.842621,4,3
51:26.1,0.3676,-0.1712,-0.9869,0.3768,0.0493,-0.0115,-0.0337,-0.0309,0.4942,-0.0094,0.2223,1.0589,49.737094,-123.098629,6.3337,42.1802,140.842621,4,3
51:26.2,0.3966,-0.1835,-0.9306,0.4073,0.0384,0.0444,0.0462,0.1302,0.6005,-0.011,0.2237,1.1162,49.737094,-123.098629,6.3337,39.1642,140.842621,4,3
51:26.3,0.3192,-0.1918,-0.9602,0.3277,0.0289,0.0151,0.011,0.1566,0.6283,-0.0087,0.2226,1.1801,49.737096,-123.098531,6.4523,35.5319,140.841827,4,3
51:26.4,0.3456,-0.2305,-0.9586,0.3498,-0.0098,0.0167,0.0121,0.1869,0.5526,-0.0043,0.2226,1.2373,49.737096,-123.098531,6.4523,32.0922,140.841827,4,3
51:26.5,0.3787,-0.1709,-1.0001,0.3818,0.0476,-0.0242,0.0047,0.0903,0.516,-0.0032,0.2203,1.2881,49.737096,-123.098531,6.4523,29.0831,140.841827,4,3
51:26.6,0.4195,-0.142,-0.9586,0.4142,0.0777,0.017,-0.0092,0.2945,0.5359,0.0054,0.2215,1.3404,49.737096,-123.098531,6.4523,26.1328,140.841827,4,3
51:26.7,0.3854,-0.1682,-0.9599,0.3876,0.05,0.016,-0.0498,-0.0482,0.5508,-0.0022,0.22,1.3949,49.737096,-123.098531,6.4523,23.1115,140.841827,4,3
51:26.8,0.396,-0.2028,-0.9007,0.3961,0.0227,0.0735,0.1188,0.1715,0.6177,-0.0001,0.2275,1.453,49.737096,-123.098531,6.4523,19.88,140.841827,4,3
51:26.9,0.2761,-0.2662,-1.0114,0.2445,-0.047,-0.0772,-0.0446,-0.2967,0.6332,-0.0077,0.2299,1.515,49.737096,-123.098531,6.4523,16.2344,140.841827,4,3
51:27.0,0.3873,-0.1819,-0.9621,0.3776,0.0477,0.0111,0.0217,0.3348,0.5574,0.01,0.2316,1.5716,49.737096,-123.098531,6.4523,12.9779,140.841827,4,3
51:27.1,0.4107,-0.2337,-0.9609,0.386,0.0015,0.0108,0.09,0.5134,0.5783,0.0254,0.2374,1.628,49.737096,-123.098531,6.4523,9.7487,140.841827,4,3
51:27.2,0.4181,-0.1375,-0.9248,0.4024,0.0913,0.0485,-0.1147,-0.3693,0.3393,0.0162,0.2309,1.6718,49.737096,-123.098531,6.4523,6.8271,140.841827,4,3
51:27.3,0.3419,-0.1935,-1.045,0.3593,0.0377,-0.0723,0.0742,-0.2393,0.4689,-0.0178,0.2333,1.7149,49.737125,-123.09844,6.4523,4.6116,140.841751,4,3
51:27.4,0.3606,-0.2282,-0.9592,0.367,0.0169,0.0102,0.1561,0.2104,0.6915,-0.0065,0.2476,1.7821,49.737125,-123.09844,6.4523,1.2101,140.841751,4,3
51:27.5,0.3356,-0.1813,-0.9574,0.3389,0.0567,0.0138,-0.0605,0.2739,0.601,-0.0035,0.2403,1.8427,49.737125,-123.09844,6.4523,357.5651,140.841751,4,3
51:27.6,0.34,-0.2024,-1.0105,0.3623,0.0536,-0.0446,-0.0552,0.0314,0.5788,-0.0071,0.2397,1.8966,49.737125,-123.09844,6.4523,354.361,140.841751,4,3
51:27.7,0.4183,-0.1486,-0.8995,0.4226,0.0748,0.0993,-0.0701,0.2424,0.5379,0.0055,0.2355,1.9532,49.737125,-123.09844,6.4523,350.9023,140.841751,4,3
51:27.8,0.381,-0.1089,-0.9921,0.3921,0.0991,-0.0016,-0.1159,-0.1265,0.4779,-0.0185,0.2216,1.9995,49.737125,-123.09844,6.4523,348.1434,140.841751,4,3
51:27.9,0.2703,-0.1929,-0.9867,0.3012,0.0335,-0.0132,0.1306,0.0311,0.613,-0.0317,0.2283,2.0592,49.737125,-123.09844,6.4523,345.1964,140.841751,4,3
51:27.9,0.3225,-0.1412,-0.9729,0.357,0.0795,0.0018,-0.0509,0.087,0.5395,-0.0354,0.2225,2.1158,49.737125,-123.09844,6.4523,341.7561,140.841751,4,3
51:28.0,0.3312,-0.1507,-0.9539,0.3665,0.0655,0.0218,-0.0061,0.1547,0.5995,-0.0362,0.218,2.1752,49.737125,-123.09844,6.4523,338.5631,140.841751,4,3
51:28.1,0.2299,-0.1957,-0.9553,0.2798,0.0181,0.0203,0.0141,-0.1138,0.6498,-0.0511,0.2155,2.2426,49.737125,-123.09844,6.4523,333.7269,140.841751,4,3
51:28.2,0.2397,-0.155,-0.9435,0.2852,0.0542,0.0333,-0.051,0.1193,0.6378,-0.0466,0.2108,2.308,49.737048,-123.09867,5.4785,329.9122,140.841736,4,3
51:28.3,0.1939,-0.2366,-0.9599,0.2386,-0.0262,0.0167,0.0824,0.1551,0.6849,-0.0457,0.2119,2.3761,49.737048,-123.09867,5.4785,326.0869,140.841736,4,3
51:28.4,0.2812,-0.2099,-0.872,0.3096,-0.0162,0.1086,-0.1321,0.2493,0.6223,-0.029,0.1949,2.4382,49.737048,-123.09867,5.4785,323.2155,140.841736,4,3
51:28.5,0.2127,-0.1952,-1.045,0.2701,-0.014,-0.0633,-0.0688,-0.2526,0.3984,-0.0584,0.1822,2.4799,49.737048,-123.09867,5.4785,320.3485,140.841736,4,3
51:28.6,0.2796,-0.127,-0.8638,0.3134,0.0524,0.1194,0.0986,0.4261,0.5866,-0.0344,0.1804,2.535,49.737048,-123.09867,5.4785,317.7053,140.841736,4,3
51:28.7,0.2151,-0.1976,-0.992,0.2562,-0.0111,-0.0104,0.1306,-0.0296,0.6117,-0.0419,0.1876,2.5969,49.737048,-123.09867,5.4785,314.0872,140.841736,4,3
51:28.8,0.2832,-0.1968,-0.8892,0.3086,-0.0066,0.0922,0.1158,0.3938,0.4754,-0.0259,0.1914,2.6454,49.737048,-123.09867,5.4785,311.0464,140.841736,4,3
51:28.9,0.2697,-0.2027,-1.035,0.3133,-0.0156,-0.0537,-0.006,-0.2577,0.5201,-0.0443,0.1883,2.6947,49.737048,-123.09867,5.4785,308.2285,140.841736,4,3
51:29.0,0.2391,-0.2066,-0.9054,0.2844,-0.0161,0.0752,0.1105,0.1928,0.4502,-0.0462,0.1916,2.74,49.737048,-123.09867,5.4785,305.5144,140.841736,4,3
51:29.1,0.1713,-0.1899,-1.0381,0.2385,-0.0058,-0.0575,-0.0581,-0.3033,0.3342,-0.0685,0.1852,2.7768,49.737048,-123.09867,5.4785,303.0938,140.841736,4,3
51:29.2,0.2239,-0.1489,-0.9371,0.283,0.0369,0.0437,0.0891,0.2685,0.4334,-0.0602,0.187,2.818,49.737168,-123.098564,4.7993,300.8452,140.841736,10.5,3
51:29.3,0.2209,-0.1366,-0.9664,0.284,0.0388,0.0161,-0.0838,0.0177,0.3919,-0.0642,0.1763,2.8569,49.737168,-123.098564,4.7993,298.4642,140.841736,10.5,3
51:29.4,0.2256,-0.1173,-0.951,0.289,0.0573,0.0316,0.0742,-0.0861,0.4695,-0.0644,0.1755,2.9031,49.737168,-123.098564,4.7993,295.9204,140.841736,10.5,3
51:29.5,0.1871,-0.1752,-0.9419,0.2491,0.006,0.0396,0.1605,0.1759,0.5996,-0.0631,0.1821,2.9606,49.737168,-123.098564,4.7993,292.8315,140.841736,10.5,3
51:29.6,0.1675,-0.1762,-1.0642,0.2468,0.0032,-0.0533,-0.0691,0.0132,0.5883,-0.0633,0.1793,3.0148,49.737168,-123.098564,4.7993,289.3668,140.841736,10.5,3
51:29.7,0.2999,-0.1336,-0.9013,0.3367,0.0429,0.0823,0.043,0.4868,0.5836,-0.0374,0.1775,3.0732,49.737168,-123.098564,4.7993,286.1226,140.841736,10.5,3
51:29.8,0.1602,-0.1252,-1.0951,0.22,0.0423,-0.111,-0.0218,-0.2878,0.394,-0.0607,0.1683,3.1154,49.737168,-123.098564,4.7993,283.127,140.841736,10.5,3
51:29.9,0.2447,-0.1323,-0.9661,0.2873,0.0434,0.0174,0.198,0.3106,0.5082,-0.0433,0.1766,-3.1167,49.737168,-123.098564,4.7993,280.5168,140.841736,10.5,3
51:30.0,0.2283,-0.1485,-0.9159,0.2537,0.0309,0.0675,0.1029,0.4487,0.545,-0.0258,0.1804,-3.0631,49.737168,-123.098564,4.7993,277.4417,140.841736,10.5,3
51:30.1,0.214,-0.1428,-1.0984,0.247,0.0379,-0.1154,0.0015,-0.2575,0.4849,-0.0335,0.1817,-3.0127,49.737168,-123.098564,4.7993,274.2917,140.841736,10.5,3
51:30.2,0.3119,-0.145,-0.8335,0.3117,0.0401,0.1492,0.0974,0.7568,0.6294,0.0002,0.1862,-2.954,49.737164,-123.098577,4.7993,271.2638,140.841736,4,3
51:30.3,0.2094,-0.155,-1.1546,0.2693,0.0402,-0.1165,-0.0349,-0.3411,0.586,-0.0223,0.183,-2.8999,49.737164,-123.098577,4.7993,267.7295,140.841736,4,3
51:30.4,0.3513,-0.1235,-0.8921,0.3483,0.0723,0.0885,0.2204,0.6958,0.5107,0.003,0.197,-2.8491,49.737164,-123.098577,4.7993,264.8389,140.841736,4,3
51:30.5,0.2218,-0.1679,-1.0955,0.2354,0.0232,-0.114,-0.0156,-0.1066,0.5175,-0.0139,0.1923,-2.7987,49.737164,-123.098577,4.7993,261.9806,140.841736,4,3
51:30.6,0.2785,-0.1571,-0.8812,0.268,0.0484,0.0974,0.2171,0.5249,0.6019,0.0107,0.207,-2.7429,49.737164,-123.098577,4.7993,258.9427,140.841736,4,3
51:30.7,0.2347,-0.1828,-1.0017,0.2261,0.0218,-0.0229,-0.0359,0.0093,0.5413,0.0088,0.2061,-2.6867,49.737164,-123.098577,4.7993,255.6466,140.841736,4,3
51:30.8,0.2996,-0.1747,-0.9996,0.2895,0.0335,-0.0216,0.0635,0.0228,0.4175,0.0103,0.2097,-2.6385,49.737164,-123.098577,4.7993,252.5275,140.841736,4,3
51:30.9,0.261,-0.1606,-1.051,0.2626,0.0479,-0.073,-0.0336,-0.1847,0.4254,-0.0017,0.2101,-2.5939,49.737164,-123.098577,4.7993,249.9785,140.841736,4,3
51:31.0,0.3779,-0.1393,-0.8814,0.358,0.065,0.0973,-0.0605,0.5133,0.6018,0.0204,0.2058,-2.5386,49.737164,-123.098577,4.7993,247.3202,140.841736,4,3
51:31.1,0.2579,-0.1493,-1.0521,0.2531,0.0338,-0.069,-0.2292,-0.1643,0.5781,0.0049,0.1841,-2.4808,49.737164,-123.098577,4.7993,244.0324,140.841736,4,3
51:31.2,0.4117,-0.1149,-0.9668,0.3792,0.0604,0.0171,-0.0051,0.5778,0.6725,0.033,0.1763,-2.4157,49.737207,-123.098595,5.0545,240.5778,141.129868,4,3
51:31.3,0.2722,-0.1342,-1.0386,0.2479,0.0271,-0.052,-0.0916,0.1444,0.7094,0.0246,0.1621,-2.3537,49.737207,-123.098595,5.0545,236.9056,141.129868,4,3
51:31.4,0.3602,-0.0844,-1.0075,0.3193,0.0723,-0.0207,-0.083,0.2215,0.6425,0.0414,0.1573,-2.29,49.737207,-123.098595,5.0545,233.3775,141.129868,4,3
51:31.5,0.2979,-0.127,-0.9936,0.2591,0.0326,-0.0072,0.0932,0.1535,0.6059,0.0393,0.1603,-2.2278,49.737207,-123.098595,5.0545,229.81,141.129868,4,3
51:31.6,0.3511,-0.0816,-0.937,0.2886,0.0792,0.048,-0.0233,0.3134,0.7389,0.0634,0.1615,-2.1523,49.737207,-123.098595,5.0545,224.9602,141.129868,4,3
51:31.7,0.3959,-0.1035,-0.8823,0.3228,0.0534,0.1026,-0.0626,0.3273,0.5692,0.0741,0.1575,-2.0935,49.737207,-123.098595,5.0545,222.1034,141.129868,4,3
51:31.8,0.3381,-0.0361,-1.0747,0.3081,0.1076,-0.0855,-0.1797,-0.6858,0.2506,0.0303,0.1443,-2.0625,49.737207,-123.098595,5.0545,219.4082,141.129868,4,3
51:31.9,0.3332,-0.0737,-0.9109,0.2956,0.0829,0.076,0.2277,0.4192,0.6592,0.038,0.1573,-2.0048,49.737207,-123.098595,5.0545,216.6329,141.129868,4,3
51:32.0,0.3165,-0.0991,-0.9478,0.2674,0.0588,0.0385,-0.064,0.2438,0.8091,0.0497,0.1585,-1.9268,49.737207,-123.098595,5.0545,213.5066,141.129868,4,3
51:32.1,0.3376,-0.1018,-1.0155,0.2855,0.0652,-0.0309,0.105,-0.006,0.5925,0.0528,0.1677,-1.8635,49.737207,-123.098595,5.0545,209.3838,141.129868,4,3
51:32.2,0.3829,-0.1098,-0.9548,0.3288,0.064,0.0285,0.0036,0.0786,0.5192,0.0549,0.1747,-1.8107,49.737242,-123.098619,6.2219,206.3551,141.416901,6,3
51:32.3,0.4133,-0.0575,-0.9594,0.3756,0.1205,0.0239,0.0057,-0.1589,0.5472,0.0383,0.1789,-1.758,49.737242,-123.098619,6.2219,203.4469,141.416901,6,3
51:32.4,0.2933,-0.1105,-0.918,0.2616,0.0781,0.0635,0.1263,0.1484,0.5781,0.0323,0.1897,-1.7026,49.737242,-123.098619,6.2219,200.6733,141.416901,6,3
51:32.5,0.3163,-0.1643,-1.0151,0.2784,0.0312,-0.0351,0.0483,0.2532,0.6639,0.0386,0.1968,-1.6368,49.737242,-123.098619,6.2219,197.1949,141.416901,6,3
51:32.6,0.3448,-0.1321,-0.9616,0.2857,0.0623,0.0175,-0.0424,0.2378,0.5913,0.0603,0.1956,-1.5716,49.737242,-123.098619,6.2219,193.3652,141.416901,6,3
51:32.7,0.3844,-0.1374,-1.042,0.3199,0.0526,-0.0624,-0.0424,0.2813,0.6128,0.0658,0.1911,-1.5108,49.737242,-123.098619,6.2219,190.1197,141.416901,6,3
51:32.8,0.4768,-0.0948,-0.8656,0.3957,0.0877,0.1143,-0.146,0.3271,0.6087,0.0826,0.1835,-1.449,49.737242,-123.098619,6.2219,186.784,141.416901,6,3
51:32.9,0.4028,-0.0828,-1.0354,0.3489,0.0911,-0.0522,-0.1319,-0.3541,0.4547,0.0547,0.1748,-1.4008,49.737242,-123.098619,6.2219,183.7547,141.416901,6,3
51:33.0,0.4153,-0.1115,-0.9237,0.3535,0.0739,0.057,0.1669,0.354,0.5426,0.0629,0.1865,-1.3496,49.737242,-123.098619,6.2219,181.2796,141.416901,6,3
51:33.1,0.3446,-0.106,-1.0146,0.2884,0.0817,-0.034,-0.0809,-0.2098,0.6901,0.0573,0.1889,-1.2837,49.737242,-123.098619,6.2219,177.9989,141.416901,6,3
51:33.2,0.4165,-0.113,-0.8589,0.3336,0.0825,0.1182,0.0568,0.4544,0.6593,0.0847,0.1968,-1.2176,49.737241,-123.098619,6.2129,174.3098,141.358566,11.2,3
51:33.3,0.4587,-0.1058,-1.0145,0.3847,0.0847,-0.0356,-0.0882,-0.0811,0.5272,0.0755,0.1917,-1.1625,49.737241,-123.098619,6.2129,171.0416,141.358566,11.2,3
51:33.4,0.4961,-0.066,-0.9425,0.4311,0.1251,0.0414,-0.0445,0.0833,0.611,0.0721,0.1895,-1.1075,49.737241,-123.098619,6.2129,168.1279,141.358566,11.2,3
51:33.5,0.4656,-0.0878,-0.8813,0.4048,0.0946,0.0703,0.0067,0.0736,0.6238,0.0607,0.1929,-1.0455,49.737241,-123.098619,6.2129,164.8166,141.358566,11.2,3
51:33.6,0.3627,-0.1072,-0.962,0.3241,0.0917,0.0173,0.0281,-0.2389,0.5704,0.0394,0.2002,-0.9804,49.737241,-123.098619,6.2129,161.2623,141.358566,11.2,3
51:33.7,0.4007,-0.1207,-0.9841,0.3635,0.0802,-0.0052,-0.0476,0.2051,0.5378,0.038,0.2022,-0.9279,49.737241,-123.098619,6.2129,158.3991,141.358566,11.2,3
51:33.8,0.4048,-0.1178,-0.9767,0.3623,0.0795,0.0027,-0.0564,0.2638,0.6778,0.0434,0.1985,-0.8618,49.737241,-123.098619,6.2129,155.1201,141.358566,11.2,3
51:33.9,0.4263,-0.1326,-0.8866,0.3752,0.0666,0.092,-0.0168,0.1565,0.6476,0.0522,0.2006,-0.7953,49.737241,-123.098619,6.2129,151.2031,141.358566,11.2,3
51:34.0,0.466,-0.1139,-0.9984,0.4222,0.0832,-0.019,-0.0306,-0.0856,0.5698,0.0447,0.1984,-0.7392,49.737241,-123.098619,6.2129,147.7124,141.358566,11.2,3
51:34.1,0.4664,-0.1255,-0.9912,0.4327,0.0749,-0.012,0.0388,0.1506,0.5675,0.0345,0.2018,-0.6856,49.737241,-123.098619,6.2129,144.7442,141.358566,11.2,3
51:34.2,0.4493,-0.1137,-0.9877,0.4254,0.0882,-0.0086,0.0067,-0.054,0.6137,0.0244,0.2033,-0.6257,49.737185,-123.098923,6.2129,141.4132,140.893417,12.7,3
51:34.3,0.3609,-0.1136,-1.0091,0.3498,0.0934,-0.0308,0.0292,0.0039,0.552,0.0114,0.2085,-0.57,49.737185,-123.098923,6.2129,138.0975,140.893417,12.7,3
51:34.4,0.3996,-0.1439,-0.9852,0.3774,0.0709,-0.0088,0.0536,0.2701,0.6907,0.0228,0.2165,-0.5034,49.737185,-123.098923,6.2129,134.6764,140.893417,12.7,3
51:34.5,0.4828,-0.1711,-0.9293,0.4329,0.0501,0.0446,0.0545,0.6132,0.788,0.0512,0.223,-0.4265,49.737185,-123.098923,6.2129,129.3265,140.893417,12.7,3
51:34.6,0.4921,-0.1359,-0.957,0.4553,0.0772,0.0193,-0.1224,-0.1611,0.5642,0.0376,0.2148,-0.3667,49.737185,-123.098923,6.2129,126.498,140.893417,12.7,3
51:34.7,0.4716,-0.1762,-1.0453,0.4597,0.037,-0.0683,0.0548,-0.1378,0.5611,0.0122,0.2149,-0.312,49.737185,-123.098923,6.2129,123.4691,140.893417,12.7,3
51:34.8,0.4667,-0.1192,-0.9394,0.4559,0.0956,0.0372,0.0367,0.084,0.5021,0.011,0.2165,-0.2578,49.737185,-123.098923,6.2129,120.2193,140.893417,12.7,3
51:34.9,0.4383,-0.0927,-0.9971,0.4352,0.1231,-0.0207,0.0303,0.1869,0.5473,0.0032,0.2176,-0.2013,49.737185,-123.098923,6.2129,117.0564,140.893417,12.7,3
51:35.0,0.4811,-0.1513,-0.9438,0.4849,0.0729,0.0307,0.123,0.2076,0.6424,-0.0038,0.2261,-0.141,49.737185,-123.098923,6.2129,113.8195,140.893417,12.7,3
51:35.1,0.4497,-0.0858,-1.0429,0.4707,0.1352,-0.0679,-0.0434,-0.2407,0.5309,-0.0215,0.2229,-0.0882,49.737185,-123.098923,6.2129,110.5975,140.893417,12.7,3
51:35.2,0.4654,-0.1367,-0.9453,0.4837,0.0875,0.0291,0.0729,0.5163,0.6296,-0.0188,0.2261,-0.029,49.737069,-123.098877,6.2129,107.4705,140.846909,13,3
51:35.3,0.4038,-0.1314,-1.0038,0.4409,0.0867,-0.0286,-0.0712,-0.2456,0.6269,-0.038,0.2199,0.0361,49.737069,-123.098877,6.2129,103.948,140.846909,13,3
51:35.4,0.4506,-0.1463,-0.9092,0.4718,0.0796,0.0647,0.1379,0.4453,0.734,-0.0218,0.2279,0.1098,49.737069,-123.098877,6.2129,98.8541,140.846909,13,3
51:35.5,0.4712,-0.1643,-0.9844,0.4882,0.0544,-0.0087,-0.1374,0.1279,0.6315,-0.0174,0.2205,0.1739,49.737069,-123.098877,6.2129,95.8172,140.846909,13,3
51:35.6,0.4545,-0.1199,-0.9367,0.4788,0.084,0.042,-0.1415,0.0353,0.471,-0.0249,0.2053,0.2235,49.737069,-123.098877,6.2129,92.7224,140.846909,13,3
51:35.7,0.4473,-0.1263,-0.8864,0.479,0.0721,0.0932,0.0314,-0.046,0.5315,-0.0324,0.1997,0.2782,49.737069,-123.098877,6.2129,89.8356,140.846909,13,3
51:35.8,0.3204,-0.1737,-1.0024,0.3642,0.0289,-0.0241,0.0558,-0.1965,0.5972,-0.0447,0.2041,0.3399,49.737069,-123.098877,6.2129,86.4809,140.846909,13,3
51:35.9,0.4899,-0.1443,-0.8809,0.5,0.0528,0.0994,-0.1045,0.6297,0.7197,-0.0103,0.1985,0.4097,49.737069,-123.098877,6.2129,81.6506,140.846909,13,3
51:36.0,0.3436,-0.1185,-1.0106,0.3687,0.0652,-0.0279,-0.1683,0.005,0.5552,-0.0255,0.1847,0.4661,49.737069,-123.098877,6.2129,78.3064,140.846909,13,3
51:36.1,0.4031,-0.1427,-0.9398,0.425,0.042,0.0428,-0.0039,0.1697,0.5846,-0.0223,0.1857,0.5215,49.737069,-123.098877,6.2129,75.1147,140.846909,13,3
51:36.2,0.3793,-0.111,-0.9593,0.4022,0.071,0.0237,-0.0262,0.0032,0.4997,-0.0232,0.183,0.5763,49.73704,-123.098738,5.3751,71.9757,140.842255,6,3
51:36.3,0.4172,-0.1576,-0.8949,0.4239,0.0278,0.0877,0.1028,0.5995,0.6,-0.0068,0.1865,0.6321,49.73704,-123.098738,5.3751,68.8776,140.842255,6,3
51:36.4,0.3965,-0.1152,-0.9873,0.4073,0.0631,-0.0034,-0.0764,-0.1746,0.5151,-0.0109,0.1793,0.687,49.73704,-123.098738,5.3751,65.5894,140.842255,6,3
51:36.5,0.3738,-0.1371,-1.0191,0.3942,0.0443,-0.0359,0.0998,-0.0393,0.4782,-0.0208,0.1823,0.7357,49.73704,-123.098738,5.3751,62.8062,140.842255,6,3
51:36.6,0.4685,-0.1086,-0.9645,0.4829,0.0697,0.0194,-0.0412,0.1477,0.528,-0.0146,0.1792,0.7898,49.73704,-123.098738,5.3751,59.7669,140.842255,6,3
51:36.7,0.3681,-0.1282,-0.9566,0.3756,0.0498,0.0088,0.12,0.1988,0.5217,-0.0156,0.1823,0.841,49.73704,-123.098738,5.3751,56.694,140.842255,6,3
51:36.8,0.3783,-0.134,-0.9215,0.395,0.0587,0.0539,-0.0124,0.1892,0.5324,-0.0087,0.1841,0.8957,49.73704,-123.098738,5.3751,53.5966,140.842255,6,3
51:36.9,0.3836,-0.1348,-1.0025,0.3879,0.0514,-0.02,0.0601,0.2218,0.5837,-0.0044,0.1873,0.9539,49.73704,-123.098738,5.3751,50.4292,140.842255,6,3
51:37.0,0.4348,-0.1516,-0.9483,0.4038,0.0394,0.0394,0.1039,0.3771,0.5885,0.0119,0.1927,1.0115,49.73704,-123.098738,5.3751,48.8226,140.842255,6,3
51:37.1,0.397,-0.149,-0.9736,0.3864,0.0407,0.0082,-0.0124,0.1593,0.5493,0.0108,0.191,1.0669,49.73704,-123.098738,5.3751,43.988,140.842255,6,3
