Timestamp,accelX(g),accelY(g),accelZ(g),accelUserX(g),accelUserY(g),accelUserZ(g),gyroX(rad/s),gyroY(rad/s),gyroZ(rad/s),Roll(rads),Pitch(rads),Yaw(rads),Lat,Long,Speed(m/s),TrueHeading,Alt(m), HorizontalAccuracy(m), VerticalAccuracy(m),ActivityType,ActivityConfidence,Pressure(kilopascals),RelativeAltitude(meters),magX(µT),magY(µT),magZ(µT),calMagX,calMagY,calMagZ
06-Feb-2019 10:35:59.835, 0.0107,-0.2705,-0.9197,-0.1181,-0.0398, 0.0225,-0.3894,-0.7736,-0.2462, 0.1074, 0.2349,-1.3772,50.104394,-122.940364, 0.0499, 141.3597, 843.170166, 6.0, 3.0,Walking,High, 92.3366,-0.6157,-78.5401,-111.5601,-548.0009, 0.0000, 0.0000, 0.0000
06-Feb-2019 10:35:59.910,-0.1848,-0.2069,-0.8351,-0.2274, 0.0088, 0.0831,-1.1834,-0.4172,-0.0876, 0.0551, 0.2074,-1.3844,50.104394,-122.940364, 0.0499, 141.3597, 843.170166, 6.0, 3.0,Walking,High, 92.3366,-0.6157,-80.6429,-111.0500,-547.6118, 0.0000, 0.0000, 0.0000
06-Feb-2019 10:36:00.011,-0.1059,-0.1815,-0.9620,-0.0669,-0.0280, 0.0254,-0.1856, 0.7398, 1.3405,-0.0395, 0.1541,-1.3646,50.104394,-122.940364, 0.0499, 142.4063, 843.170166, 6.0, 3.0,Walking,High, 92.3366,-0.6157,-83.5804,-108.9701,-546.6102, 0.0000, 0.0000, 0.0000
06-Feb-2019 10:36:00.109,-0.0728,-0.2431,-0.8598,-0.0530,-0.1373, 0.0630, 0.6503,-1.3078, 0.8606,-0.0239, 0.1440,-1.2562,50.104394,-122.940364, 0.0499, 135.8195, 843.170166, 6.0, 3.0,Walking,High, 92.3366,-0.6157,-84.6557,-105.6803,-547.7128, 0.0000, 0.0000, 0.0000
06-Feb-2019 10:36:00.208,-0.2868,-0.2736,-0.7950,-0.0704,-0.0752, 0.1398, 0.5825,-1.8928, 0.3319,-0.1976, 0.2104,-1.1741,50.104395,-122.940368, 0.1159, 130.1513, 843.238403, 6.0, 3.0,Walking,High, 92.3366,-0.6157,-90.1214,-105.7879,-543.4833, 0.0000, 0.0000, 0.0000
06-Feb-2019 10:36:00.307,-0.3541,-0.2256,-0.8336,-0.0665, 0.0022, 0.1007, 0.4589,-0.8843, 0.0859,-0.3195, 0.2309,-1.1381,50.104395,-122.940368, 0.1159, 128.7553, 843.238403, 6.0, 3.0,Walking,High, 92.3366,-0.6157,-95.4379,-105.6684,-538.8035, 0.0000, 0.0000, 0.0000
06-Feb-2019 10:36:00.407,-0.3721,-0.2208,-0.8709,-0.0985, 0.0595, 0.0106, 0.5853, 1.0716,-0.1486,-0.3236, 0.3019,-1.1119,50.104395,-122.940368, 0.1159, 127.4905, 843.238403, 6.0, 3.0,Walking,High, 92.3366,-0.6157,-96.1751,-106.9450,-536.8558, 0.0000, 0.0000, 0.0000
06-Feb-2019 10:36:00.506,-0.3552,-0.2926,-0.8600,-0.0711, 0.0787, 0.0209, 1.0113,-0.0024,-0.0429,-0.3164, 0.3848,-1.1020,50.104395,-122.940368, 0.1159, 126.4897, 843.238403, 6.0, 3.0,Walking,High, 92.3366,-0.6157,-94.5793,-109.8577,-536.6541, 0.0000, 0.0000, 0.0000
06-Feb-2019 10:36:00.605,-0.2758,-0.3217,-0.7755,-0.0512, 0.0232, 0.0377, 0.6227, 0.3371,-0.6557,-0.2503, 0.4681,-1.1165,50.104395,-122.940368, 0.1159, 126.4897, 843.238403, 6.0, 3.0,Walking,High, 92.3366,-0.6157,-92.9893,-112.1720,-537.2745, 0.0000, 0.0000, 0.0000
06-Feb-2019 10:36:00.704,-0.1913,-0.4293,-0.9715, 0.0361, 0.1852,-0.0178, 0.0033, 0.6515, 0.5573,-0.2120, 0.5002,-1.1452,50.104395,-122.940368, 0.1159, 129.2711, 843.238403, 6.0, 3.0,Walking,High, 92.3366,-0.6157,-90.7185,-115.2305,-537.5272, 0.0000, 0.0000, 0.0000
06-Feb-2019 10:36:00.804,-0.2808,-0.5309,-0.9358,-0.0455, 0.0157,-0.0757, 0.8865, 0.0179, 0.5861,-0.2516, 0.5438,-1.0599,50.104395,-122.940368, 0.1159, 125.2627, 843.238403, 6.0, 3.0,Walking,High, 92.3366,-0.6157,-91.2492,-114.2584,-536.9945, 0.0000, 0.0000, 0.0000
06-Feb-2019 10:36:00.903,-0.1541,-0.5844,-0.6847, 0.0015,-0.0311, 0.0580, 0.0075, 0.9623,-0.0281,-0.1997, 0.5793,-1.0326,50.104395,-122.940368, 0.1159, 122.8005, 843.238403, 6.0, 3.0,Walking,High, 92.3366,-0.6157,-90.8673,-115.1549,-536.7010, 0.0000, 0.0000, 0.0000
06-Feb-2019 10:36:01.002,-0.1650,-0.5603,-0.9031,-0.0706,-0.0186,-0.0379,-0.3230, 0.8483, 0.4175,-0.1075, 0.5443,-1.0081,50.104395,-122.940368, 0.1159, 121.6787, 843.238403, 6.0, 3.0,Walking,High, 92.3366,-0.6157,-88.7798,-114.2454,-539.7830, 0.0000, 0.0000, 0.0000
06-Feb-2019 10:36:01.101,-0.2088,-0.5882,-0.7581,-0.1908,-0.0916, 0.0394,-0.3411, 0.2504,-0.4231,-0.0625, 0.5288,-0.9863,50.104395,-122.940368, 0.1159, 119.3720, 843.238403, 6.0, 3.0,Walking,High, 92.3366,-0.6157,-87.2934,-113.0394,-542.3351, 0.0000, 0.0000, 0.0000
06-Feb-2019 10:36:01.200,-0.2977,-0.5054,-0.7895,-0.3041, 0.0206, 0.1006,-0.2255, 0.3739,-0.3083,-0.0720, 0.5217,-1.0057,50.104395,-122.940367, 0.2231, 120.4151, 843.186401, 6.0, 3.0,Walking,High, 92.3366,-0.6157,-87.2172,-113.1887,-542.2614, 0.0000, 0.0000, 0.0000
06-Feb-2019 10:36:01.300, 0.0031,-0.8545,-0.8348,-0.0076,-0.2857, 0.0601,-1.7461, 1.1130, 0.5270,-0.0966, 0.4884,-1.0183,50.104395,-122.940367, 0.2231, 121.4528, 843.186401, 6.0, 3.0,Walking,High, 92.3366,-0.6157,-87.9726,-112.3690,-542.1030, 0.0000, 0.0000, 0.0000
06-Feb-2019 10:36:01.401,-0.2527,-0.3604,-0.8540,-0.0840, 0.0156, 0.0757, 0.1775,-1.7019, 0.4101,-0.1544, 0.3894,-0.9652,50.104395,-122.940367, 0.2231, 118.9590, 843.186401, 6.0, 3.0,Walking,High, 92.3366,-0.6157,-88.5344,-107.7275,-544.2518, 0.0000, 0.0000, 0.0000
06-Feb-2019 10:36:02.461, 0.1722,-1.5158,-0.3666,-0.3283,-0.0782,-0.2846, 8.1681,-0.9374, 0.6250, 1.5982, 0.7286,-2.4459,50.104395,-122.940367, 0.2231, 117.6874, 843.186401, 6.0, 3.0,Walking,High, 92.3366,-0.6157,-94.3191,-122.1314,-524.4919, 0.0000, 0.0000, 0.0000
06-Feb-2019 10:36:02.475, 0.1722,-1.5158,-0.3666,-0.3283,-0.0782,-0.2846, 3.6943, 3.7370,-8.2416, 1.5982, 0.7286,-2.4459,50.104395,-122.940367, 0.2231, 127.5241, 843.186401, 6.0, 3.0,Walking,High, 92.3366,-0.6157,-48.0634,-136.3030,-508.7672, 0.0000, 0.0000, 0.0000
06-Feb-2019 10:36:02.520, 0.8306,-0.7725,-0.2069,-0.2947,-0.0771,-0.5570,-0.6652, 0.3594,-0.8464, 1.7960, 0.5245,-2.4755,50.104395,-122.940367, 0.2231, 111.7731, 843.186401, 6.0, 3.0,Walking,High, 92.3366,-0.6157,-40.8037,-132.4116,-502.7876, 0.0000, 0.0000, 0.0000
06-Feb-2019 10:36:02.580, 0.8306,-0.7725,-0.2069, 0.0166, 0.2992, 0.4036,-0.6652, 0.3594,-0.8464, 1.8308, 0.5879,-2.4467,50.104394,-122.940367, 0.0888, 197.4247, 843.193237, 6.0, 3.0,Walking,High, 92.3366,-0.6157,-43.1921,-134.3818,-503.9094, 0.0000, 0.0000, 0.0000
06-Feb-2019 10:36:02.609, 0.7231,-0.1246, 0.4617,-0.1601, 0.4223, 0.0284,-0.0575,-0.7762, 0.1965, 1.8090, 0.5981,-2.4459,50.104394,-122.940367, 0.0888, 206.5098, 843.193237, 6.0, 3.0,Walking,High, 92.3366,-0.6157,-43.3423,-134.6851,-505.0351, 0.0000, 0.0000, 0.0000
06-Feb-2019 10:36:02.651, 0.7231,-0.1246, 0.4617,-0.1523, 0.4999, 0.2317,-0.0575,-0.7762, 0.1965, 1.7868, 0.6231,-2.4480,50.104394,-122.940367, 0.0888, 209.9979, 843.193237, 6.0, 3.0,Walking,High, 92.3366,-0.6157,-44.3154,-134.9927,-505.1813, 0.0000, 0.0000, 0.0000
06-Feb-2019 10:36:02.671, 0.7231,-0.1246, 0.4617,-0.0587, 0.3840, 0.0996,-0.0575,-0.7762, 0.1965, 1.7933, 0.6417,-2.4611,50.104394,-122.940367, 0.0888, 207.2522, 843.193237, 6.0, 3.0,Walking,High, 92.3366,-0.6157,-44.3154,-134.9927,-505.1813, 0.0000, 0.0000, 0.0000
06-Feb-2019 10:36:02.681, 0.7231,-0.1246, 0.4617,-0.0537, 0.3007, 0.0130,-0.0575,-0.7762, 0.1965, 1.7914, 0.6526,-2.4650,50.104394,-122.940367, 0.0888, 202.5107, 843.193237, 6.0, 3.0,Walking,High, 92.3366,-0.6157,-44.3154,-134.9927,-505.1813, 0.0000, 0.0000, 0.0000
06-Feb-2019 10:36:02.695, 0.7678,-0.5786, 0.2025, 0.0017, 0.0414, 0.0333,-0.0372,-0.3872, 1.0911, 1.7882, 0.6688,-2.4691,50.104394,-122.940367, 0.0888, 203.7880, 843.193237, 6.0, 3.0,Walking,High, 92.3366,-0.6157,-46.3350,-135.6823,-504.8736, 0.0000, 0.0000, 0.0000
06-Feb-2019 10:36:02.709, 0.7678,-0.5786, 0.2025, 0.1209,-0.0596, 0.0926,-0.0372,-0.3872, 1.0911, 1.7882, 0.6773,-2.4721,50.104394,-122.940367, 0.0888, 203.7880, 843.193237, 6.0, 3.0,Walking,High, 92.3366,-0.6157,-46.3350,-135.6823,-504.8736, 0.0000, 0.0000, 0.0000
06-Feb-2019 10:36:02.735, 0.7678,-0.5786, 0.2025, 0.3413,-0.1840, 0.0759,-0.0372,-0.3872, 1.0911, 1.7895, 0.6791,-2.4783,50.104394,-122.940367, 0.0888, 203.7880, 843.193237, 6.0, 3.0,Walking,High, 92.3366,-0.6157,-46.9328,-135.9868,-504.8718, 0.0000, 0.0000, 0.0000
06-Feb-2019 10:36:02.757, 0.7678,-0.5786, 0.2025, 0.2560,-0.1165,-0.0148,-0.0372,-0.3872, 1.0911, 1.7807, 0.6629,-2.4757,50.104394,-122.940367, 0.0888, 203.7880, 843.193237, 6.0, 3.0,Walking,High, 92.3452,-1.3872,-46.9328,-135.9868,-504.8718, 0.0000, 0.0000, 0.0000
06-Feb-2019 10:36:02.776, 0.7678,-0.5786, 0.2025, 0.1094,-0.0439,-0.1006,-0.0372,-0.3872, 1.0911, 1.7703, 0.6428,-2.4711,50.104394,-122.940367, 0.0888, 203.7880, 843.193237, 6.0, 3.0,Walking,High, 92.3452,-1.3872,-45.5103,-135.6764,-505.0281, 0.0000, 0.0000, 0.0000
06-Feb-2019 10:36:02.792, 0.9253,-0.6417, 0.0053, 0.0878,-0.0360,-0.1142, 0.0001,-0.1262,-1.0613, 1.7655, 0.6277,-2.4681,50.104394,-122.940367, 0.0888, 203.7880, 843.193237, 6.0, 3.0,Walking,High, 92.3452,-1.3872,-45.5103,-135.6764,-505.0281, 0.0000, 0.0000, 0.0000
06-Feb-2019 10:36:02.890, 0.8629,-0.4343, 0.4299,-0.0847,-0.0053, 0.1570, 0.6362, 0.8696,-1.6742, 1.7778, 0.4629,-2.4416,50.104394,-122.940367, 0.0888, 202.6814, 843.193237, 6.0, 3.0,Walking,High, 92.3452,-1.3872,-36.6862,-131.5573,-503.5560, 0.0000, 0.0000, 0.0000
06-Feb-2019 10:36:02.989, 0.7841,-0.3028, 0.2874,-0.1049,-0.0485, 0.1255, 1.0806, 0.5318,-0.5412, 1.8319, 0.3393,-2.5108,50.104394,-122.940367, 0.0888, 204.5364, 843.193237, 6.0, 3.0,Walking,High, 92.3452,-1.3872,-33.4735,-128.9019,-500.4104, 0.0000, 0.0000, 0.0000
06-Feb-2019 10:36:03.252, 0.8147,-1.6187, 0.2213, 0.3096,-0.4592, 0.3247,-0.0943, 2.2382, 6.3144, 2.5181, 1.1303, 2.9103,50.104393,-122.940364, 0.0110, 113.6932, 843.197876, 6.0, 3.0,Walking,High, 92.3452,-1.3872,-76.0355,-132.5084,-494.0443, 0.0000, 0.0000, 0.0000
06-Feb-2019 10:36:03.259, 0.8147,-1.6187, 0.2213, 0.3144,-0.4546, 0.3334,-0.0943, 2.2382, 6.3144, 2.5153, 1.1411, 2.9083,50.104393,-122.940364, 0.0110, 113.6932, 843.197876, 6.0, 3.0,Walking,High, 92.3452,-1.3872,-76.0355,-132.5084,-494.0443, 0.0000, 0.0000, 0.0000
06-Feb-2019 10:36:03.287,-0.1438,-1.0605, 0.7919,-0.2326, 0.0489, 0.4851, 0.3573, 0.0327, 1.2152, 2.5509, 1.1735, 2.8593,50.104393,-122.940364, 0.0110, 113.6932, 843.197876, 6.0, 3.0,Walking,High, 92.3452,-1.3872,-77.6140,-132.2217,-494.7842, 0.0000, 0.0000, 0.0000
06-Feb-2019 10:36:03.386, 0.1308,-1.1933, 0.1459,-0.0184,-0.3496,-0.2950,-1.2283, 0.5392,-0.2545, 2.7992, 1.1876, 2.6076,50.104393,-122.940364, 0.0110, 114.8152, 843.197876, 6.0, 3.0,Walking,High, 92.3452,-1.3872,-81.5304,-129.3977,-493.0986, 0.0000, 0.0000, 0.0000
06-Feb-2019 10:36:03.486,-0.6561, 0.3292, 0.1742,-0.7653, 1.3778,-0.2549,-1.1112,-0.7582, 2.6020, 2.4956, 1.2208, 2.8898,50.104393,-122.940364, 0.0110, 113.7852, 843.197876, 6.0, 3.0,Walking,High, 92.3452,-1.3872,-78.7423,-132.1580,-496.2027, 0.0000, 0.0000, 0.0000
06-Feb-2019 10:36:03.585, 0.0621,-0.9458, 0.3616, 0.1648,-0.3186, 0.0414, 0.4191, 0.1417,-0.7466, 3.0143, 1.2707, 2.3895,50.104393,-122.940364, 0.0110, 113.5882, 843.197876, 6.0, 3.0,Walking,High, 92.3452,-1.3872,-85.2152,-128.9822,-496.5262, 0.0000, 0.0000, 0.0000
06-Feb-2019 10:36:03.684, 0.1418,-1.4914, 0.2344,-0.0777,-0.4353,-0.1250,-1.6102,-0.0928,-0.6985, 2.7387, 1.2473, 2.6459,50.104393,-122.940364, 0.0110, 114.2380, 843.197876, 6.0, 3.0,Walking,High, 92.3452,-1.3872,-81.0004,-130.9747,-496.1094, 0.0000, 0.0000, 0.0000
06-Feb-2019 10:36:03.783, 0.1105,-0.0167, 0.3589, 0.1462, 0.7702, 0.2605, 2.6213,-0.2373,-1.3179, 2.3674, 1.2467, 2.9346,50.104393,-122.940364, 0.0110, 117.8797, 843.197876, 6.0, 3.0,Walking,High, 92.3452,-1.3872,-77.6130,-133.0515,-497.1884, 0.0000, 0.0000, 0.0000
06-Feb-2019 10:36:03.884,-0.0334,-2.9091, 0.2668,-0.2011,-1.5017,-0.1282,-1.4035, 2.3196, 4.2424, 2.8599, 1.3290, 2.4936,50.104393,-122.940364, 0.0110, 117.8325, 843.197876, 6.0, 3.0,Walking,High, 92.3452,-1.3872,-78.5155,-132.0789,-495.0036, 0.0000, 0.0000, 0.0000
06-Feb-2019 10:36:03.982,-0.2359,-0.6773, 0.1483,-0.0742, 0.4218, 0.1218,-1.5715, 1.8008, 0.6495,-1.9686, 1.4397, 1.2909,50.104393,-122.940364, 0.0110, 103.2990, 843.197876, 6.0, 3.0,Walking,High, 92.3452,-1.3872,-91.3998,-127.6287,-509.0854, 0.0000, 0.0000, 0.0000
06-Feb-2019 10:36:04.143,-0.2124,-1.0313,-0.0169,-0.2103,-0.0298,-0.0332, 0.5719, 0.2342,-0.5752,-1.5474, 1.4395, 0.8633,50.104393,-122.940364, 0.0110, 100.4754, 843.197876, 6.0, 3.0,Walking,High, 92.3452,-1.3872,-92.3884,-126.8946,-513.3514, 0.0000, 0.0000, 0.0000
06-Feb-2019 10:36:04.239,-0.1794,-0.9576,-0.0588, 0.0582, 0.0447,-0.0477,-0.0239, 0.8104, 0.0684,-1.5278, 1.4426, 0.9341,50.104393,-122.940364, 0.0110, 98.8523, 843.197876, 6.0, 3.0,Walking,High, 92.3452,-1.3872,-92.3858,-127.1940,-513.0529, 0.0000, 0.0000, 0.0000
06-Feb-2019 10:36:04.280,-0.2280,-0.9785,-0.2017,-0.0507, 0.0432,-0.3415,-0.2518,-0.9611,-0.0584,-1.5331, 1.4484, 0.9344,50.104392,-122.940362, 0.0880, 95.1062, 843.237854, 6.0, 3.0,Walking,High, 92.3452,-1.3872,-91.6373,-127.4920,-514.8585, 0.0000, 0.0000, 0.0000
06-Feb-2019 10:36:04.379,-0.0934,-0.9588,-0.0535, 0.0145, 0.0128,-0.0237, 0.1328, 0.2042,-0.2206,-1.5747, 1.4541, 0.9921,50.104392,-122.940362, 0.0880, 96.3446, 843.237854, 6.0, 3.0,Walking,High, 92.3452,-1.3872,-91.4858,-127.6404,-514.6350, 0.0000, 0.0000, 0.0000
06-Feb-2019 10:36:04.478,-0.3124,-0.9314,-0.0451,-0.1862, 0.0862,-0.0220,-0.1982,-0.0506,-0.0991,-1.5267, 1.4859, 0.9280,50.104392,-122.940362, 0.0880, 95.0080, 843.237854, 6.0, 3.0,Walking,High, 92.3423,-1.1256,-90.5808,-128.3083,-514.4934, 0.0000, 0.0000, 0.0000
06-Feb-2019 10:36:04.577, 0.0259,-1.0437, 0.0093, 0.1200,-0.0388, 0.0686,-0.0710,-0.3697,-0.3845,-1.4780, 1.4950, 0.8856,50.104392,-122.940362, 0.0880, 95.0080, 843.237854, 6.0, 3.0,Walking,High, 92.3423,-1.1256,-90.0526,-128.8299,-514.7239, 0.0000, 0.0000, 0.0000
06-Feb-2019 10:36:04.677,-0.1911,-1.0306,-0.0313,-0.2071, 0.0163,-0.0071, 0.0807,-0.2869,-0.1961,-1.3740, 1.5307, 0.7209,50.104392,-122.940362, 0.0880, 97.5891, 843.237854, 6.0, 3.0,Walking,High, 92.3423,-1.1256,-88.7668,-130.0177,-513.4619, 0.0000, 0.0000, 0.0000
06-Feb-2019 10:36:04.776,-0.0426,-0.9192,-0.0680,-0.0472, 0.1000,-0.0635,-0.0616,-0.4202,-0.4900,-1.2216, 1.5512, 0.5589,50.104392,-122.940362, 0.0880, 99.0194, 843.237854, 6.0, 3.0,Walking,High, 92.3423,-1.1256,-87.7868,-130.6095,-513.0203, 0.0000, 0.0000, 0.0000
06-Feb-2019 10:36:04.875,-0.2555,-1.0823, 0.0168,-0.2093,-0.1414,-0.0187, 0.4611,-0.3840, 0.6451,-1.6275, 1.5144, 0.8924,50.104392,-122.940362, 0.0880, 101.9505, 843.237854, 6.0, 3.0,Walking,High, 92.3423,-1.1256,-88.4610,-130.3116,-511.5901, 0.0000, 0.0000, 0.0000
06-Feb-2019 10:36:04.975,-0.0020,-0.8156, 0.2529, 0.0950, 0.0108, 0.2307, 1.4612, 0.7917, 0.3975,-2.4521, 1.3848, 1.7888,50.104392,-122.940362, 0.0880, 101.5015, 843.237854, 6.0, 3.0,Walking,High, 92.3423,-1.1256,-91.5459,-127.6259,-507.1347, 0.0000, 0.0000, 0.0000
06-Feb-2019 10:36:05.143, 0.0995,-0.9856,-0.3044,-0.8793,-0.5400,-0.5077,-1.0905,-2.1641, 1.0762,-2.6217, 1.3879, 1.7762,50.104392,-122.940362, 0.0880, 101.4395, 843.237854, 6.0, 3.0,Walking,High, 92.3423,-1.1256,-89.5824,-128.1261,-502.1229, 0.0000, 0.0000, 0.0000
06-Feb-2019 10:36:05.231,-0.5748,-0.8532, 0.6460,-0.3038, 0.1321, 0.0715, 0.4238,-0.1086,-0.7065,-2.8382, 1.3548, 2.0434,50.104392,-122.940362, 0.0333, 108.6267, 843.274658, 6.0, 3.0,Walking,High, 92.3423,-1.1256,-91.0895,-127.0872,-502.0345, 0.0000, 0.0000, 0.0000
06-Feb-2019 10:36:05.272, 0.4438,-1.1090,-0.1570, 0.3867,-0.3941,-0.2940,-0.5975, 0.3868,-3.8310, 3.0451, 1.3232, 2.5440,50.104392,-122.940362, 0.0333, 103.4935, 843.274658, 6.0, 3.0,Walking,High, 92.3423,-1.1256,-90.0331,-127.9792,-501.9697, 0.0000, 0.0000, 0.0000
06-Feb-2019 10:36:05.372, 0.1690,-0.4614, 0.4987,-0.0048, 0.2580, 0.2756, 1.3681, 0.2306,-2.0019, 1.8178, 1.1182,-2.5348,50.104392,-122.940362, 0.0333, 104.3703, 843.274658, 6.0, 3.0,Walking,High, 92.3423,-1.1256,-70.7103,-136.2443,-506.9923, 0.0000, 0.0000, 0.0000
06-Feb-2019 10:36:05.471, 0.3942,-1.1775, 0.3077,-0.2391,-0.3576,-0.0005,-0.1118, 0.4399, 4.2838, 2.3744, 1.2846,-3.1148,50.104392,-122.940362, 0.0333, 105.6253, 843.274658, 6.0, 3.0,Walking,High, 92.3423,-1.1256,-75.2110,-134.8440,-502.4606, 0.0000, 0.0000, 0.0000
06-Feb-2019 10:36:05.570,-0.2440,-2.0319,-0.0564,-0.3650,-1.2944,-0.1349, 0.3961, 0.8028, 0.1504, 2.8487, 1.3516, 2.7167,50.104392,-122.940362, 0.0333, 103.7957, 843.274658, 6.0, 3.0,Walking,High, 92.3423,-1.1256,-85.1355,-131.3937,-502.6137, 0.0000, 0.0000, 0.0000
06-Feb-2019 10:36:05.670, 0.1113,-1.3082, 0.2794,-0.1930,-0.4223, 0.1207,-0.8703,-1.7903,-3.2077, 2.3651, 1.3401,-3.0575,50.104392,-122.940362, 0.0333, 100.9165, 843.274658, 6.0, 3.0,Walking,High, 92.3423,-1.1256,-85.1401,-131.3984,-504.9388, 0.0000, 0.0000, 0.0000
06-Feb-2019 10:36:05.769, 0.4071,-0.0945,-0.1778,-0.0924, 0.3607,-0.4722,-0.6425,-0.8807,-1.1585, 2.0532, 1.0783,-2.8070,50.104392,-122.940362, 0.0333, 106.3866, 843.274658, 6.0, 3.0,Walking,High, 92.3423,-1.1256,-70.9316,-134.8828,-500.3843, 0.0000, 0.0000, 0.0000
06-Feb-2019 10:36:05.868,-0.3269,-1.4467, 0.0423,-0.5788, 0.0904,-0.2836, 0.6443, 3.0763, 5.0444, 2.5325, 1.2497, 3.0661,50.104392,-122.940362, 0.0333, 105.7747, 843.274658, 6.0, 3.0,Walking,High, 92.3423,-1.1256,-74.7552,-135.1369,-500.5895, 0.0000, 0.0000, 0.0000
06-Feb-2019 10:36:05.967,-0.5141,-0.9175, 0.3037,-0.6640, 0.0663, 0.2285, 0.3922,-0.6037, 0.2640, 2.9031, 1.3821, 2.6770,50.104392,-122.940362, 0.0333, 100.6980, 843.274658, 6.0, 3.0,Walking,High, 92.3423,-1.1256,-85.6651,-131.1759,-504.1848, 0.0000, 0.0000, 0.0000
06-Feb-2019 10:36:06.151,-0.4297,-1.0716, 0.0095, 0.2028, 0.3143, 0.2311, 1.4262,-0.0836,-0.5204, 2.9688, 1.3034, 2.5698,50.104392,-122.940362, 0.0333, 103.5452, 843.274658, 6.0, 3.0,Walking,High, 92.3423,-1.1256,-84.9851,-130.1838,-498.1835, 0.0000, 0.0000, 0.0000
06-Feb-2019 10:36:06.228, 0.1703,-0.7649, 0.2963, 0.1143, 0.0594, 0.4111,-1.6501,-2.4455,-0.0137, 2.7817, 1.3787, 2.6813,50.104392,-122.940362, 0.0333, 106.9482, 843.274658, 6.0, 3.0,Walking,High, 92.3423,-1.1256,-85.2872,-130.4148,-500.0580, 0.0000, 0.0000, 0.0000
06-Feb-2019 10:36:06.265, 0.1928,-0.9039, 0.3584, 0.0797, 0.0747, 0.2445,-1.0510,-1.2956,-0.4561, 2.3306, 1.4190, 3.0251,50.104387,-122.940364, 0.2890, 112.5080, 843.273499, 6.0, 3.0,Walking,High, 92.3349,-0.4677,-83.1017,-132.2004,-501.0540, 0.0000, 0.0000, 0.0000
06-Feb-2019 10:36:06.365, 0.1272,-1.0988,-0.2983, 0.0196, 0.0099,-0.2410,-0.1882, 3.1096, 0.0195, 2.0231, 1.4535,-2.6221,50.104387,-122.940364, 0.2890, 102.2351, 843.273499, 6.0, 3.0,Walking,High, 92.3349,-0.4677,-82.5872,-133.7177,-511.6394, 0.0000, 0.0000, 0.0000
06-Feb-2019 10:36:06.465,-0.0155,-1.1148, 0.3867,-0.1743,-0.1350, 0.3564,-0.1799, 1.0050,-0.2601, 1.5981, 1.4277,-2.2376,50.104387,-122.940364, 0.2890, 98.2961, 843.273499, 6.0, 3.0,Walking,High, 92.3349,-0.4677,-81.4592,-134.1593,-511.6478, 0.0000, 0.0000, 0.0000
06-Feb-2019 10:36:06.564, 0.1735,-1.0339, 0.0572,-0.0496,-0.0738,-0.0343, 0.1658,-0.1770,-0.3393, 1.6270, 1.3951,-2.2825,50.104387,-122.940364, 0.2890, 98.2462, 843.273499, 6.0, 3.0,Walking,High, 92.3349,-0.4677,-79.5053,-134.8204,-512.0369, 0.0000, 0.0000, 0.0000
06-Feb-2019 10:36:06.662, 0.0745,-1.0565,-0.0007,-0.2154,-0.0941,-0.0819, 0.0674,-0.2692,-0.3261, 1.6521, 1.3510,-2.3552,50.104387,-122.940364, 0.2890, 100.6985, 843.273499, 6.0, 3.0,Walking,High, 92.3349,-0.4677,-77.8489,-135.3301,-510.6235, 0.0000, 0.0000, 0.0000
06-Feb-2019 10:36:06.762, 0.1741,-1.0149, 0.0404,-0.0630,-0.0142, 0.0116,-0.0571,-0.1242,-0.3116, 1.6258, 1.3254,-2.3292,50.104387,-122.940364, 0.2890, 100.6985, 843.273499, 6.0, 3.0,Walking,High, 92.3349,-0.4677,-76.1157,-136.4417,-510.4136, 0.0000, 0.0000, 0.0000
06-Feb-2019 10:36:06.861, 0.2301,-1.0147, 0.0095,-0.0478,-0.0241, 0.0114,-0.1677, 0.0177,-0.3012, 1.5878, 1.2954,-2.2953,50.104387,-122.940364, 0.2890, 101.7432, 843.273499, 6.0, 3.0,Walking,High, 92.3349,-0.4677,-75.2128,-136.8851,-510.4958, 0.0000, 0.0000, 0.0000
06-Feb-2019 10:36:06.960, 0.2105,-0.9914,-0.0046,-0.1049,-0.0353,-0.0079,-0.1601,-0.0720,-0.2289, 1.5361, 1.2768,-2.2420,50.104387,-122.940364, 0.2890, 101.7432, 843.273499, 6.0, 3.0,Walking,High, 92.3349,-0.4677,-73.5626,-137.1745,-511.4063, 0.0000, 0.0000, 0.0000
06-Feb-2019 10:36:07.170, 0.2151,-1.0120,-0.0048,-0.0572, 0.1822,-0.0070,-0.1902,-0.1101, 0.0873, 1.3750, 1.2919,-2.1442,50.104387,-122.940364, 0.2890, 101.7432, 843.273499, 6.0, 3.0,Walking,High, 92.3349,-0.4677,-73.8656,-136.8023,-511.6278, 0.0000, 0.0000, 0.0000
06-Feb-2019 10:36:07.242, 0.1993,-0.8102,-0.0760, 0.1048,-0.0395,-0.0071,-0.1902,-0.1101, 0.0873, 1.3243, 1.3139,-2.0871,50.104387,-122.940364, 0.2890, 104.3437, 843.273499, 6.0, 3.0,Walking,High, 92.3349,-0.4677,-74.7671,-136.8105,-512.3729, 0.0000, 0.0000, 0.0000
06-Feb-2019 10:36:07.258, 0.0180,-1.0255,-0.0930,-0.1186,-0.0626,-0.0518, 0.0256,-0.7327, 0.5144, 1.3100, 1.3221,-2.0834,50.104385,-122.940365, 0.0567, 104.3437, 843.268494, 6.0, 3.0,Walking,High, 92.3343,-0.4122,-74.7671,-136.8105,-512.3729, 0.0000, 0.0000, 0.0000
06-Feb-2019 10:36:07.358, 0.1962,-1.0785,-0.1321, 0.0282,-0.0637,-0.0729, 0.0130,-0.6576, 0.3867, 1.2467, 1.4009,-2.0427,50.104385,-122.940365, 0.0567, 105.9158, 843.268494, 6.0, 3.0,Walking,High, 92.3343,-0.4122,-78.9723,-135.7146,-511.1443, 0.0000, 0.0000, 0.0000
06-Feb-2019 10:36:07.497, 0.0430,-1.0116,-0.0485,-0.0850, 0.0022,-0.0072, 0.0411,-0.9624, 0.0944, 1.0406, 1.4241,-1.9590,50.104385,-122.940365, 0.0567, 112.4917, 843.268494, 6.0, 3.0,Walking,High, 92.3343,-0.4122,-79.5769,-134.8175,-510.3114, 0.0000, 0.0000, 0.0000
06-Feb-2019 10:36:07.556, 0.0166,-1.0214,-0.1380,-0.1025,-0.0366,-0.0728, 0.1932,-1.0784, 0.0662, 1.0124, 1.4334,-2.0095,50.104385,-122.940365, 0.0567, 116.3326, 843.268494, 6.0, 3.0,Walking,High, 92.3343,-0.4122,-79.4951,-134.8855,-507.1622, 0.0000, 0.0000, 0.0000
06-Feb-2019 10:36:07.655, 0.0707,-1.0286,-0.0594,-0.0253,-0.0273,-0.0003, 0.2632,-0.3035, 0.1190, 1.0679, 1.4468,-2.1295,50.104385,-122.940365, 0.0567, 121.2116, 843.268494, 6.0, 3.0,Walking,High, 92.3343,-0.4122,-79.4166,-134.9570,-505.6630, 0.0000, 0.0000, 0.0000
06-Feb-2019 10:36:07.755, 0.0688,-1.0122,-0.0194,-0.0076,-0.0189, 0.0040, 0.3459, 0.7220, 0.0829, 1.3575, 1.4714,-2.3926,50.104385,-122.940365, 0.0567, 121.2116, 843.268494, 6.0, 3.0,Walking,High, 92.3343,-0.4122,-80.2429,-134.4358,-504.4558, 0.0000, 0.0000, 0.0000
06-Feb-2019 10:36:07.854, 0.0383,-0.9801,-0.0414,-0.0752, 0.0108,-0.0644, 0.1113, 0.8360,-0.1780, 1.6878, 1.4711,-2.6394,50.104385,-122.940365, 0.0567, 116.9270, 843.268494, 6.0, 3.0,Walking,High, 92.3343,-0.4122,-80.6944,-134.2141,-504.4523, 0.0000, 0.0000, 0.0000
06-Feb-2019 10:36:07.954, 0.0778,-0.9787,-0.0281,-0.0527, 0.0358,-0.0555, 0.0233, 0.7576,-0.3394, 1.8249, 1.4426,-2.6936,50.104385,-122.940365, 0.0567, 112.1820, 843.268494, 6.0, 3.0,Walking,High, 92.3343,-0.4122,-80.0943,-134.6626,-505.9578, 0.0000, 0.0000, 0.0000
06-Feb-2019 10:36:08.143, 0.1035,-0.9057,-0.0316,-0.0661, 0.0382,-0.0290,-0.2815, 0.3269,-0.3247, 1.6336, 1.4017,-2.4320,50.104385,-122.940365, 0.0567, 108.1654, 843.268494, 6.0, 3.0,Walking,High, 92.3343,-0.4122,-77.9167,-135.8520,-508.8257, 0.0000, 0.0000, 0.0000
06-Feb-2019 10:36:08.154, 0.0933,-1.0889, 0.1256,-0.0828,-0.0833, 0.1311,-0.2868, 0.1843,-0.1343, 1.5536, 1.3908,-2.3467,50.104385,-122.940365, 0.0567, 107.0867, 843.268494, 6.0, 3.0,Walking,High, 92.3296, 0.0106,-77.4700,-135.5499,-509.4267, 0.0000, 0.0000, 0.0000
06-Feb-2019 10:36:08.251, 0.1753,-0.9758, 0.0470, 0.0218, 0.0076, 0.0589,-0.2893,-0.1987, 0.0227, 1.4083, 1.3915,-2.1984,50.104384,-122.940361, 0.0921, 107.0867, 843.278381, 6.0, 3.0,Walking,High, 92.3296, 0.0106,-77.7708,-135.7795,-510.6262, 0.0000, 0.0000, 0.0000
06-Feb-2019 10:36:08.351, 0.1464,-0.9407, 0.0644, 0.0068, 0.0406, 0.1333,-0.0914,-0.0915, 0.0953, 1.3109, 1.3981,-2.1061,50.104384,-122.940361, 0.0921, 107.0867, 843.278381, 6.0, 3.0,Walking,High, 92.3296, 0.0106,-77.9967,-135.7821,-511.0750, 0.0000, 0.0000, 0.0000
06-Feb-2019 10:36:08.450, 0.2313,-0.9855,-0.0087, 0.0678, 0.0150, 0.0565, 0.0253,-0.7352, 0.1831, 1.2574, 1.4114,-2.1017,50.104384,-122.940361, 0.0921, 108.3057, 843.278381, 6.0, 3.0,Walking,High, 92.3296, 0.0106,-78.3740,-135.4097,-510.9210, 0.0000, 0.0000, 0.0000
06-Feb-2019 10:36:08.549, 0.0676,-0.9595,-0.1099,-0.0515,-0.0034,-0.0546,-0.1203,-0.4637, 0.1978, 1.1759, 1.4342,-2.0699,50.104384,-122.940361, 0.0921, 111.0118, 843.278381, 6.0, 3.0,Walking,High, 92.3296, 0.0106,-79.0475,-135.2621,-509.6416, 0.0000, 0.0000, 0.0000
06-Feb-2019 10:36:08.648, 0.0822,-1.0057,-0.0450,-0.0071, 0.0038, 0.0171, 0.1318,-0.6563, 0.2626, 1.0237, 1.4565,-1.9700,50.104384,-122.940361, 0.0921, 113.4095, 843.278381, 6.0, 3.0,Walking,High, 92.3296, 0.0106,-80.2490,-134.8197,-508.8828, 0.0000, 0.0000, 0.0000
06-Feb-2019 10:36:08.747, 0.0074,-1.0482,-0.1096,-0.0508,-0.0571,-0.0608, 0.2085,-0.8132, 0.0539, 1.0698, 1.4827,-2.0800,50.104384,-122.940361, 0.0921, 117.0061, 843.278381, 6.0, 3.0,Walking,High, 92.3296, 0.0106,-80.5484,-134.4436,-507.2292, 0.0000, 0.0000, 0.0000
06-Feb-2019 10:36:08.847,-0.0242,-0.9794,-0.1075,-0.1007, 0.0287,-0.0795, 0.0923,-0.5698,-0.0176, 1.0457, 1.4957,-2.1359,50.104384,-122.940361, 0.0921, 122.7347, 843.278381, 6.0, 3.0,Walking,High, 92.3296, 0.0106,-80.1680,-134.4353,-504.5313, 0.0000, 0.0000, 0.0000
06-Feb-2019 10:36:08.946, 0.0711,-0.9477,-0.0702, 0.0125, 0.0454,-0.0415, 0.1061, 0.0925,-0.0654, 1.2293, 1.4986,-2.3338,50.104384,-122.940361, 0.0921, 124.2576, 843.278381, 6.0, 3.0,Walking,High, 92.3296, 0.0106,-79.4884,-134.8032,-503.4868, 0.0000, 0.0000, 0.0000
06-Feb-2019 10:36:09.147,-0.0819,-0.9978,-0.0306,-0.1592, 0.0067,-0.0051,-0.2026, 0.6371,-0.1426, 1.2924, 1.4738,-2.2976,50.104384,-122.940361, 0.0921, 122.3517, 843.278381, 6.0, 3.0,Walking,High, 92.3296, 0.0106,-79.4162,-134.8055,-504.9123, 0.0000, 0.0000, 0.0000
06-Feb-2019 10:36:09.156,-0.0819,-0.9978,-0.0306,-0.1756,-0.0025,-0.0033,-0.2026, 0.6371,-0.1426, 1.2879, 1.4730,-2.2897,50.104384,-122.940361, 0.0921, 120.8064, 843.278381, 6.0, 3.0,Walking,High, 92.3296, 0.0106,-79.1923,-134.8804,-505.7389, 0.0000, 0.0000, 0.0000
06-Feb-2019 10:36:09.264,-0.0529,-1.1241, 0.0465,-0.1034,-0.1077, 0.0556, 0.0771, 0.8399, 0.0381, 1.2396, 1.4716,-2.1544,50.104382,-122.940355, 0.1619, 114.1744, 843.328979, 6.0, 3.0,Walking,High, 92.3296, 0.0106,-79.4191,-135.0350,-507.1634, 0.0000, 0.0000, 0.0000
06-Feb-2019 10:36:09.343,-0.1009,-0.9524,-0.0612,-0.1679, 0.0232,-0.0169, 0.3002, 0.4883,-0.2309, 1.4826, 1.4640,-2.3685,50.104382,-122.940355, 0.1619, 112.8213, 843.328979, 6.0, 3.0,Walking,High, 92.3296, 0.0106,-79.1175,-135.3332,-507.3915, 0.0000, 0.0000, 0.0000
06-Feb-2019 10:36:09.443, 0.0952,-0.7984,-0.0146,-0.0453, 0.1629,-0.0552,-0.1283, 1.1066,-0.4930, 1.6790, 1.4365,-2.4681,50.104382,-122.940355, 0.1619, 107.8832, 843.328979, 6.0, 3.0,Walking,High, 92.3296, 0.0106,-77.9918,-135.6261,-508.0742, 0.0000, 0.0000, 0.0000
06-Feb-2019 10:36:09.541, 0.0739,-0.8105,-0.0035,-0.0739, 0.0651,-0.0464,-0.6170, 0.7114,-0.3555, 1.7090, 1.3956,-2.3579,50.104382,-122.940355, 0.1619, 100.0244, 843.328979, 6.0, 3.0,Walking,High, 92.3296, 0.0106,-76.1136,-136.5906,-509.8894, 0.0000, 0.0000, 0.0000
06-Feb-2019 10:36:09.641, 0.2501,-1.3306, 0.3038, 0.0390,-0.4409, 0.3816,-0.2135, 0.4889,-0.3049, 1.5063, 1.3582,-2.1349,50.104382,-122.940355, 0.1619, 98.3962, 843.328979, 6.0, 3.0,Walking,High, 92.3296, 0.0106,-74.0181,-136.8814,-513.1274, 0.0000, 0.0000, 0.0000
06-Feb-2019 10:36:09.740, 0.1011,-0.8316, 0.1309,-0.1248, 0.0921, 0.1395,-0.2270,-0.1891,-0.3030, 1.4587, 1.3180,-2.1066,50.104382,-122.940355, 0.1619, 97.0129, 843.328979, 6.0, 3.0,Walking,High, 92.3296, 0.0106,-72.6622,-137.7716,-513.2892, 0.0000, 0.0000, 0.0000
06-Feb-2019 10:36:09.840, 0.2409,-0.8262, 0.0978,-0.0259, 0.1213, 0.1624, 0.0695,-0.6752,-0.6113, 1.4026, 1.2837,-2.0650,50.104382,-122.940355, 0.1619, 98.0175, 843.328979, 6.0, 3.0,Walking,High, 92.3296, 0.0106,-70.2626,-137.9049,-513.9781, 0.0000, 0.0000, 0.0000
06-Feb-2019 10:36:09.939, 0.3423,-1.0080, 0.1819, 0.0083,-0.0844, 0.2570, 0.0072,-0.0676,-0.2739, 1.3689, 1.2431,-2.1230,50.104382,-122.940355, 0.1619, 103.1383, 843.328979, 6.0, 3.0,Walking,High, 92.3305,-0.0740,-68.5337,-138.1900,-513.0140, 0.0000, 0.0000, 0.0000
06-Feb-2019 10:36:10.146, 0.5253,-1.0844, 0.0589, 0.2153,-0.1423, 0.1867, 0.6542,-1.3509,-0.2218, 1.1797, 1.2289,-1.7626,50.104382,-122.940355, 0.1619, 96.7516, 843.328979, 6.0, 3.0,Walking,High, 92.3305,-0.0740,-65.7578,-138.5458,-513.7811, 0.0000, 0.0000, 0.0000
06-Feb-2019 10:36:10.154, 0.5253,-1.0844, 0.0589, 0.1045,-0.0773, 0.0479, 0.6542,-1.3509,-0.2218, 1.1923, 1.2283,-1.7865,50.104382,-122.940355, 0.1619, 92.5478, 843.328979, 6.0, 3.0,Walking,High, 92.3305,-0.0740,-68.2478,-137.6734,-518.2630, 0.0000, 0.0000, 0.0000
06-Feb-2019 10:36:10.238, 0.2796,-0.9330,-0.3048,-0.0844, 0.0384,-0.2682, 1.1719,-1.7813,-0.1710, 1.3273, 1.2284,-1.9804,50.104383,-122.940350, 0.1623, 95.4148, 843.410461, 6.0, 3.0,Walking,High, 92.3305,-0.0740,-67.7142,-138.1139,-515.4932, 0.0000, 0.0000, 0.0000
06-Feb-2019 10:36:10.337, 0.0324,-1.0078,-0.2225,-0.2669,-0.0061,-0.1706, 0.2512,-1.7590, 0.4242, 1.3805, 1.2437,-2.2692,50.104383,-122.940350, 0.1623, 108.5910, 843.410461, 6.0, 3.0,Walking,High, 92.3305,-0.0740,-67.4785,-138.1013,-510.0944, 0.0000, 0.0000, 0.0000
06-Feb-2019 10:36:10.436, 0.0597,-0.9247,-0.1176,-0.2590, 0.0587,-0.0343, 0.1178,-0.2289,-0.0456, 1.2993, 1.2636,-2.2747,50.104383,-122.940350, 0.1623, 114.7089, 843.410461, 6.0, 3.0,Walking,High, 92.3305,-0.0740,-68.3025,-137.8799,-508.8138, 0.0000, 0.0000, 0.0000
06-Feb-2019 10:36:10.535,-0.0825,-1.0750,-0.2599,-0.3382,-0.1291,-0.1785,-1.1197, 1.0915, 0.6430, 1.2831, 1.2793,-2.1859,50.104383,-122.940350, 0.1623, 113.9044, 843.410461, 6.0, 3.0,Walking,High, 92.3305,-0.0740,-68.9063,-137.4352,-509.1832, 0.0000, 0.0000, 0.0000
06-Feb-2019 10:36:10.634, 0.5954,-0.7391, 0.1498, 0.4366, 0.3034, 0.3314, 2.1074,-0.8980,-1.3067, 1.2888, 1.2671,-2.2215,50.104383,-122.940350, 0.1623, 111.7811, 843.410461, 6.0, 3.0,Walking,High, 92.3305,-0.0740,-68.7551,-137.7349,-509.6355, 0.0000, 0.0000, 0.0000
06-Feb-2019 10:36:10.733, 0.0896,-1.2539,-0.1562,-0.1891,-0.2765,-0.1274, 0.1779, 0.0428, 0.7264, 1.5429, 1.2694,-2.5111,50.104383,-122.940350, 0.1623, 117.4162, 843.410461, 6.0, 3.0,Walking,High, 92.3305,-0.0740,-67.5499,-137.3430,-505.6652, 0.0000, 0.0000, 0.0000
06-Feb-2019 10:36:10.832, 0.0620,-1.1813,-0.0300,-0.1404,-0.2838,-0.0510, 1.0779,-1.0589,-0.4269, 1.7157, 1.3277,-2.7999,50.104383,-122.940350, 0.1623, 121.9843, 843.410461, 6.0, 3.0,Walking,High, 92.3305,-0.0740,-70.0980,-136.4539,-501.5967, 0.0000, 0.0000, 0.0000
06-Feb-2019 10:36:10.932, 0.1566,-0.6876, 0.1365,-0.1898, 0.2144,-0.0011, 1.0444,-4.0125,-1.1823, 1.7365, 1.2257,-3.1018,50.104383,-122.940350, 0.1623, 134.4527, 843.410461, 6.0, 3.0,Walking,High, 92.3342,-0.4042,-65.0682,-135.7314,-496.6708, 0.0000, 0.0000, 0.0000
06-Feb-2019 10:36:11.142, 0.4203,-0.7835, 0.0860, 0.0081, 0.1056,-0.1131,-0.0365,-0.0198, 0.0871, 2.0208, 1.0954, 2.8659,50.104383,-122.940350, 0.1623, 145.5807, 843.410461, 6.0, 3.0,Walking,High, 92.3342,-0.4042,-58.3981,-133.2689,-490.4702, 0.0000, 0.0000, 0.0000
06-Feb-2019 10:36:11.151, 0.4203,-0.7835, 0.0860, 0.0291, 0.0700,-0.0868,-0.0365,-0.0198, 0.0871, 2.0188, 1.0966, 2.8667,50.104383,-122.940350, 0.1623, 144.1678, 843.410461, 6.0, 3.0,Walking,High, 92.3342,-0.4042,-59.0016,-132.4462,-489.3378, 0.0000, 0.0000, 0.0000
06-Feb-2019 10:36:11.233, 0.3442,-0.8096, 0.2348,-0.0416, 0.0979, 0.0846,-0.7996, 1.1939, 0.5457, 1.9721, 1.1384, 2.9558,50.104381,-122.940342, 0.1120, 144.1678, 843.467896, 6.0, 3.0,Walking,High, 92.3342,-0.4042,-60.7975,-133.5885,-491.2836, 0.0000, 0.0000, 0.0000
06-Feb-2019 10:36:11.329, 0.3512,-0.8965, 0.1671, 0.0125, 0.1110,-0.0296,-0.5852,-0.1983, 0.2194, 1.9986, 1.2020, 3.0228,50.104381,-122.940342, 0.1120, 135.1320, 843.467896, 6.0, 3.0,Walking,High, 92.3342,-0.4042,-64.0993,-133.9175,-493.3671, 0.0000, 0.0000, 0.0000
06-Feb-2019 10:36:11.464, 0.2708,-0.9777, 0.1343,-0.0142,-0.0181,-0.0740, 0.6335,-0.4053, 0.0610, 2.0478, 1.2048, 2.9577,50.104381,-122.940342, 0.1120, 135.1320, 843.467896, 6.0, 3.0,Walking,High, 92.3342,-0.4042,-64.8491,-134.0740,-493.8138, 0.0000, 0.0000, 0.0000
06-Feb-2019 10:36:11.527, 0.2041,-0.8911, 0.0762,-0.0733,-0.0176,-0.1031, 0.0373,-0.1304,-0.0533, 2.0864, 1.1942, 2.9023,50.104381,-122.940342, 0.1120, 136.4986, 843.467896, 6.0, 3.0,Walking,High, 92.3342,-0.4042,-64.5494,-133.5433,-492.0877, 0.0000, 0.0000, 0.0000
06-Feb-2019 10:36:11.628, 0.2973,-0.9861, 0.1891,-0.0228,-0.0602, 0.0150, 0.2304,-0.0689,-0.0064, 2.0654, 1.1941, 2.8945,50.104381,-122.940342, 0.1120, 137.7812, 843.467896, 6.0, 3.0,Walking,High, 92.3342,-0.4042,-63.8761,-133.1624,-491.6395, 0.0000, 0.0000, 0.0000
06-Feb-2019 10:36:11.726, 0.2021,-0.9941, 0.1845,-0.1246,-0.0750,-0.0149,-0.2098, 0.0746, 0.1397, 2.0902, 1.2047, 2.8817,50.104381,-122.940342, 0.1120, 137.7812, 843.467896, 6.0, 3.0,Walking,High, 92.3342,-0.4042,-64.4013,-133.1664,-491.7117, 0.0000, 0.0000, 0.0000
06-Feb-2019 10:36:11.825, 0.2173,-0.9953, 0.1803,-0.0590,-0.0536,-0.0014,-0.1272, 0.1787, 0.0711, 2.1055, 1.2235, 2.8844,50.104381,-122.940342, 0.1120, 137.7812, 843.467896, 6.0, 3.0,Walking,High, 92.3342,-0.4042,-65.5275,-133.1762,-492.3805, 0.0000, 0.0000, 0.0000
06-Feb-2019 10:36:11.924, 0.2306,-0.9488, 0.1655,-0.0495,-0.0205,-0.0127, 0.0045,-0.0190,-0.0309, 2.1075, 1.2309, 2.8921,50.104381,-122.940342, 0.1120, 136.7514, 843.467896, 6.0, 3.0,Walking,High, 92.3342,-0.4042,-65.6804,-132.9537,-493.0536, 0.0000, 0.0000, 0.0000
06-Feb-2019 10:36:12.118, 0.2264,-0.9898, 0.1540,-0.0534,-0.0442,-0.0115,-0.0989,-0.0219, 0.0080, 2.1048, 1.2397, 2.9018,50.104381,-122.940342, 0.1120, 135.7250, 843.467896, 6.0, 3.0,Walking,High, 92.3342,-0.4042,-66.1264,-133.4818,-492.9037, 0.0000, 0.0000, 0.0000
06-Feb-2019 10:36:12.152, 0.2500,-0.9783, 0.2519,-0.0913,-0.0080, 0.0824, 0.1903,-0.3462,-0.3257, 2.0714, 1.2234, 2.9062,50.104381,-122.940342, 0.1120, 136.8664, 843.467896, 6.0, 3.0,Walking,High, 92.3342,-0.4042,-64.7770,-133.3210,-492.6104, 0.0000, 0.0000, 0.0000
06-Feb-2019 10:36:12.243, 0.2065,-0.9203, 0.1900,-0.0973, 0.0367, 0.0127, 0.2595,-0.5772,-0.2362, 2.0860, 1.1957, 2.8573,50.104382,-122.940341, 0.0075, 136.8664, 843.584656, 6.0, 3.0,Walking,High, 92.3342,-0.4042,-63.7279,-132.9364,-491.7142, 0.0000, 0.0000, 0.0000
06-Feb-2019 10:36:12.321, 0.4384,-1.0212, 0.2389, 0.0677,-0.0812, 0.0122, 0.6163,-0.6401,-1.0080, 2.0955, 1.1296, 2.7952,50.104382,-122.940341, 0.0075, 142.1588, 843.584656, 6.0, 3.0,Walking,High, 92.3342,-0.4042,-61.1812,-131.8631,-489.6229, 0.0000, 0.0000, 0.0000
06-Feb-2019 10:36:12.421, 0.2894,-0.8735, 0.2442,-0.1786,-0.0695, 0.0379,-0.0091,-0.1783,-0.8728, 2.0012, 1.0306, 2.8493,50.104382,-122.940341, 0.0075, 146.0077, 843.584656, 6.0, 3.0,Walking,High, 92.3342,-0.4042,-54.8107,-130.9132,-488.5281, 0.0000, 0.0000, 0.0000
06-Feb-2019 10:36:12.521, 0.4724,-0.7800, 0.2343,-0.0778, 0.0588, 0.0194, 0.2978, 0.1131,-0.5097, 1.9710, 0.9567, 2.8818,50.104382,-122.940341, 0.0075, 146.0077, 843.584656, 6.0, 3.0,Walking,High, 92.3342,-0.4042,-52.4137,-130.3694,-488.1636, 0.0000, 0.0000, 0.0000
06-Feb-2019 10:36:12.620, 0.4761,-0.7688, 0.2312,-0.0583, 0.0335,-0.0113,-0.1705, 0.1960,-0.0133, 1.9898, 0.9399, 2.8817,50.104382,-122.940341, 0.0075, 146.0077, 843.584656, 6.0, 3.0,Walking,High, 92.3342,-0.4042,-51.9666,-129.7647,-487.4881, 0.0000, 0.0000, 0.0000
06-Feb-2019 10:36:12.719, 0.5348,-0.8511, 0.2957,-0.0229,-0.0103, 0.0525,-0.0680,-0.1214,-0.0602, 1.9832, 0.9434, 2.8962,50.104382,-122.940341, 0.0075, 146.0077, 843.584656, 6.0, 3.0,Walking,High, 92.3343,-0.4122,-52.2642,-130.2177,-487.8637, 0.0000, 0.0000, 0.0000
06-Feb-2019 10:36:12.818, 0.5376,-0.8927, 0.2717, 0.0021,-0.0965, 0.0419,-0.0098,-0.0581,-0.0854, 1.9708, 0.9366, 2.8965,50.104382,-122.940341, 0.0075, 146.0077, 843.584656, 6.0, 3.0,Walking,High, 92.3343,-0.4122,-51.5148,-130.0617,-487.6420, 0.0000, 0.0000, 0.0000
06-Feb-2019 10:36:12.917, 0.5213,-0.7809, 0.2220,-0.0172, 0.0004,-0.0033,-0.0297, 0.0407,-0.0746, 1.9629, 0.9315, 2.9015,50.104382,-122.940341, 0.0075, 146.0077, 843.584656, 6.0, 3.0,Walking,High, 92.3343,-0.4122,-51.3648,-130.1360,-487.8682, 0.0000, 0.0000, 0.0000
06-Feb-2019 10:36:13.028, 0.4867,-0.8040, 0.1974,-0.0645,-0.0010,-0.0291, 0.0514,-0.0326,-0.0126, 1.9607, 0.9325, 2.9063,50.104382,-122.940341, 0.0075, 146.0077, 843.584656, 6.0, 3.0,Walking,High, 92.3343,-0.4122,-50.9147,-130.2081,-488.0960, 0.0000, 0.0000, 0.0000
06-Feb-2019 10:36:13.147, 0.5737,-0.8656, 0.2708, 0.0210,-0.0686, 0.0237, 0.1288,-0.2092,-0.1467, 1.9466, 0.9195, 2.8999,50.104382,-122.940341, 0.0075, 147.3585, 843.584656, 6.0, 3.0,Walking,High, 92.3343,-0.4122,-50.0933,-129.6768,-488.0229, 0.0000, 0.0000, 0.0000
06-Feb-2019 10:36:13.228, 0.5772,-0.8255, 0.2667,-0.0187,-0.0578, 0.0309, 0.3253,-0.0713,-0.4395, 1.9476, 0.8751, 2.8794,50.104382,-122.940341, 0.0013, 147.3585, 843.600891, 6.0, 3.0,Walking,High, 92.3343,-0.4122,-48.1479,-128.6848,-486.8286, 0.0000, 0.0000, 0.0000
06-Feb-2019 10:36:13.315, 0.5114,-0.6577, 0.2203,-0.1209, 0.1244,-0.0407,-0.0336, 0.1632,-0.1000, 1.9559, 0.8552, 2.8796,50.104382,-122.940341, 0.0013, 148.4299, 843.600891, 6.0, 3.0,Walking,High, 92.3343,-0.4122,-47.7748,-128.3062,-486.4538, 0.0000, 0.0000, 0.0000
06-Feb-2019 10:36:13.414, 0.5728,-0.7412, 0.2812,-0.0310, 0.0046, 0.0062, 0.0286, 0.1169, 0.0685, 1.9864, 0.8533, 2.8651,50.104382,-122.940341, 0.0013, 148.4299, 843.600891, 6.0, 3.0,Walking,High, 92.3343,-0.4122,-48.2251,-128.2344,-486.3760, 0.0000, 0.0000, 0.0000
06-Feb-2019 10:36:13.513, 0.5953,-0.7651, 0.2941, 0.0091,-0.0232, 0.0166, 0.1032, 0.1431, 0.0178, 2.0100, 0.8568, 2.8552,50.104382,-122.940341, 0.0013, 148.4299, 843.600891, 6.0, 3.0,Walking,High, 92.3343,-0.4122,-48.8985,-128.3134,-485.8477, 0.0000, 0.0000, 0.0000
06-Feb-2019 10:36:13.613, 0.5406,-0.7760, 0.3129,-0.0306,-0.0505, 0.0324,-0.0699, 0.0481, 0.0775, 2.0283, 0.8615, 2.8500,50.104382,-122.940341, 0.0013, 147.3475, 843.600891, 6.0, 3.0,Walking,High, 92.3343,-0.4122,-49.2727,-128.3155,-485.4706, 0.0000, 0.0000, 0.0000
06-Feb-2019 10:36:13.712, 0.5087,-0.7678, 0.2868,-0.0392,-0.0001,-0.0095,-0.1996, 0.1418, 0.1399, 2.0424, 0.8792, 2.8587,50.104382,-122.940341, 0.0013, 145.9363, 843.600891, 6.0, 3.0,Walking,High, 92.3343,-0.4122,-50.3186,-128.9235,-485.5429, 0.0000, 0.0000, 0.0000
06-Feb-2019 10:36:13.811, 0.5972,-0.7724, 0.2997, 0.0193, 0.0066, 0.0080, 0.0671,-0.1228,-0.0457, 2.0377, 0.8912, 2.8672,50.104382,-122.940341, 0.0013, 144.8823, 843.600891, 6.0, 3.0,Walking,High, 92.3343,-0.4122,-50.9172,-129.3798,-486.4419, 0.0000, 0.0000, 0.0000
06-Feb-2019 10:36:13.910, 0.5403,-0.7597, 0.2506,-0.0259, 0.0229,-0.0339,-0.1376, 0.2604,-0.0759, 2.0424, 0.8885, 2.8741,50.104382,-122.940341, 0.0013, 144.8823, 843.600891, 6.0, 3.0,Walking,High, 92.3343,-0.4122,-50.7675,-129.3033,-486.2923, 0.0000, 0.0000, 0.0000
06-Feb-2019 10:36:14.009, 0.4671,-0.7803, 0.3017,-0.0936,-0.0251, 0.0349,-0.1502, 0.1115,-0.1177, 2.0264, 0.8855, 2.9139,50.104382,-122.940341, 0.0013, 143.4449, 843.600891, 6.0, 3.0,Walking,High, 92.3343,-0.4122,-50.5413,-129.6026,-486.7451, 0.0000, 0.0000, 0.0000
06-Feb-2019 10:36:14.142, 0.5444,-0.7446, 0.2930,-0.0330,-0.0114, 0.0028,-0.1476, 0.1870,-0.1080, 2.0257, 0.8794, 2.9426,50.104382,-122.940341, 0.0013, 142.2287, 843.600891, 6.0, 3.0,Walking,High, 92.3343,-0.4122,-50.4655,-129.9033,-487.4220, 0.0000, 0.0000, 0.0000
06-Feb-2019 10:36:14.224, 0.4550,-0.6791, 0.2914,-0.1322, 0.1082,-0.0013,-0.3336, 0.4883, 0.0780, 2.0314, 0.8857, 2.9733,50.104382,-122.940342, 0.0051, 141.0001, 843.599915, 6.0, 3.0,Walking,High, 92.3343,-0.4122,-51.3622,-130.5110,-487.8701, 0.0000, 0.0000, 0.0000
06-Feb-2019 10:36:14.307, 0.3494,-0.7158, 0.2383,-0.1399, 0.1160,-0.0577,-1.0720, 1.4505, 1.0135, 2.1050, 0.9542, 2.9966,50.104382,-122.940342, 0.0051, 135.4824, 843.599915, 6.0, 3.0,Walking,High, 92.3343,-0.4122,-55.1826,-131.4415,-488.8287, 0.0000, 0.0000, 0.0000
06-Feb-2019 10:36:14.407, 0.3978,-1.0162, 0.1695, 0.0728,-0.0674,-0.0295,-1.7322, 0.8259, 1.0720, 2.1225, 1.1617, 3.1381,50.104382,-122.940342, 0.0051, 123.6865, 843.599915, 6.0, 3.0,Walking,High, 92.3343,-0.4122,-62.3740,-134.1308,-493.9776, 0.0000, 0.0000, 0.0000
06-Feb-2019 10:36:14.506, 0.2995,-1.1745, 0.2239, 0.0408,-0.2356, 0.1269,-0.2284, 0.1191, 0.1717, 1.9357, 1.2706,-2.8994,50.104382,-122.940342, 0.0051, 117.0226, 843.599915, 6.0, 3.0,Walking,High, 92.3343,-0.4122,-67.4007,-135.9831,-501.3092, 0.0000, 0.0000, 0.0000
06-Feb-2019 10:36:14.606, 0.2898,-0.9435, 0.0447, 0.0247,-0.0119,-0.0703, 0.0925, 0.1966,-0.0354, 2.0197, 1.2615,-2.9884,50.104382,-122.940342, 0.0051, 117.0226, 843.599915, 6.0, 3.0,Walking,High, 92.3343,-0.4122,-67.6258,-135.7583,-500.5569, 0.0000, 0.0000, 0.0000
06-Feb-2019 10:36:14.705, 0.2916,-0.9359, 0.1426, 0.0059, 0.0042, 0.0338,-0.0227,-0.1376, 0.0412, 1.9714, 1.2680,-2.9543,50.104382,-122.940342, 0.0051, 117.0226, 843.599915, 6.0, 3.0,Walking,High, 92.3343,-0.4122,-67.4765,-135.6823,-500.6323, 0.0000, 0.0000, 0.0000
06-Feb-2019 10:36:14.804, 0.1999,-0.9441, 0.1066,-0.0492,-0.0124,-0.0280, 0.0432,-0.2144,-0.0513, 2.0106, 1.2645,-2.9991,50.104382,-122.940342, 0.0051, 117.0226, 843.599915, 6.0, 3.0,Walking,High, 92.3343,-0.4122,-67.4767,-135.5314,-500.1815, 0.0000, 0.0000, 0.0000
06-Feb-2019 10:36:14.903, 0.2032,-0.9320, 0.0958,-0.0306, 0.0184,-0.0286,-0.1281,-0.1329, 0.0385, 1.9962, 1.2706,-2.9913,50.104382,-122.940342, 0.0051, 118.0662, 843.599915, 6.0, 3.0,Walking,High, 92.3343,-0.4122,-67.4022,-135.4559,-500.1816, 0.0000, 0.0000, 0.0000
06-Feb-2019 10:36:15.002, 0.2622,-0.9356, 0.0920, 0.0374, 0.0385,-0.0168,-0.1191,-0.1463,-0.0339, 1.9754, 1.2837,-2.9751,50.104382,-122.940342, 0.0051, 118.0662, 843.599915, 6.0, 3.0,Walking,High, 92.3343,-0.4122,-68.0000,-135.8358,-500.4052, 0.0000, 0.0000, 0.0000
06-Feb-2019 10:36:15.140, 0.2300,-0.9166, 0.0738, 0.0078, 0.0384,-0.0493, 0.1257, 0.0073,-0.0292, 1.9847, 1.2821,-2.9895,50.104382,-122.940342, 0.0051, 118.0662, 843.599915, 6.0, 3.0,Walking,High, 92.3343,-0.4122,-67.9260,-135.6853,-500.4048, 0.0000, 0.0000, 0.0000
06-Feb-2019 10:36:15.227, 0.2551,-1.0004, 0.1389, 0.0056,-0.0208,-0.0085, 0.0861, 0.0122, 0.0068, 2.0030, 1.2778,-3.0126,50.104380,-122.940342, 0.0039, 118.0662, 843.595215, 6.0, 3.0,Walking,High, 92.3343,-0.4122,-68.0028,-135.2345,-499.7272, 0.0000, 0.0000, 0.0000
06-Feb-2019 10:36:15.300, 0.2202,-0.9559, 0.1189,-0.0552, 0.0180,-0.0210,-0.0660, 0.0114,-0.0174, 2.0201, 1.2728,-3.0292,50.104380,-122.940342, 0.0039, 119.1140, 843.595215, 6.0, 3.0,Walking,High, 92.3343,-0.4122,-67.6264,-135.3058,-499.2796, 0.0000, 0.0000, 0.0000
06-Feb-2019 10:36:15.400, 0.2289,-0.9688, 0.1384,-0.0417, 0.0013, 0.0115,-0.0446,-0.0066,-0.0120, 2.0100, 1.2742,-3.0117,50.104380,-122.940342, 0.0039, 119.1140, 843.595215, 6.0, 3.0,Walking,High, 92.3343,-0.4122,-67.7007,-135.5322,-499.7303, 0.0000, 0.0000, 0.0000
06-Feb-2019 10:36:15.499, 0.2304,-0.9928, 0.1450,-0.0305,-0.0385, 0.0138,-0.0747, 0.0326, 0.0008, 2.0033, 1.2759,-3.0009,50.104380,-122.940342, 0.0039, 119.1140, 843.595215, 6.0, 3.0,Walking,High, 92.3342,-0.4042,-67.7008,-135.6078,-500.0307, 0.0000, 0.0000, 0.0000
06-Feb-2019 10:36:15.598, 0.2391,-0.9395, 0.1077,-0.0211, 0.0091,-0.0129,-0.0659,-0.0132, 0.0103, 2.0044, 1.2796,-2.9955,50.104380,-122.940342, 0.0039, 118.1025, 843.595215, 6.0, 3.0,Walking,High, 92.3342,-0.4042,-67.7753,-135.6834,-500.0307, 0.0000, 0.0000, 0.0000
06-Feb-2019 10:36:15.697, 0.2540,-0.9517, 0.1180,-0.0101, 0.0043, 0.0098, 0.0485,-0.1052, 0.0160, 2.0021, 1.2816,-2.9968,50.104380,-122.940342, 0.0039, 118.1025, 843.595215, 6.0, 3.0,Walking,High, 92.3342,-0.4042,-68.0754,-135.6858,-500.1040, 0.0000, 0.0000, 0.0000
06-Feb-2019 10:36:15.796, 0.2548,-0.9779, 0.1264,-0.0199, 0.0130, 0.0077, 0.1031,-0.2578,-0.0394, 2.0077, 1.2781,-3.0221,50.104380,-122.940342, 0.0039, 118.1025, 843.595215, 6.0, 3.0,Walking,High, 92.3342,-0.4042,-67.8511,-135.4582,-499.6541, 0.0000, 0.0000, 0.0000
06-Feb-2019 10:36:15.896, 0.3655,-1.0603, 0.1848, 0.0513,-0.1066, 0.0296, 0.6121,-0.9412,-0.8317, 1.9927, 1.2344,-3.0598,50.104380,-122.940342, 0.0039, 120.3620, 843.595215, 6.0, 3.0,Walking,High, 92.3342,-0.4042,-65.5990,-135.2880,-498.0157, 0.0000, 0.0000, 0.0000
06-Feb-2019 10:36:15.995, 0.3377,-0.9500, 0.2111,-0.0857,-0.0718, 0.0181, 1.1563,-1.2001,-1.1874, 2.0036, 1.0917, 3.0992,50.104380,-122.940342, 0.0039, 128.2529, 843.595215, 6.0, 3.0,Walking,High, 92.3342,-0.4042,-60.1236,-134.2644,-494.2157, 0.0000, 0.0000, 0.0000
06-Feb-2019 10:36:16.146, 0.4098,-0.8221, 0.1335,-0.0870, 0.0865,-0.0810, 0.4226,-0.2084,-0.5639, 1.9865, 0.9593, 3.0178,50.104380,-122.940342, 0.0039, 132.7748, 843.595215, 6.0, 3.0,Walking,High, 92.3342,-0.4042,-52.7848,-131.4257,-489.8918, 0.0000, 0.0000, 0.0000
06-Feb-2019 10:36:16.226, 0.4557,-0.6945, 0.1927,-0.0358, 0.0511, 0.0161,-0.3259,-0.0161,-0.1316, 1.9554, 0.9481, 3.0541,50.104380,-122.940343, 0.0134, 137.2273, 843.595886, 6.0, 3.0,Walking,High, 92.3342,-0.4042,-52.2552,-132.1723,-490.1985, 0.0000, 0.0000, 0.0000
06-Feb-2019 10:36:16.293, 0.5173,-0.8239, 0.2365,-0.0051,-0.0162, 0.0332, 0.1664,-0.1594,-0.0644, 1.9376, 0.9373, 3.0670,50.104380,-122.940343, 0.0134, 137.2273, 843.595886, 6.0, 3.0,Walking,High, 92.3342,-0.4042,-51.5076,-131.9425,-490.5764, 0.0000, 0.0000, 0.0000
06-Feb-2019 10:36:16.392, 0.5731,-0.7628, 0.2209, 0.0171, 0.0376, 0.0018, 0.0048,-0.0401,-0.0554, 1.9382, 0.9344, 3.0652,50.104380,-122.940343, 0.0134, 137.2273, 843.595886, 6.0, 3.0,Walking,High, 92.3342,-0.4042,-51.1311,-132.1648,-490.6546, 0.0000, 0.0000, 0.0000
06-Feb-2019 10:36:16.492, 0.5625,-0.8110, 0.2136,-0.0173,-0.0164,-0.0135,-0.1180, 0.1409,-0.0046, 1.9426, 0.9382, 3.0752,50.104380,-122.940343, 0.0134, 137.2273, 843.595886, 6.0, 3.0,Walking,High, 92.3342,-0.4042,-51.5049,-132.3175,-490.5783, 0.0000, 0.0000, 0.0000
06-Feb-2019 10:36:16.592, 0.5251,-0.7731, 0.2346,-0.0422,-0.0050, 0.0462, 0.0439,-0.1655,-0.0469, 1.9195, 0.9339, 3.0943,50.104380,-122.940343, 0.0134, 136.2102, 843.595886, 6.0, 3.0,Walking,High, 92.3342,-0.4042,-50.9074,-132.0889,-491.0305, 0.0000, 0.0000, 0.0000
06-Feb-2019 10:36:16.717, 0.5624,-0.7878, 0.1998,-0.0307, 0.0007,-0.0292, 0.0606,-0.1143,-0.0446, 1.9184, 0.9249, 3.0739,50.104380,-122.940343, 0.0134, 137.4611, 843.595886, 6.0, 3.0,Walking,High, 92.3342,-0.4042,-50.3834,-131.9348,-490.9576, 0.0000, 0.0000, 0.0000
06-Feb-2019 10:36:16.790, 0.6123,-0.8403, 0.2301, 0.0258,-0.0386, 0.0334, 0.0711,-0.0383,-0.1137, 1.9097, 0.9185, 3.0657,50.104380,-122.940343, 0.0134, 138.6552, 843.595886, 6.0, 3.0,Walking,High, 92.3342,-0.4042,-50.0845,-131.7071,-490.7331, 0.0000, 0.0000, 0.0000
06-Feb-2019 10:36:16.889, 0.4918,-0.7917, 0.1959,-0.1014,-0.0369,-0.0038, 0.0809,-0.1763,-0.1799, 1.9049, 0.8974, 3.0507,50.104380,-122.940343, 0.0134, 139.9283, 843.595886, 6.0, 3.0,Walking,High, 92.3342,-0.4042,-48.9615,-131.3985,-490.6628, 0.0000, 0.0000, 0.0000
06-Feb-2019 10:36:16.988, 0.5486,-0.7767, 0.1452,-0.0467, 0.0209,-0.0659,-0.0101, 0.0369, 0.0586, 1.9117, 0.8941, 3.0392,50.104380,-122.940343, 0.0134, 139.9283, 843.595886, 6.0, 3.0,Walking,High, 92.3342,-0.4042,-48.6634,-130.9450,-489.9871, 0.0000, 0.0000, 0.0000
06-Feb-2019 10:36:17.141, 0.5593,-0.8449, 0.2400,-0.0706, 0.0646,-0.0194,-0.1078,-0.1434, 0.0344, 1.8936, 0.9079, 3.0394,50.104380,-122.940343, 0.0134, 141.0786, 843.595886, 6.0, 3.0,Walking,High, 92.3342,-0.4042,-48.5875,-131.0945,-490.0633, 0.0000, 0.0000, 0.0000
06-Feb-2019 10:36:17.226, 0.5474,-0.7590, 0.1386,-0.0614, 0.0926,-0.0465,-0.2566, 0.1837, 0.1908, 1.9008, 0.9311, 3.0547,50.104380,-122.940344, 0.0149, 141.0786, 843.589722, 6.0, 3.0,Walking,High, 92.3342,-0.4042,-49.7841,-131.7044,-490.5098, 0.0000, 0.0000, 0.0000
06-Feb-2019 10:36:17.286, 0.5810,-0.8268, 0.1510, 0.0277, 0.0172,-0.0364,-0.7261, 0.4840, 0.4383, 1.9052, 0.9713, 3.0927,50.104380,-122.940344, 0.0149, 138.0334, 843.589722, 6.0, 3.0,Walking,High, 92.3340,-0.3831,-50.9053,-132.3889,-491.0320, 0.0000, 0.0000, 0.0000
06-Feb-2019 10:36:17.385, 0.6591,-0.9689, 0.2209, 0.1654,-0.0848, 0.0674,-0.5403, 0.3400, 0.1087, 1.8582, 1.0286,-3.0793,50.104380,-122.940344, 0.0149, 133.3084, 843.589722, 6.0, 3.0,Walking,High, 92.3340,-0.3831,-53.8984,-134.3682,-494.4754, 0.0000, 0.0000, 0.0000
06-Feb-2019 10:36:17.484, 0.4180,-0.7639, 0.2115,-0.0790, 0.0576, 0.0941, 0.2181,-0.0942,-0.0577, 1.8422, 1.0229,-3.0583,50.104380,-122.940344, 0.0149, 132.1922, 843.589722, 6.0, 3.0,Walking,High, 92.3340,-0.3831,-53.8228,-134.6691,-495.2273, 0.0000, 0.0000, 0.0000
06-Feb-2019 10:36:17.584, 0.4868,-0.7514, 0.1794, 0.0147, 0.1021, 0.0310, 0.2048, 0.0306, 0.0671, 1.8687, 1.0254,-3.0860,50.104380,-122.940344, 0.0149, 132.1922, 843.589722, 6.0, 3.0,Walking,High, 92.3340,-0.3831,-54.4233,-134.3721,-494.4725, 0.0000, 0.0000, 0.0000
06-Feb-2019 10:36:17.683, 0.4601,-0.8938, 0.1593,-0.0205,-0.0364, 0.0043, 0.2231,-0.0109, 0.2834, 1.9116, 1.0351, 3.1411,50.104380,-122.940344, 0.0149, 132.1922, 843.589722, 6.0, 3.0,Walking,High, 92.3340,-0.3831,-54.6468,-134.3723,-493.7213, 0.0000, 0.0000, 0.0000
06-Feb-2019 10:36:17.782, 0.5151,-0.7767, 0.1557, 0.0301, 0.0870,-0.0243, 0.0116,-0.3515, 0.0740, 1.9176, 1.0491, 3.1098,50.104380,-122.940344, 0.0149, 133.2920, 843.589722, 6.0, 3.0,Walking,High, 92.3340,-0.3831,-55.5517,-133.5532,-493.2623, 0.0000, 0.0000, 0.0000
06-Feb-2019 10:36:17.882, 0.3998,-0.8990, 0.1663,-0.0659,-0.0693, 0.0293, 0.3909,-0.3285,-0.0476, 1.9058, 1.0427, 3.0658,50.104380,-122.940344, 0.0149, 135.8809, 843.589722, 6.0, 3.0,Walking,High, 92.3340,-0.3831,-55.1002,-133.6993,-493.0405, 0.0000, 0.0000, 0.0000
06-Feb-2019 10:36:17.981, 0.3924,-0.8273, 0.1062,-0.0727, 0.0310,-0.0557, 0.2863, 0.0006,-0.0007, 1.9210, 1.0237, 3.0023,50.104380,-122.940344, 0.0149, 139.3136, 843.589722, 6.0, 3.0,Walking,High, 92.3340,-0.3831,-53.5284,-132.7844,-491.4695, 0.0000, 0.0000, 0.0000
06-Feb-2019 10:36:18.128, 0.4494,-0.9424, 0.1507,-0.0303,-0.0828,-0.0250,-0.0153,-0.1676, 0.0848, 1.9218, 1.0346, 2.9949,50.104380,-122.940344, 0.0149, 140.6160, 843.589722, 6.0, 3.0,Walking,High, 92.3340,-0.3831,-53.6042,-132.6347,-491.3184, 0.0000, 0.0000, 0.0000
06-Feb-2019 10:36:18.227, 0.4025,-0.9651, 0.1848,-0.0029, 0.0170,-0.0405,-0.0542, 0.1991, 0.1258, 1.9464, 1.0480, 2.9782,50.104380,-122.940344, 0.0022, 140.6160, 843.575317, 6.0, 3.0,Walking,High, 92.3340,-0.3831,-54.3547,-132.5653,-491.3139, 0.0000, 0.0000, 0.0000
06-Feb-2019 10:36:18.279, 0.4405,-0.8992, 0.1989,-0.0389,-0.0207, 0.0041, 0.0962,-0.6194,-0.2893, 1.9223, 1.0389, 2.9774,50.104380,-122.940344, 0.0022, 140.6160, 843.575317, 6.0, 3.0,Walking,High, 92.3340,-0.3831,-54.3517,-132.8644,-490.8654, 0.0000, 0.0000, 0.0000
06-Feb-2019 10:36:18.378, 0.4559,-0.9595, 0.1560,-0.0705,-0.1229,-0.0272, 0.5932,-0.0122,-0.4583, 1.9374, 0.9860, 2.9387,50.104380,-122.940344, 0.0022, 142.9238, 843.575317, 6.0, 3.0,Walking,High, 92.3340,-0.3831,-51.8080,-131.6431,-489.7483, 0.0000, 0.0000, 0.0000
06-Feb-2019 10:36:18.477, 0.4296,-0.7393, 0.1175,-0.1617, 0.0772,-0.1628,-0.5022, 0.2887,-0.1937, 1.9949, 0.9409, 2.9275,50.104380,-122.940344, 0.0022, 142.9369, 843.575317, 6.0, 3.0,Walking,High, 92.3340,-0.3831,-50.9124,-130.5834,-488.2480, 0.0000, 0.0000, 0.0000
06-Feb-2019 10:36:18.577, 0.5051,-0.8187, 0.2337,-0.0314,-0.0158, 0.0055,-0.3866, 0.5965,-0.3045, 1.9685, 0.9347, 3.0247,50.104380,-122.940344, 0.0022, 138.9125, 843.575317, 6.0, 3.0,Walking,High, 92.3340,-0.3831,-51.1341,-131.4880,-489.7513, 0.0000, 0.0000, 0.0000
06-Feb-2019 10:36:18.676, 0.6307,-0.8484, 0.2278, 0.0552,-0.0428, 0.0023,-0.4110, 0.2043,-0.6217, 1.9407, 0.9196, 3.1181,50.104380,-122.940344, 0.0022, 135.6184, 843.575317, 6.0, 3.0,Walking,High, 92.3340,-0.3831,-50.9806,-132.2387,-490.6559, 0.0000, 0.0000, 0.0000
06-Feb-2019 10:36:18.775, 0.5036,-0.7482, 0.1921,-0.1125, 0.0252,-0.0280,-0.1587, 0.8177,-0.4201, 1.9294, 0.8768,-3.0813,50.104380,-122.940344, 0.0022, 131.3496, 843.575317, 6.0, 3.0,Walking,High, 92.3340,-0.3831,-49.1805,-132.6026,-491.8676, 0.0000, 0.0000, 0.0000
06-Feb-2019 10:36:18.874, 0.5922,-0.7294, 0.1800,-0.0477, 0.0436,-0.0844,-0.8878, 0.6740,-0.2237, 1.9489, 0.8721,-2.9908,50.104380,-122.940344, 0.0022, 125.8048, 843.575317, 6.0, 3.0,Walking,High, 92.3340,-0.3831,-49.8546,-132.8334,-492.2400, 0.0000, 0.0000, 0.0000
06-Feb-2019 10:36:18.974, 0.6414,-0.7891, 0.3089, 0.0501,-0.0154, 0.0829,-0.8766, 0.6039,-0.2345, 1.9130, 0.8815,-2.8532,50.104380,-122.940344, 0.0022, 119.3922, 843.575317, 6.0, 3.0,Walking,High, 92.3340,-0.3831,-50.4499,-134.4948,-495.6950, 0.0000, 0.0000, 0.0000
06-Feb-2019 10:36:19.142, 0.7001,-0.7774, 0.2790, 0.0589, 0.0682, 0.0157,-0.3769, 0.2871,-0.3476, 1.8738, 0.8555,-2.7190,50.104380,-122.940344, 0.0022, 115.3168, 843.575317, 6.0, 3.0,Walking,High, 92.3340,-0.3831,-49.0276,-134.8644,-498.3297, 0.0000, 0.0000, 0.0000
06-Feb-2019 10:36:19.223, 0.6545,-0.6390, 0.1710, 0.0603, 0.1225,-0.0851,-0.0859, 0.5034,-0.2904, 1.9041, 0.8338,-2.7008,50.104380,-122.940344, 0.0022, 112.6104, 843.575317, 6.0, 3.0,Walking,High, 92.3340,-0.3831,-48.2004,-135.1580,-498.2607, 0.0000, 0.0000, 0.0000
06-Feb-2019 10:36:19.272, 0.7068,-0.6813, 0.1762, 0.0828, 0.0616,-0.0863,-0.3444, 0.8053,-0.3082, 1.9374, 0.8167,-2.6867,50.104380,-122.940344, 0.0017, 109.9839, 843.576477, 6.0, 3.0,Walking,High, 92.3340,-0.3831,-48.3503,-134.9325,-497.4337, 0.0000, 0.0000, 0.0000
06-Feb-2019 10:36:19.371, 0.6709,-0.6398, 0.3059, 0.0119, 0.0797, 0.0723,-0.2654, 0.6399,-0.1323, 1.9362, 0.8112,-2.6018,50.104380,-122.940344, 0.0017, 104.3980, 843.576477, 6.0, 3.0,Walking,High, 92.3340,-0.3831,-48.0511,-135.2331,-498.8619, 0.0000, 0.0000, 0.0000
06-Feb-2019 10:36:19.470, 0.6005,-0.7509, 0.2074,-0.0111,-0.0155,-0.0646,-0.4467, 0.6009,-0.0129, 1.9741, 0.8109,-2.5744,50.104380,-122.940344, 0.0017, 101.9024, 843.576477, 6.0, 3.0,Walking,High, 92.3340,-0.3831,-48.1255,-135.3841,-499.0872, 0.0000, 0.0000, 0.0000
06-Feb-2019 10:36:19.569, 0.6597,-0.6653, 0.2527, 0.0167, 0.0880, 0.0026,-0.4830, 0.4774,-0.0452, 1.9548, 0.8285,-2.4930,50.104380,-122.940344, 0.0017, 97.8974, 843.576477, 6.0, 3.0,Walking,High, 92.3340,-0.3831,-48.5011,-135.9163,-501.2628, 0.0000, 0.0000, 0.0000
06-Feb-2019 10:36:19.669, 0.3221,-0.6811, 0.2521,-0.2336, 0.0785, 0.0280,-1.2287, 0.9961, 0.8479, 1.9592, 0.8830,-2.4039,50.104380,-122.940344, 0.0017, 91.9652, 843.576477, 6.0, 3.0,Walking,High, 92.3340,-0.3831,-49.7009,-136.4539,-503.0589, 0.0000, 0.0000, 0.0000
06-Feb-2019 10:36:19.768, 0.3366,-0.9020, 0.1888,-0.1047, 0.0075, 0.0338,-1.6566, 0.5412, 2.2362, 1.9306, 1.0896,-2.2644,50.104380,-122.940344, 0.0017, 82.9164, 843.576477, 6.0, 3.0,Walking,High, 92.3340,-0.3831,-58.7784,-138.1110,-510.0673, 0.0000, 0.0000, 0.0000
06-Feb-2019 10:36:19.867, 0.5152,-1.1714, 0.2117, 0.1835,-0.1943, 0.0828,-0.5588, 1.0327, 0.7000, 1.7525, 1.2935,-2.0320,50.104380,-122.940344, 0.0017, 77.0646, 843.576477, 6.0, 3.0,Walking,High, 92.3340,-0.3831,-65.9192,-137.4256,-515.5746, 0.0000, 0.0000, 0.0000
06-Feb-2019 10:36:19.966, 0.2048,-0.9194,-0.0705,-0.0040, 0.0392,-0.1086,-0.6195, 0.5642,-0.0969, 1.6163, 1.3065,-1.7689,50.104380,-122.940344, 0.0017, 69.7204, 843.576477, 6.0, 3.0,Walking,High, 92.3340,-0.3831,-66.0836,-136.6105,-519.9196, 0.0000, 0.0000, 0.0000
06-Feb-2019 10:36:20.142, 0.1541,-1.0800,-0.0010,-0.0866,-0.1238,-0.0014, 0.0426,-0.4905, 0.2135, 1.4956, 1.3298,-1.6515,50.104380,-122.940344, 0.0017, 68.4318, 843.576477, 6.0, 3.0,Walking,High, 92.3341,-0.3937,-66.8391,-136.1685,-521.1133, 0.0000, 0.0000, 0.0000
06-Feb-2019 10:36:20.226, 0.2805,-1.0172,-0.1274,-0.0457,-0.0433,-0.0849,-0.1903, 0.5498, 0.4624, 1.4634, 1.3543,-1.6465,50.104380,-122.940344, 0.0017, 69.7597, 843.576477, 6.0, 3.0,Walking,High, 92.3341,-0.3937,-68.6437,-135.4316,-520.8746, 0.0000, 0.0000, 0.0000
06-Feb-2019 10:36:20.264, 0.2873,-1.0320, 0.0024, 0.0416, 0.0208, 0.0122, 0.5519,-2.7862,-0.3825, 1.5160, 1.3413,-1.8538,50.104381,-122.940343, 0.0136, 75.1068, 843.571045, 6.0, 3.0,Walking,High, 92.3341,-0.3937,-68.8577,-136.3284,-518.4780, 0.0000, 0.0000, 0.0000
06-Feb-2019 10:36:20.363,-0.0098,-0.7255, 0.1310,-0.2350, 0.1950, 0.1399, 0.1913,-0.8735, 0.1560, 1.4906, 1.3347,-2.0095,50.104381,-122.940343, 0.0136, 87.8167, 843.571045, 6.0, 3.0,Walking,High, 92.3341,-0.3937,-69.6743,-136.4017,-514.5739, 0.0000, 0.0000, 0.0000
06-Feb-2019 10:36:20.463, 0.2728,-1.0095,-0.1186, 0.0854,-0.0406,-0.1009, 0.2823,-1.1993, 0.0792, 1.5360, 1.3629,-2.1557,50.104381,-122.940343, 0.0136, 93.3488, 843.571045, 6.0, 3.0,Walking,High, 92.3341,-0.3937,-70.7176,-136.7805,-512.5450, 0.0000, 0.0000, 0.0000
06-Feb-2019 10:36:20.562, 0.2142,-0.9723,-0.1188, 0.0149,-0.0200,-0.0915,-0.2792, 0.5038, 0.0240, 1.5054, 1.3696,-2.1308,50.104381,-122.940343, 0.0136, 96.6195, 843.571045, 6.0, 3.0,Walking,High, 92.3341,-0.3937,-71.3975,-136.1107,-512.6129, 0.0000, 0.0000, 0.0000
06-Feb-2019 10:36:20.662, 0.2943,-0.9323,-0.0307, 0.1073, 0.0567, 0.0068,-0.0462,-0.4636, 0.0756, 1.4012, 1.3611,-2.0357,50.104381,-122.940343, 0.0136, 95.4103, 843.571045, 6.0, 3.0,Walking,High, 92.3341,-0.3937,-70.8721,-136.3330,-513.2169, 0.0000, 0.0000, 0.0000
06-Feb-2019 10:36:20.761, 0.2166,-0.8934,-0.0855, 0.0206, 0.0591,-0.0559, 0.1835,-0.6297, 0.1234, 1.3884, 1.3839,-2.0653,50.104381,-122.940343, 0.0136, 96.8669, 843.571045, 6.0, 3.0,Walking,High, 92.3341,-0.3937,-72.2965,-136.1165,-512.1580, 0.0000, 0.0000, 0.0000
06-Feb-2019 10:36:20.860, 0.1968,-1.0441,-0.0620, 0.0529,-0.0305,-0.0628, 0.5661,-1.5997, 0.0405, 1.5347, 1.3899,-2.3322,50.104381,-122.940343, 0.0136, 103.0812, 843.571045, 6.0, 3.0,Walking,High, 92.3341,-0.3937,-72.0652,-136.1840,-509.2346, 0.0000, 0.0000, 0.0000
06-Feb-2019 10:36:20.959, 0.0178,-0.8608,-0.0141,-0.2951, 0.0118,-0.0595,-0.2551, 0.1949, 0.2888, 1.5798, 1.4020,-2.4431,50.104381,-122.940343, 0.0136, 109.2850, 843.571045, 6.0, 3.0,Walking,High, 92.3341,-0.3937,-72.0596,-136.2538,-506.6850, 0.0000, 0.0000, 0.0000
06-Feb-2019 10:36:21.142, 0.0715,-1.1010,-0.0919,-0.1789,-0.0047, 0.0240,-0.2367,-0.5065,-0.0756, 1.4717, 1.3942,-2.4227,50.104381,-122.940343, 0.0136, 111.6317, 843.571045, 6.0, 3.0,Walking,High, 92.3341,-0.3937,-71.7613,-135.9511,-506.4601, 0.0000, 0.0000, 0.0000
06-Feb-2019 10:36:21.159, 0.0506,-0.9540,-0.0367,-0.0949, 0.0088,-0.0125, 0.1259,-0.3622, 0.0085, 1.4897, 1.3940,-2.4675,50.104381,-122.940343, 0.0136, 114.9681, 843.571045, 6.0, 3.0,Walking,High, 92.3341,-0.3937,-71.7597,-136.0251,-505.9355, 0.0000, 0.0000, 0.0000
06-Feb-2019 10:36:21.258, 0.1172,-1.0573, 0.0062,-0.0240,-0.0831, 0.0286,-0.0358, 0.1330, 0.1662, 1.4892, 1.4073,-2.4759,50.104381,-122.940342, 0.0288, 116.1934, 843.586609, 6.0, 3.0,Walking,High, 92.3341,-0.3937,-72.0578,-136.1010,-505.2592, 0.0000, 0.0000, 0.0000
06-Feb-2019 10:36:21.356, 0.1690,-0.9328,-0.0149, 0.0240, 0.0898,-0.0010, 0.2057,-0.4946,-0.0254, 1.5780, 1.4161,-2.5807,50.104381,-122.940342, 0.0288, 116.1934, 843.586609, 6.0, 3.0,Walking,High, 92.3341,-0.3937,-72.4344,-135.6523,-504.5049, 0.0000, 0.0000, 0.0000
06-Feb-2019 10:36:21.456, 0.1072,-0.9671, 0.0103,-0.0700,-0.0067, 0.0138,-0.2108, 0.2205,-0.0699, 1.5558, 1.4080,-2.5710,50.104381,-122.940342, 0.0288, 117.3436, 843.586609, 6.0, 3.0,Walking,High, 92.3341,-0.3937,-71.9831,-135.6476,-503.8323, 0.0000, 0.0000, 0.0000
06-Feb-2019 10:36:21.555, 0.1334,-0.9720,-0.0038,-0.0333, 0.0278, 0.0225, 0.0910,-0.2068,-0.0415, 1.5193, 1.4064,-2.5219,50.104381,-122.940342, 0.0288, 117.3436, 843.586609, 6.0, 3.0,Walking,High, 92.3341,-0.3937,-71.7594,-135.7227,-504.7339, 0.0000, 0.0000, 0.0000
06-Feb-2019 10:36:21.654, 0.1514,-0.9643, 0.0459,-0.0221, 0.0459, 0.0532, 0.0945,-0.3790,-0.0737, 1.5677, 1.4048,-2.5918,50.104381,-122.940342, 0.0288, 117.3436, 843.586609, 6.0, 3.0,Walking,High, 92.3341,-0.3937,-71.5314,-135.9445,-503.9863, 0.0000, 0.0000, 0.0000
06-Feb-2019 10:36:21.754, 0.1737,-0.9825, 0.0188, 0.0024, 0.0274, 0.0455, 0.0735,-0.2438,-0.1087, 1.5475, 1.4005,-2.6029,50.104381,-122.940342, 0.0288, 120.0393, 843.586609, 6.0, 3.0,Walking,High, 92.3341,-0.3937,-71.1548,-136.0910,-503.6891, 0.0000, 0.0000, 0.0000
06-Feb-2019 10:36:21.853, 0.1417,-0.9783, 0.0108,-0.0328, 0.0043, 0.0267,-0.0351,-0.0655,-0.3135, 1.5180, 1.3869,-2.5915,50.104381,-122.940342, 0.0288, 121.2995, 843.586609, 6.0, 3.0,Walking,High, 92.3341,-0.3937,-70.8531,-136.2382,-503.3915, 0.0000, 0.0000, 0.0000
06-Feb-2019 10:36:21.952, 0.1370,-0.8771,-0.0027,-0.0816, 0.1110, 0.0310, 0.1042,-0.2716,-0.2439, 1.5137, 1.3645,-2.5960,50.104381,-122.940342, 0.0288, 121.2995, 843.586609, 6.0, 3.0,Walking,High, 92.3350,-0.4730,-69.5765,-136.5291,-503.6250, 0.0000, 0.0000, 0.0000
