Timestamp,accelX(g),accelY(g),accelZ(g),accelUserX(g),accelUserY(g),accelUserZ(g),gyroX(rad/s),gyroY(rad/s),gyroZ(rad/s),Roll(rads),Pitch(rads),Yaw(rads),Lat,Long,Speed(m/s),TrueHeading,Alt(m), HorizontalAccuracy(m), VerticalAccuracy(m),ActivityType,ActivityConfidence,Pressure(kilopascals),RelativeAltitude(meters),magX(µT),magY(µT),magZ(µT),calMagX,calMagY,calMagZ
23-Jan-2019 09:45:23.558, 0.1275,-0.3662,-0.8497, 0.0462,-0.0206, 0.0852,-0.0070, 0.0679, 0.0267, 0.0868, 0.3528, 2.8967,49.737138,-123.098393, 3.4476, 340.2193, 140.842133, 6.0, 3.0,Walking,High, 100.8100,-0.4624,-146.4292, 33.5323,-534.7520, 0.0000, 0.0000, 0.0000
23-Jan-2019 09:45:23.559, 0.1275,-0.3662,-0.8497, 0.0472,-0.0218, 0.0857,-0.2598,-0.2309,-0.0837, 0.0857, 0.3516, 2.8965,49.737138,-123.098393, 3.4476, 340.2193, 140.842133, 6.0, 3.0,Walking,High, 100.8100,-0.4624,-146.4292, 33.5323,-534.7520, 0.0000, 0.0000, 0.0000
23-Jan-2019 09:45:23.560, 0.1275,-0.3662,-0.8497, 0.0472,-0.0218, 0.0857,-0.2598,-0.2309,-0.0837, 0.0857, 0.3516, 2.8965,49.737138,-123.098393, 3.4476, 340.2193, 140.842133, 6.0, 3.0,Walking,High, 100.8100,-0.4624,-146.4292, 33.5323,-534.7520, 0.0000, 0.0000, 0.0000
23-Jan-2019 09:45:23.561, 0.1275,-0.3662,-0.8497, 0.0472,-0.0218, 0.0857,-0.2598,-0.2309,-0.0837, 0.0857, 0.3516, 2.8965,49.737138,-123.098393, 3.4476, 340.2193, 140.842133, 6.0, 3.0,Walking,High, 100.8100,-0.4624,-146.4292, 33.5323,-534.7520, 0.0000, 0.0000, 0.0000
23-Jan-2019 09:45:23.561, 0.1336,-0.3598,-0.8535, 0.0472,-0.0218, 0.0857,-0.2598,-0.2309,-0.0837, 0.0857, 0.3516, 2.8965,49.737138,-123.098393, 3.4476, 340.2193, 140.842133, 6.0, 3.0,Walking,High, 100.8100,-0.4624,-148.1433, 32.3974,-533.2483, 0.0000, 0.0000, 0.0000
23-Jan-2019 09:45:23.562, 0.1336,-0.3598,-0.8535, 0.0472,-0.0218, 0.0857,-0.2598,-0.2309,-0.0837, 0.0857, 0.3516, 2.8965,49.737138,-123.098393, 3.4476, 340.2193, 140.842133, 6.0, 3.0,Walking,High, 100.8100,-0.4624,-148.1433, 32.3974,-533.2483, 0.0000, 0.0000, 0.0000
23-Jan-2019 09:45:23.564, 0.1336,-0.3598,-0.8535, 0.0472,-0.0218, 0.0857,-0.2598,-0.2309,-0.0837, 0.0857, 0.3516, 2.8965,49.737138,-123.098393, 3.4476, 340.2193, 140.842133, 6.0, 3.0,Walking,High, 100.8100,-0.4624,-148.1433, 32.3974,-533.2483, 0.0000, 0.0000, 0.0000
23-Jan-2019 09:45:23.580, 0.1329,-0.3555,-0.8609, 0.0571,-0.0155, 0.0765,-0.2533,-0.2897,-0.0316, 0.0806, 0.3469, 2.8962,49.737138,-123.098393, 3.4476, 340.2193, 140.842133, 6.0, 3.0,Walking,High, 100.8100,-0.4624,-148.1433, 32.3974,-533.2483, 0.0000, 0.0000, 0.0000
23-Jan-2019 09:45:23.581, 0.1215,-0.3533,-0.8642, 0.0571,-0.0155, 0.0765,-0.2533,-0.2897,-0.0316, 0.0806, 0.3469, 2.8962,49.737138,-123.098393, 3.4476, 340.2193, 140.842133, 6.0, 3.0,Walking,High, 100.8100,-0.4624,-148.1433, 32.3974,-533.2483, 0.0000, 0.0000, 0.0000
23-Jan-2019 09:45:23.596, 0.1086,-0.3537,-0.8724, 0.0367,-0.0167, 0.0664,-0.2355,-0.2653,-0.0059, 0.0765, 0.3438, 2.8965,49.737138,-123.098393, 3.4476, 340.2193, 140.842133, 6.0, 3.0,Walking,High, 100.8100,-0.4624,-148.1433, 32.3974,-533.2483, 0.0000, 0.0000, 0.0000
23-Jan-2019 09:45:23.596, 0.1086,-0.3537,-0.8724, 0.0367,-0.0167, 0.0664,-0.2355,-0.2653,-0.0059, 0.0765, 0.3438, 2.8965,49.737138,-123.098393, 3.4476, 340.2193, 140.842133, 6.0, 3.0,Walking,High, 100.8100,-0.4624,-148.1433, 32.3974,-533.2483, 0.0000, 0.0000, 0.0000
23-Jan-2019 09:45:23.597, 0.1086,-0.3537,-0.8724, 0.0367,-0.0167, 0.0664,-0.2355,-0.2653,-0.0059, 0.0765, 0.3438, 2.8965,49.737138,-123.098393, 3.4476, 340.2193, 140.842133, 6.0, 3.0,Walking,High, 100.8100,-0.4624,-148.1433, 32.3974,-533.2483, 0.0000, 0.0000, 0.0000
23-Jan-2019 09:45:23.601, 0.1004,-0.3585,-0.8817, 0.0378,-0.0177, 0.0668,-0.2355,-0.2653,-0.0059, 0.0753, 0.3427, 2.8966,49.737138,-123.098393, 3.4476, 340.2193, 140.842133, 6.0, 3.0,Walking,High, 100.8100,-0.4624,-148.6586, 31.5724,-531.2996, 0.0000, 0.0000, 0.0000
23-Jan-2019 09:45:23.611, 0.0998,-0.3620,-0.8900, 0.0314,-0.0244, 0.0583,-0.2262,-0.2183,-0.0218, 0.0732, 0.3406, 2.8967,49.737138,-123.098393, 3.4476, 340.2193, 140.842133, 6.0, 3.0,Walking,High, 100.8100,-0.4624,-148.6586, 31.5724,-531.2996, 0.0000, 0.0000, 0.0000
23-Jan-2019 09:45:23.621, 0.1032,-0.3593,-0.8968, 0.0320,-0.0298, 0.0508,-0.2222,-0.1585,-0.0483, 0.0719, 0.3386, 2.8964,49.737138,-123.098393, 3.4476, 340.2193, 140.842133, 6.0, 3.0,Walking,High, 100.8100,-0.4624,-148.6586, 31.5724,-531.2996, 0.0000, 0.0000, 0.0000
23-Jan-2019 09:45:23.630, 0.1100,-0.3554,-0.9043, 0.0360,-0.0291, 0.0447,-0.2278,-0.1021,-0.0674, 0.0712, 0.3365, 2.8960,49.737138,-123.098393, 3.4476, 340.2193, 140.842133, 6.0, 3.0,Walking,High, 100.8100,-0.4624,-148.6586, 31.5724,-531.2996, 0.0000, 0.0000, 0.0000
23-Jan-2019 09:45:23.640, 0.1209,-0.3524,-0.9083, 0.0430,-0.0273, 0.0379,-0.2429,-0.0574,-0.0770, 0.0710, 0.3343, 2.8955,49.737138,-123.098393, 3.4476, 340.2193, 140.842133, 6.0, 3.0,Walking,High, 100.8100,-0.4624,-149.9246, 30.8167,-529.4214, 0.0000, 0.0000, 0.0000
23-Jan-2019 09:45:23.650, 0.1352,-0.3479,-0.9126, 0.0539,-0.0265, 0.0347,-0.2591,-0.0341,-0.0738, 0.0709, 0.3319, 2.8950,49.737138,-123.098393, 3.4476, 340.2193, 140.842133, 6.0, 3.0,Walking,High, 100.8100,-0.4624,-149.9246, 30.8167,-529.4214, 0.0000, 0.0000, 0.0000
23-Jan-2019 09:45:23.660, 0.1465,-0.3440,-0.9222, 0.0683,-0.0245, 0.0313,-0.2739,-0.0566,-0.0643, 0.0707, 0.3294, 2.8946,49.737138,-123.098393, 3.4476, 340.2193, 140.842133, 6.0, 3.0,Walking,High, 100.8100,-0.4624,-149.9246, 30.8167,-529.4214, 0.0000, 0.0000, 0.0000
23-Jan-2019 09:45:23.670, 0.1514,-0.3428,-0.9321, 0.0803,-0.0229, 0.0225,-0.2662,-0.0992,-0.0505, 0.0700, 0.3269, 2.8943,49.737138,-123.098393, 3.4476, 341.2545, 140.842133, 6.0, 3.0,Walking,High, 100.8100,-0.4624,-149.9246, 30.8167,-529.4214, 0.0000, 0.0000, 0.0000
23-Jan-2019 09:45:23.680, 0.1590,-0.3450,-0.9474, 0.0862,-0.0235, 0.0133,-0.2255,-0.1394,-0.0514, 0.0689, 0.3249, 2.8941,49.737138,-123.098393, 3.4476, 341.2545, 140.842133, 6.0, 3.0,Walking,High, 100.8100,-0.4624,-150.5188, 30.4404,-527.8450, 0.0000, 0.0000, 0.0000
23-Jan-2019 09:45:23.690, 0.1566,-0.3397,-0.9609, 0.0950,-0.0271,-0.0014,-0.1550,-0.1698,-0.0543, 0.0675, 0.3236, 2.8937,49.737138,-123.098393, 3.4476, 341.2545, 140.842133, 6.0, 3.0,Walking,High, 100.8100,-0.4624,-150.5188, 30.4404,-527.8450, 0.0000, 0.0000, 0.0000
23-Jan-2019 09:45:23.700, 0.1405,-0.3277,-0.9683, 0.0937,-0.0223,-0.0147,-0.0806,-0.1545,-0.0529, 0.0663, 0.3230, 2.8933,49.737138,-123.098393, 3.4476, 341.2545, 140.842133, 6.0, 3.0,Walking,High, 100.8100,-0.4624,-150.5188, 30.4404,-527.8450, 0.0000, 0.0000, 0.0000
23-Jan-2019 09:45:23.710, 0.1307,-0.3212,-0.9733, 0.0785,-0.0104,-0.0220,-0.0363,-0.1160,-0.0398, 0.0655, 0.3229, 2.8930,49.737138,-123.098393, 3.4476, 341.2545, 140.842133, 6.0, 3.0,Walking,High, 100.8100,-0.4624,-150.5188, 30.4404,-527.8450, 0.0000, 0.0000, 0.0000
23-Jan-2019 09:45:23.720, 0.1317,-0.3210,-0.9747, 0.0692,-0.0039,-0.0269,-0.0227,-0.0883,-0.0237, 0.0649, 0.3229, 2.8928,49.737138,-123.098393, 3.4476, 341.2545, 140.842133, 6.0, 3.0,Walking,High, 100.8100,-0.4624,-151.3351, 29.5367,-526.6450, 0.0000, 0.0000, 0.0000
23-Jan-2019 09:45:23.730, 0.1352,-0.3206,-0.9684, 0.0706,-0.0038,-0.0284,-0.0367,-0.0683,-0.0131, 0.0645, 0.3228, 2.8928,49.737138,-123.098393, 3.4476, 341.2545, 140.842133, 6.0, 3.0,Walking,High, 100.8100,-0.4624,-151.3351, 29.5367,-526.6450, 0.0000, 0.0000, 0.0000
23-Jan-2019 09:45:23.740, 0.1367,-0.3202,-0.9574, 0.0742,-0.0036,-0.0220,-0.0613,-0.0535,-0.0111, 0.0643, 0.3225, 2.8927,49.737138,-123.098393, 3.4476, 341.2545, 140.842133, 6.0, 3.0,Walking,High, 100.8100,-0.4624,-151.3351, 29.5367,-526.6450, 0.0000, 0.0000, 0.0000
23-Jan-2019 09:45:23.750, 0.1353,-0.3221,-0.9550, 0.0758,-0.0038,-0.0108,-0.0901,-0.0473,-0.0176, 0.0642, 0.3219, 2.8926,49.737138,-123.098393, 3.4476, 341.2545, 140.842133, 6.0, 3.0,Walking,High, 100.8100,-0.4624,-151.3351, 29.5367,-526.6450, 0.0000, 0.0000, 0.0000
23-Jan-2019 09:45:23.760, 0.1333,-0.3259,-0.9546, 0.0742,-0.0065,-0.0081,-0.1092,-0.0366,-0.0390, 0.0643, 0.3211, 2.8923,49.737138,-123.098393, 3.4476, 341.2545, 140.842133, 6.0, 3.0,Walking,High, 100.8100,-0.4624,-152.0070, 29.3082,-525.8925, 0.0000, 0.0000, 0.0000
23-Jan-2019 09:45:23.770, 0.1315,-0.3276,-0.9455, 0.0719,-0.0111,-0.0074,-0.1113,-0.0131,-0.0613, 0.0648, 0.3202, 2.8918,49.737138,-123.098393, 3.4476, 341.2545, 140.842133, 6.0, 3.0,Walking,High, 100.8100,-0.4624,-152.0070, 29.3082,-525.8925, 0.0000, 0.0000, 0.0000
23-Jan-2019 09:45:23.780, 0.1324,-0.3267,-0.9405, 0.0694,-0.0138, 0.0020,-0.1178, 0.0146,-0.0751, 0.0655, 0.3192, 2.8911,49.737138,-123.098393, 3.4476, 341.2545, 140.842133, 6.0, 3.0,Walking,High, 100.8100,-0.4624,-152.0070, 29.3082,-525.8925, 0.0000, 0.0000, 0.0000
23-Jan-2019 09:45:23.790, 0.1354,-0.3258,-0.9388, 0.0697,-0.0141, 0.0073,-0.1413, 0.0219,-0.0657, 0.0661, 0.3179, 2.8906,49.737138,-123.098393, 3.4476, 341.2545, 140.842133, 6.0, 3.0,Walking,High, 100.8100,-0.4624,-152.0070, 29.3082,-525.8925, 0.0000, 0.0000, 0.0000
23-Jan-2019 09:45:23.799, 0.1395,-0.3255,-0.9343, 0.0723,-0.0147, 0.0095,-0.1691, 0.0067,-0.0371, 0.0665, 0.3163, 2.8904,49.737138,-123.098393, 3.4476, 341.2545, 140.842133, 6.0, 3.0,Walking,High, 100.8100,-0.4624,-152.6006, 28.6304,-525.0676, 0.0000, 0.0000, 0.0000
23-Jan-2019 09:45:23.809, 0.1418,-0.3238,-0.9335, 0.0764,-0.0161, 0.0146,-0.1945,-0.0330,-0.0074, 0.0664, 0.3146, 2.8905,49.737138,-123.098393, 3.4476, 341.2545, 140.842133, 6.0, 3.0,Walking,High, 100.8100,-0.4624,-152.6006, 28.6304,-525.0676, 0.0000, 0.0000, 0.0000
23-Jan-2019 09:45:23.819, 0.1378,-0.3222,-0.9390, 0.0794,-0.0161, 0.0159,-0.1996,-0.0939, 0.0233, 0.0656, 0.3128, 2.8910,49.737138,-123.098393, 3.4476, 341.2545, 140.842133, 6.0, 3.0,Walking,High, 100.8100,-0.4624,-152.6006, 28.6304,-525.0676, 0.0000, 0.0000, 0.0000
23-Jan-2019 09:45:23.829, 0.1310,-0.3221,-0.9471, 0.0768,-0.0161, 0.0110,-0.1876,-0.1503, 0.0478, 0.0642, 0.3111, 2.8916,49.737138,-123.098393, 3.4476, 341.2545, 140.842133, 6.0, 3.0,Walking,High, 100.8100,-0.4624,-152.6006, 28.6304,-525.0676, 0.0000, 0.0000, 0.0000
23-Jan-2019 09:45:23.839, 0.1226,-0.3225,-0.9578, 0.0718,-0.0172, 0.0035,-0.1480,-0.2002, 0.0671, 0.0622, 0.3099, 2.8925,49.737138,-123.098393, 3.4476, 341.2545, 140.842133, 6.0, 3.0,Walking,High, 100.8100,-0.4624,-153.3456, 28.1766,-524.1658, 0.0000, 0.0000, 0.0000
23-Jan-2019 09:45:23.849, 0.1098,-0.3191,-0.9713, 0.0655,-0.0184,-0.0069,-0.1064,-0.2256, 0.0864, 0.0599, 0.3090, 2.8935,49.737138,-123.098393, 3.4476, 341.2545, 140.842133, 6.0, 3.0,Walking,High, 100.8100,-0.4624,-153.3456, 28.1766,-524.1658, 0.0000, 0.0000, 0.0000
23-Jan-2019 09:45:23.859, 0.0933,-0.3100,-0.9747, 0.0549,-0.0153,-0.0201,-0.0618,-0.2319, 0.1015, 0.0576, 0.3087, 2.8947,49.737138,-123.098393, 3.4476, 341.2545, 140.842133, 6.0, 3.0,Walking,High, 100.8100,-0.4624,-153.3456, 28.1766,-524.1658, 0.0000, 0.0000, 0.0000
23-Jan-2019 09:45:23.869, 0.0812,-0.3041,-0.9722, 0.0406,-0.0062,-0.0234,-0.0236,-0.2200, 0.1103, 0.0553, 0.3087, 2.8959,49.737138,-123.098393, 3.4476, 341.2545, 140.842133, 6.0, 3.0,Walking,High, 100.8100,-0.4624,-153.3456, 28.1766,-524.1658, 0.0000, 0.0000, 0.0000
23-Jan-2019 09:45:23.879, 0.0752,-0.3106,-0.9629, 0.0306, 0.0000,-0.0209, 0.0051,-0.2166, 0.1104, 0.0531, 0.3090, 2.8971,49.737138,-123.098393, 3.4476, 341.2545, 140.842133, 6.0, 3.0,Walking,High, 100.8100,-0.4624,-153.3418, 27.9538,-523.0419, 0.0000, 0.0000, 0.0000
23-Jan-2019 09:45:23.889, 0.0783,-0.3191,-0.9499, 0.0269,-0.0060,-0.0116, 0.0256,-0.2431, 0.1062, 0.0507, 0.3096, 2.8982,49.737138,-123.098393, 3.4476, 341.2545, 140.842133, 6.0, 3.0,Walking,High, 100.8100,-0.4624,-153.3418, 27.9538,-523.0419, 0.0000, 0.0000, 0.0000
23-Jan-2019 09:45:23.899, 0.0864,-0.3234,-0.9352, 0.0327,-0.0137, 0.0013, 0.0473,-0.2961, 0.0881, 0.0478, 0.3103, 2.8991,49.737138,-123.098393, 3.4476, 341.2545, 140.842133, 6.0, 3.0,Walking,High, 100.8100,-0.4624,-153.3418, 27.9538,-523.0419, 0.0000, 0.0000, 0.0000
23-Jan-2019 09:45:23.909, 0.0934,-0.3274,-0.9228, 0.0440,-0.0171, 0.0158, 0.0734,-0.3500, 0.0573, 0.0445, 0.3112, 2.8997,49.737138,-123.098393, 3.4476, 341.2545, 140.842133, 6.0, 3.0,Walking,High, 100.8100,-0.4624,-153.3418, 27.9538,-523.0419, 0.0000, 0.0000, 0.0000
23-Jan-2019 09:45:23.919, 0.0930,-0.3293,-0.9148, 0.0545,-0.0201, 0.0280, 0.0951,-0.3913, 0.0296, 0.0409, 0.3124, 2.9001,49.737138,-123.098393, 3.4476, 341.2545, 140.842133, 6.0, 3.0,Walking,High, 100.8100,-0.4624,-153.7867, 27.3514,-522.5925, 0.0000, 0.0000, 0.0000
23-Jan-2019 09:45:23.929, 0.0818,-0.3231,-0.9118, 0.0574,-0.0209, 0.0358, 0.1036,-0.3879, 0.0169, 0.0374, 0.3136, 2.9002,49.737138,-123.098393, 3.4476, 341.2545, 140.842133, 6.0, 3.0,Walking,High, 100.8100,-0.4624,-153.7867, 27.3514,-522.5925, 0.0000, 0.0000, 0.0000
23-Jan-2019 09:45:23.938, 0.0697,-0.3141,-0.9207, 0.0493,-0.0137, 0.0386, 0.0821,-0.3518, 0.0094, 0.0341, 0.3145, 2.9003,49.737138,-123.098393, 3.4476, 341.2545, 140.842133, 6.0, 3.0,Walking,High, 100.8100,-0.4624,-153.7867, 27.3514,-522.5925, 0.0000, 0.0000, 0.0000
23-Jan-2019 09:45:23.948, 0.0647,-0.3116,-0.9414, 0.0397,-0.0044, 0.0296, 0.0361,-0.2988,-0.0121, 0.0315, 0.3150, 2.9003,49.737138,-123.098393, 3.4476, 341.2545, 140.842133, 6.0, 3.0,Walking,High, 100.8100,-0.4624,-153.7867, 27.3514,-522.5925, 0.0000, 0.0000, 0.0000
23-Jan-2019 09:45:23.958, 0.0669,-0.3127,-0.9652, 0.0364,-0.0020, 0.0090,-0.0280,-0.2201,-0.0581, 0.0297, 0.3148, 2.8997,49.737138,-123.098393, 3.4476, 341.2545, 140.842133, 6.0, 3.0,Walking,High, 100.8100,-0.4624,-154.8310, 26.6695,-522.1401, 0.0000, 0.0000, 0.0000
23-Jan-2019 09:45:23.968, 0.0694,-0.3113,-0.9819, 0.0391,-0.0040,-0.0145,-0.1009,-0.1011,-0.1125, 0.0292, 0.3138, 2.8987,49.737138,-123.098393, 3.4476, 341.2545, 140.842133, 6.0, 3.0,Walking,High, 100.8100,-0.4624,-154.8310, 26.6695,-522.1401, 0.0000, 0.0000, 0.0000
23-Jan-2019 09:45:23.978, 0.0760,-0.3084,-0.9906, 0.0408,-0.0040,-0.0307,-0.1642, 0.0180,-0.1595, 0.0301, 0.3123, 2.8972,49.737138,-123.098393, 3.4476, 341.2545, 140.842133, 6.0, 3.0,Walking,High, 100.8086,-0.3461,-154.8310, 26.6695,-522.1401, 0.0000, 0.0000, 0.0000
23-Jan-2019 09:45:23.988, 0.0939,-0.3059,-0.9993, 0.0456,-0.0030,-0.0388,-0.2158, 0.1083,-0.1841, 0.0320, 0.3103, 2.8954,49.737138,-123.098393, 3.4476, 341.2545, 140.842133, 6.0, 3.0,Walking,High, 100.8086,-0.3461,-154.8310, 26.6695,-522.1401, 0.0000, 0.0000, 0.0000
23-Jan-2019 09:45:23.998, 0.1119,-0.3024,-1.0011, 0.0614,-0.0025,-0.0470,-0.2331, 0.1423,-0.1809, 0.0341, 0.3082, 2.8937,49.737138,-123.098393, 3.4476, 341.2545, 140.842133, 6.0, 3.0,Walking,High, 100.8086,-0.3461,-156.6935, 25.0819,-521.4628, 0.0000, 0.0000, 0.0000
23-Jan-2019 09:45:24.008, 0.1304,-0.2944,-0.9933, 0.0775,-0.0008,-0.0483,-0.2033, 0.1189,-0.1531, 0.0360, 0.3064, 2.8922,49.737138,-123.098393, 3.4476, 341.2545, 140.842133, 6.0, 3.0,Walking,High, 100.8086,-0.3461,-156.6935, 25.0819,-521.4628, 0.0000, 0.0000, 0.0000
23-Jan-2019 09:45:24.018, 0.1434,-0.2805,-0.9858, 0.0950, 0.0060,-0.0402,-0.1435, 0.0604,-0.1103, 0.0372, 0.3052, 2.8912,49.737138,-123.098393, 3.4476, 341.2545, 140.842133, 6.0, 3.0,Walking,High, 100.8086,-0.3461,-156.6935, 25.0819,-521.4628, 0.0000, 0.0000, 0.0000
23-Jan-2019 09:45:24.028, 0.1480,-0.2715,-0.9799, 0.1080, 0.0194,-0.0325,-0.0751,-0.0310,-0.0558, 0.0372, 0.3046, 2.8907,49.737138,-123.098393, 3.4476, 341.2545, 140.842133, 6.0, 3.0,Walking,High, 100.8086,-0.3461,-156.6935, 25.0819,-521.4628, 0.0000, 0.0000, 0.0000
23-Jan-2019 09:45:24.038, 0.1458,-0.2756,-0.9736, 0.1138, 0.0285,-0.0266,-0.0076,-0.1437, 0.0040, 0.0359, 0.3047, 2.8909,49.737138,-123.098393, 3.4476, 341.2545, 140.842133, 6.0, 3.0,Walking,High, 100.8086,-0.3461,-158.2592, 23.7954,-521.3107, 0.0000, 0.0000, 0.0000
23-Jan-2019 09:45:24.048, 0.1414,-0.2839,-0.9653, 0.1139, 0.0252,-0.0204, 0.0694,-0.2373, 0.0660, 0.0335, 0.3055, 2.8916,49.737138,-123.098393, 3.4476, 341.2545, 140.842133, 6.0, 3.0,Walking,High, 100.8086,-0.3461,-158.2592, 23.7954,-521.3107, 0.0000, 0.0000, 0.0000
23-Jan-2019 09:45:24.058, 0.1359,-0.2899,-0.9609, 0.1125, 0.0183,-0.0125, 0.1356,-0.3116, 0.1067, 0.0303, 0.3070, 2.8928,49.737138,-123.098393, 3.4476, 341.2545, 140.842133, 6.0, 3.0,Walking,High, 100.8086,-0.3461,-158.2592, 23.7954,-521.3107, 0.0000, 0.0000, 0.0000
23-Jan-2019 09:45:24.068, 0.1301,-0.2952,-0.9620, 0.1106, 0.0141,-0.0085, 0.1721,-0.3647, 0.1217, 0.0265, 0.3089, 2.8941,49.737138,-123.098393, 3.4476, 341.2545, 140.842133, 6.0, 3.0,Walking,High, 100.8086,-0.3461,-158.2592, 23.7954,-521.3107, 0.0000, 0.0000, 0.0000
23-Jan-2019 09:45:24.078, 0.1258,-0.3005,-0.9667, 0.1087, 0.0105,-0.0101, 0.1692,-0.3987, 0.1141, 0.0224, 0.3106, 2.8953,49.737138,-123.098393, 3.4476, 341.2545, 140.842133, 6.0, 3.0,Walking,High, 100.8086,-0.3461,-159.0052, 23.1895,-521.4595, 0.0000, 0.0000, 0.0000
23-Jan-2019 09:45:24.091, 0.1210,-0.3068,-0.9753, 0.1051, 0.0007,-0.0239, 0.1331,-0.3988, 0.0937, 0.0167, 0.3125, 2.8966,49.737138,-123.098393, 3.4476, 341.2545, 140.842133, 6.0, 3.0,Walking,High, 100.8086,-0.3461,-159.0052, 23.1895,-521.4595, 0.0000, 0.0000, 0.0000
23-Jan-2019 09:45:24.101, 0.1207,-0.3089,-0.9850, 0.1078,-0.0008,-0.0337, 0.0339,-0.3118, 0.0326, 0.0135, 0.3132, 2.8972,49.737138,-123.098393, 3.4476, 341.2545, 140.842133, 6.0, 3.0,Walking,High, 100.8086,-0.3461,-159.0052, 23.1895,-521.4595, 0.0000, 0.0000, 0.0000
23-Jan-2019 09:45:24.107, 0.1191,-0.3040,-0.9916, 0.1092,-0.0007,-0.0338, 0.0339,-0.3118, 0.0326, 0.0120, 0.3133, 2.8974,49.737138,-123.098393, 3.4476, 341.2545, 140.842133, 6.0, 3.0,Walking,High, 100.8086,-0.3461,-159.0052, 23.1895,-521.4595, 0.0000, 0.0000, 0.0000
23-Jan-2019 09:45:24.117, 0.1196,-0.2925,-0.9905, 0.1099, 0.0043,-0.0404, 0.0048,-0.2502, 0.0241, 0.0097, 0.3135, 2.8977,49.737138,-123.098393, 3.4476, 341.2545, 140.842133, 6.0, 3.0,Walking,High, 100.8086,-0.3461,-159.9759, 22.5824,-521.3823, 0.0000, 0.0000, 0.0000
23-Jan-2019 09:45:24.128, 0.1251,-0.2819,-0.9855, 0.1120, 0.0159,-0.0393, 0.0033,-0.1971, 0.0370, 0.0079, 0.3136, 2.8982,49.737138,-123.098393, 3.4476, 341.2545, 140.842133, 6.0, 3.0,Walking,High, 100.8086,-0.3461,-159.9759, 22.5824,-521.3823, 0.0000, 0.0000, 0.0000
23-Jan-2019 09:45:24.138, 0.1290,-0.2760,-0.9773, 0.1190, 0.0268,-0.0344, 0.0178,-0.1673, 0.0584, 0.0064, 0.3138, 2.8988,49.737138,-123.098393, 3.4476, 341.2545, 140.842133, 6.0, 3.0,Walking,High, 100.8086,-0.3461,-159.9759, 22.5824,-521.3823, 0.0000, 0.0000, 0.0000
23-Jan-2019 09:45:24.147, 0.1299,-0.2769,-0.9709, 0.1243, 0.0331,-0.0262, 0.0314,-0.1428, 0.0745, 0.0050, 0.3142, 2.8997,49.737138,-123.098393, 3.4476, 341.2545, 140.842133, 6.0, 3.0,Walking,High, 100.8086,-0.3461,-159.9759, 22.5824,-521.3823, 0.0000, 0.0000, 0.0000
23-Jan-2019 09:45:24.157, 0.1283,-0.2850,-0.9676, 0.1263, 0.0326,-0.0200, 0.0355,-0.1216, 0.0884, 0.0038, 0.3147, 2.9006,49.737138,-123.098393, 3.4476, 341.2545, 140.842133, 6.0, 3.0,Walking,High, 100.8086,-0.3461,-160.8748, 22.4257,-521.3781, 0.0000, 0.0000, 0.0000
23-Jan-2019 09:45:24.167, 0.1302,-0.2967,-0.9673, 0.1258, 0.0248,-0.0168, 0.0215,-0.1164, 0.0990, 0.0026, 0.3150, 2.9017,49.737174,-123.098412, 3.4476, 341.2545, 140.842133, 6.0, 3.0,Walking,High, 100.8086,-0.3461,-160.8748, 22.4257,-521.3781, 0.0000, 0.0000, 0.0000
23-Jan-2019 09:45:24.177, 0.1304,-0.3067,-0.9648, 0.1291, 0.0133,-0.0166, 0.0098,-0.1272, 0.1170, 0.0012, 0.3152, 2.9030,49.737174,-123.098412, 3.4476, 341.2545, 140.842133, 6.0, 3.0,Walking,High, 100.8086,-0.3461,-160.8748, 22.4257,-521.3781, 0.0000, 0.0000, 0.0000
23-Jan-2019 09:45:24.187, 0.1233,-0.3103,-0.9553, 0.1307, 0.0034,-0.0141, 0.0066,-0.1370, 0.1436,-0.0003, 0.3154, 2.9046,49.737174,-123.098412, 3.4476, 341.2545, 140.842133, 6.0, 3.0,Walking,High, 100.8086,-0.3461,-160.8748, 22.4257,-521.3781, 0.0000, 0.0000, 0.0000
23-Jan-2019 09:45:24.197, 0.1166,-0.3090,-0.9423, 0.1251,-0.0001,-0.0047, 0.0022,-0.1393, 0.1670,-0.0019, 0.3155, 2.9064,49.737174,-123.098412, 3.4476, 341.2545, 140.842133, 6.0, 3.0,Walking,High, 100.8086,-0.3461,-161.3994, 22.3466,-521.4506, 0.0000, 0.0000, 0.0000
23-Jan-2019 09:45:24.207, 0.1133,-0.3044,-0.9293, 0.1200, 0.0014, 0.0083, 0.0074,-0.1393, 0.1788,-0.0036, 0.3156, 2.9083,49.737174,-123.098412, 3.4476, 341.2545, 140.842133, 6.0, 3.0,Walking,High, 100.8086,-0.3461,-161.3994, 22.3466,-521.4506, 0.0000, 0.0000, 0.0000
23-Jan-2019 09:45:24.216, 0.1151,-0.2947,-0.9240, 0.1186, 0.0061, 0.0213, 0.0024,-0.1819, 0.1776,-0.0056, 0.3157, 2.9102,49.737174,-123.098412, 3.4476, 341.2545, 140.842133, 6.0, 3.0,Walking,High, 100.8086,-0.3461,-161.3994, 22.3466,-521.4506, 0.0000, 0.0000, 0.0000
23-Jan-2019 09:45:24.226, 0.1193,-0.3044,-0.9119, 0.1229, 0.0156, 0.0266,-0.0124,-0.2130, 0.2009,-0.0081, 0.3155, 2.9123,49.737174,-123.098412, 3.4476, 341.2545, 140.842133, 6.0, 3.0,Walking,High, 100.8086,-0.3461,-161.3994, 22.3466,-521.4506, 0.0000, 0.0000, 0.0000
23-Jan-2019 09:45:24.237, 0.0976,-0.3155,-0.9612, 0.1312, 0.0044, 0.0392,-0.1626,-0.4143, 0.2818,-0.0125, 0.3139, 2.9153,49.737174,-123.098412, 3.4476, 341.2545, 140.842133, 6.0, 3.0,Walking,High, 100.8086,-0.3461,-161.4021, 22.7214,-521.5237, 0.0000, 0.0000, 0.0000
23-Jan-2019 09:45:24.246, 0.1177,-0.3271,-0.9139, 0.1146,-0.0099,-0.0092,-0.3415,-0.4670, 0.3746,-0.0179, 0.3106, 2.9191,49.737174,-123.098412, 3.4476, 339.9689, 140.842133, 6.0, 3.0,Walking,High, 100.8086,-0.3461,-161.4021, 22.7214,-521.5237, 0.0000, 0.0000, 0.0000
23-Jan-2019 09:45:24.256, 0.1273,-0.3100,-0.8719, 0.1395,-0.0257, 0.0394,-0.4559,-0.4253, 0.4199,-0.0229, 0.3061, 2.9233,49.737174,-123.098412, 3.4476, 339.9689, 140.842133, 6.0, 3.0,Walking,High, 100.8086,-0.3461,-161.4021, 22.7214,-521.5237, 0.0000, 0.0000, 0.0000
23-Jan-2019 09:45:24.266, 0.1346,-0.2935,-0.8919, 0.1534,-0.0135, 0.0828,-0.5241,-0.3787, 0.3791,-0.0273, 0.3010, 2.9271,49.737174,-123.098412, 3.4476, 339.9689, 140.842133, 6.0, 3.0,Walking,High, 100.8086,-0.3461,-161.4021, 22.7214,-521.5237, 0.0000, 0.0000, 0.0000
23-Jan-2019 09:45:24.276, 0.1299,-0.2879,-0.9117, 0.1648,-0.0022, 0.0642,-0.5462,-0.3817, 0.3290,-0.0316, 0.2956, 2.9304,49.737174,-123.098412, 3.4476, 339.9689, 140.842133, 6.0, 3.0,Walking,High, 100.8086,-0.3461,-160.6542, 23.7068,-519.1229, 0.0000, 0.0000, 0.0000
23-Jan-2019 09:45:24.286, 0.1172,-0.2855,-0.9188, 0.1641,-0.0015, 0.0458,-0.5353,-0.3889, 0.2907,-0.0358, 0.2904, 2.9332,49.737174,-123.098412, 3.4476, 339.9689, 140.842133, 6.0, 3.0,Walking,High, 100.8086,-0.3461,-160.6542, 23.7068,-519.1229, 0.0000, 0.0000, 0.0000
23-Jan-2019 09:45:24.296, 0.0963,-0.2779,-0.9115, 0.1552,-0.0037, 0.0399,-0.4928,-0.3704, 0.2728,-0.0397, 0.2856, 2.9359,49.737174,-123.098412, 3.4476, 338.9347, 140.842133, 6.0, 3.0,Walking,High, 100.8086,-0.3461,-160.6542, 23.7068,-519.1229, 0.0000, 0.0000, 0.0000
23-Jan-2019 09:45:24.306, 0.0763,-0.2681,-0.9209, 0.1382,-0.0005, 0.0484,-0.4546,-0.3543, 0.2762,-0.0436, 0.2811, 2.9386,49.737174,-123.098412, 3.4476, 338.9347, 140.842133, 6.0, 3.0,Walking,High, 100.8086,-0.3461,-160.6542, 23.7068,-519.1229, 0.0000, 0.0000, 0.0000
23-Jan-2019 09:45:24.316, 0.0736,-0.2627,-0.9300, 0.1223, 0.0050, 0.0400,-0.4693,-0.3949, 0.2974,-0.0478, 0.2766, 2.9414,49.737174,-123.098412, 3.4476, 338.9347, 140.842133, 6.0, 3.0,Walking,High, 100.8086,-0.3461,-160.5768, 24.0119,-516.8718, 0.0000, 0.0000, 0.0000
23-Jan-2019 09:45:24.326, 0.0819,-0.2482,-0.8941, 0.1233, 0.0060, 0.0319,-0.4654,-0.3417, 0.2943,-0.0516, 0.2721, 2.9443,49.737174,-123.098412, 3.4476, 338.9347, 140.842133, 6.0, 3.0,Walking,High, 100.8086,-0.3461,-160.5768, 24.0119,-516.8718, 0.0000, 0.0000, 0.0000
23-Jan-2019 09:45:24.336, 0.0703,-0.2377,-0.8977, 0.1343, 0.0166, 0.0687,-0.4201,-0.2540, 0.2638,-0.0544, 0.2680, 2.9468,49.737174,-123.098412, 3.4476, 338.9347, 140.842133, 6.0, 3.0,Walking,High, 100.8086,-0.3461,-160.5768, 24.0119,-516.8718, 0.0000, 0.0000, 0.0000
23-Jan-2019 09:45:24.346, 0.0698,-0.2345,-0.9009, 0.1246, 0.0240, 0.0659,-0.3470,-0.1714, 0.2323,-0.0563, 0.2647, 2.9490,49.737174,-123.098412, 3.4476, 338.9347, 140.842133, 6.0, 3.0,Walking,High, 100.8086,-0.3461,-160.5768, 24.0119,-516.8718, 0.0000, 0.0000, 0.0000
23-Jan-2019 09:45:24.356, 0.0644,-0.2291,-0.8985, 0.1251, 0.0248, 0.0633,-0.2454,-0.0856, 0.2202,-0.0573, 0.2623, 2.9512,49.737174,-123.098412, 3.4476, 338.9347, 140.842133, 6.0, 3.0,Walking,High, 100.8086,-0.3461,-159.9770, 24.5450,-515.0724, 0.0000, 0.0000, 0.0000
23-Jan-2019 09:45:24.367, 0.0521,-0.2191,-0.8950, 0.1201, 0.0288, 0.0661,-0.1460,-0.0064, 0.2379,-0.0576, 0.2609, 2.9537,49.737174,-123.098412, 3.4476, 337.8208, 140.842133, 6.0, 3.0,Walking,High, 100.8086,-0.3461,-159.9770, 24.5450,-515.0724, 0.0000, 0.0000, 0.0000
23-Jan-2019 09:45:24.376, 0.0507,-0.2099,-0.8888, 0.1076, 0.0382, 0.0697,-0.0615, 0.0609, 0.2757,-0.0575, 0.2603, 2.9565,49.737174,-123.098412, 3.4476, 337.8208, 140.842133, 6.0, 3.0,Walking,High, 100.8086,-0.3461,-159.9770, 24.5450,-515.0724, 0.0000, 0.0000, 0.0000
23-Jan-2019 09:45:24.386, 0.0592,-0.2053,-0.8977, 0.1058, 0.0473, 0.0760,-0.0129, 0.0962, 0.3048,-0.0571, 0.2601, 2.9597,49.737174,-123.098412, 3.4476, 337.8208, 140.842133, 6.0, 3.0,Walking,High, 100.8086,-0.3461,-159.9770, 24.5450,-515.0724, 0.0000, 0.0000, 0.0000
23-Jan-2019 09:45:24.395, 0.0681,-0.2175,-0.9181, 0.1141, 0.0518, 0.0671,-0.0022, 0.0920, 0.3070,-0.0568, 0.2600, 2.9629,49.737174,-123.098412, 3.4476, 337.8208, 140.842133, 6.0, 3.0,Walking,High, 100.8086,-0.3461,-159.6042, 24.8477,-515.1479, 0.0000, 0.0000, 0.0000
23-Jan-2019 09:45:24.405, 0.0662,-0.2378,-0.9382, 0.1230, 0.0392, 0.0468,-0.0307, 0.0620, 0.3014,-0.0568, 0.2596, 2.9661,49.737174,-123.098412, 3.4476, 337.8208, 140.842133, 6.0, 3.0,Walking,High, 100.8086,-0.3461,-159.6042, 24.8477,-515.1479, 0.0000, 0.0000, 0.0000
23-Jan-2019 09:45:24.416, 0.0614,-0.2553,-0.9545, 0.1214, 0.0181, 0.0270,-0.0773, 0.0171, 0.2990,-0.0571, 0.2588, 2.9692,49.737174,-123.098412, 3.4476, 337.8208, 140.842133, 6.0, 3.0,Walking,High, 100.8086,-0.3461,-159.6042, 24.8477,-515.1479, 0.0000, 0.0000, 0.0000
23-Jan-2019 09:45:24.425, 0.0532,-0.2640,-0.9623, 0.1174,-0.0006, 0.0109,-0.1205,-0.0321, 0.2944,-0.0580, 0.2575, 2.9722,49.737174,-123.098412, 3.4476, 337.8208, 140.842133, 6.0, 3.0,Walking,High, 100.8086,-0.3461,-159.6042, 24.8477,-515.1479, 0.0000, 0.0000, 0.0000
23-Jan-2019 09:45:24.436, 0.0501,-0.2631,-0.9558, 0.1103,-0.0106, 0.0034,-0.1374,-0.0577, 0.2879,-0.0590, 0.2561, 2.9752,49.737174,-123.098412, 3.4476, 337.8208, 140.842133, 6.0, 3.0,Walking,High, 100.8086,-0.3461,-158.6303, 24.9295,-515.3779, 0.0000, 0.0000, 0.0000
23-Jan-2019 09:45:24.445, 0.0502,-0.2585,-0.9427, 0.1079,-0.0109, 0.0102,-0.1162,-0.0341, 0.2763,-0.0598, 0.2549, 2.9780,49.737174,-123.098412, 3.4476, 336.5067, 140.842133, 6.0, 3.0,Walking,High, 100.8086,-0.3461,-158.6303, 24.9295,-515.3779, 0.0000, 0.0000, 0.0000
23-Jan-2019 09:45:24.455, 0.0472,-0.2529,-0.9290, 0.1079,-0.0072, 0.0234,-0.0773, 0.0524, 0.2692,-0.0597, 0.2541, 2.9808,49.737174,-123.098412, 3.4476, 336.5067, 140.842133, 6.0, 3.0,Walking,High, 100.8086,-0.3461,-158.6303, 24.9295,-515.3779, 0.0000, 0.0000, 0.0000
23-Jan-2019 09:45:24.466, 0.0502,-0.2504,-0.9175, 0.1038,-0.0020, 0.0374,-0.0430, 0.1696, 0.2760,-0.0585, 0.2535, 2.9837,49.737174,-123.098412, 3.4476, 336.5067, 140.842133, 6.0, 3.0,Walking,High, 100.8086,-0.3461,-158.6303, 24.9295,-515.3779, 0.0000, 0.0000, 0.0000
23-Jan-2019 09:45:24.475, 0.0627,-0.2550,-0.9160, 0.1046,-0.0001, 0.0491,-0.0354, 0.2844, 0.2986,-0.0563, 0.2530, 2.9869,49.737174,-123.098412, 3.4476, 336.5067, 140.842133, 6.0, 3.0,Walking,High, 100.8086,-0.3461,-157.6524, 24.4867,-515.4605, 0.0000, 0.0000, 0.0000
23-Jan-2019 09:45:24.485, 0.0793,-0.2641,-0.9210, 0.1144,-0.0054, 0.0509,-0.0680, 0.3554, 0.3231,-0.0533, 0.2523, 2.9902,49.737174,-123.098412, 3.4476, 336.5067, 140.842133, 6.0, 3.0,Walking,High, 100.8086,-0.3461,-157.6524, 24.4867,-515.4605, 0.0000, 0.0000, 0.0000
23-Jan-2019 09:45:24.495, 0.0962,-0.2740,-0.9214, 0.1279,-0.0159, 0.0465,-0.1268, 0.3827, 0.3420,-0.0502, 0.2509, 2.9937,49.737174,-123.098412, 3.4476, 336.5067, 140.842133, 6.0, 3.0,Walking,High, 100.8086,-0.3461,-157.6524, 24.4867,-515.4605, 0.0000, 0.0000, 0.0000
23-Jan-2019 09:45:24.505, 0.1108,-0.2802,-0.9177, 0.1418,-0.0277, 0.0467,-0.1992, 0.3811, 0.3598,-0.0471, 0.2489, 2.9974,49.737174,-123.098412, 3.4476, 336.5067, 140.842133, 6.0, 3.0,Walking,High, 100.8086,-0.3461,-157.6524, 24.4867,-515.4605, 0.0000, 0.0000, 0.0000
23-Jan-2019 09:45:24.515, 0.1242,-0.2817,-0.9135, 0.1536,-0.0365, 0.0512,-0.2694, 0.3657, 0.3732,-0.0442, 0.2462, 3.0012,49.737174,-123.098412, 3.4476, 335.1073, 140.842133, 6.0, 3.0,Walking,High, 100.8086,-0.3461,-156.4544, 24.5692,-516.2167, 0.0000, 0.0000, 0.0000
23-Jan-2019 09:45:24.525, 0.1375,-0.2784,-0.9107, 0.1644,-0.0411, 0.0563,-0.3215, 0.3430, 0.3815,-0.0414, 0.2430, 3.0050,49.737174,-123.098412, 3.4476, 335.1073, 140.842133, 6.0, 3.0,Walking,High, 100.8086,-0.3461,-156.4544, 24.5692,-516.2167, 0.0000, 0.0000, 0.0000
23-Jan-2019 09:45:24.535, 0.1474,-0.2725,-0.9086, 0.1752,-0.0412, 0.0601,-0.3533, 0.3279, 0.3813,-0.0389, 0.2394, 3.0089,49.737174,-123.098412, 3.4476, 335.1073, 140.842133, 6.0, 3.0,Walking,High, 100.8086,-0.3461,-156.4544, 24.5692,-516.2167, 0.0000, 0.0000, 0.0000
23-Jan-2019 09:45:24.544, 0.1550,-0.2663,-0.9171, 0.1829,-0.0388, 0.0630,-0.3574, 0.3056, 0.3727,-0.0365, 0.2359, 3.0126,49.737174,-123.098412, 3.4476, 335.1073, 140.842133, 6.0, 3.0,Walking,High, 100.8086,-0.3461,-156.4544, 24.5692,-516.2167, 0.0000, 0.0000, 0.0000
23-Jan-2019 09:45:24.554, 0.1564,-0.2588,-0.9310, 0.1886,-0.0357, 0.0554,-0.3325, 0.2632, 0.3578,-0.0345, 0.2327, 3.0163,49.737174,-123.098412, 3.4476, 335.1073, 140.842133, 6.0, 3.0,Walking,High, 100.8086,-0.3461,-155.0363, 25.6304,-515.9192, 0.0000, 0.0000, 0.0000
23-Jan-2019 09:45:24.565, 0.1496,-0.2503,-0.9346, 0.1883,-0.0310, 0.0422,-0.2865, 0.2295, 0.3548,-0.0328, 0.2299, 3.0199,49.737174,-123.098412, 3.4476, 334.0269, 140.842133, 6.0, 3.0,Walking,High, 100.8086,-0.3461,-155.0363, 25.6304,-515.9192, 0.0000, 0.0000, 0.0000
23-Jan-2019 09:45:24.574, 0.1376,-0.2361,-0.9372, 0.1800,-0.0246, 0.0391,-0.2343, 0.2138, 0.3625,-0.0312, 0.2276, 3.0236,49.737174,-123.098412, 3.4476, 334.0269, 140.842133, 6.0, 3.0,Walking,High, 100.8086,-0.3461,-155.0363, 25.6304,-515.9192, 0.0000, 0.0000, 0.0000
23-Jan-2019 09:45:24.585, 0.1286,-0.2229,-0.9464, 0.1666,-0.0122, 0.0370,-0.1917, 0.2033, 0.3701,-0.0297, 0.2258, 3.0274,49.737174,-123.098412, 3.4476, 334.0269, 140.842133, 6.0, 3.0,Walking,High, 100.8086,-0.3461,-155.0363, 25.6304,-515.9192, 0.0000, 0.0000, 0.0000
23-Jan-2019 09:45:24.594, 0.1230,-0.2166,-0.9518, 0.1560,-0.0005, 0.0281,-0.1609, 0.2099, 0.3714,-0.0281, 0.2242, 3.0312,49.737174,-123.098412, 3.4476, 334.0269, 140.842133, 6.0, 3.0,Walking,High, 100.8086,-0.3461,-153.8429, 26.6901,-515.5455, 0.0000, 0.0000, 0.0000
23-Jan-2019 09:45:24.604, 0.1171,-0.2169,-0.9544, 0.1487, 0.0045, 0.0231,-0.1398, 0.2249, 0.3800,-0.0264, 0.2230, 3.0351,49.737174,-123.098412, 3.4476, 334.0269, 140.842133, 6.0, 3.0,Walking,High, 100.8086,-0.3461,-153.8429, 26.6901,-515.5455, 0.0000, 0.0000, 0.0000
23-Jan-2019 09:45:24.614, 0.1145,-0.2169,-0.9522, 0.1410, 0.0031, 0.0208,-0.1219, 0.2451, 0.3940,-0.0245, 0.2219, 3.0391,49.737174,-123.098412, 3.4476, 332.9283, 140.842133, 6.0, 3.0,Walking,High, 100.8086,-0.3461,-153.8429, 26.6901,-515.5455, 0.0000, 0.0000, 0.0000
23-Jan-2019 09:45:24.624, 0.1154,-0.2148,-0.9469, 0.1364, 0.0022, 0.0233,-0.1093, 0.2600, 0.4069,-0.0224, 0.2209, 3.0433,49.737174,-123.098412, 3.4476, 332.9283, 140.842133, 6.0, 3.0,Walking,High, 100.8086,-0.3461,-153.8429, 26.6901,-515.5455, 0.0000, 0.0000, 0.0000
23-Jan-2019 09:45:24.634, 0.1206,-0.2096,-0.9405, 0.1351, 0.0035, 0.0288,-0.0977, 0.2717, 0.4165,-0.0202, 0.2200, 3.0476,49.737174,-123.098412, 3.4476, 332.9283, 140.842133, 6.0, 3.0,Walking,High, 100.8086,-0.3461,-151.9776, 28.2050,-515.0981, 0.0000, 0.0000, 0.0000
23-Jan-2019 09:45:24.644, 0.1257,-0.2085,-0.9355, 0.1382, 0.0079, 0.0354,-0.0881, 0.2750, 0.4176,-0.0180, 0.2193, 3.0518,49.737174,-123.098412, 3.4476, 332.9283, 140.842133, 6.0, 3.0,Walking,High, 100.8086,-0.3461,-151.9776, 28.2050,-515.0981, 0.0000, 0.0000, 0.0000
23-Jan-2019 09:45:24.654, 0.1282,-0.2104,-0.9328, 0.1413, 0.0084, 0.0406,-0.0764, 0.2623, 0.4209,-0.0160, 0.2186, 3.0562,49.737174,-123.098412, 3.4476, 332.9283, 140.842133, 6.0, 3.0,Walking,High, 100.8086,-0.3461,-151.9776, 28.2050,-515.0981, 0.0000, 0.0000, 0.0000
23-Jan-2019 09:45:24.664, 0.1309,-0.2130,-0.9335, 0.1420, 0.0058, 0.0435,-0.0773, 0.2367, 0.4198,-0.0142, 0.2179, 3.0605,49.737174,-123.098412, 3.4476, 331.7018, 140.842133, 6.0, 3.0,Walking,High, 100.8086,-0.3461,-151.9776, 28.2050,-515.0981, 0.0000, 0.0000, 0.0000
23-Jan-2019 09:45:24.673, 0.1320,-0.2136,-0.9421, 0.1435, 0.0025, 0.0429,-0.0779, 0.1867, 0.4090,-0.0129, 0.2172, 3.0647,49.737174,-123.098412, 3.4476, 331.7018, 140.842133, 6.0, 3.0,Walking,High, 100.8086,-0.3461,-150.1938, 30.4680,-515.2466, 0.0000, 0.0000, 0.0000
23-Jan-2019 09:45:24.684, 0.1254,-0.2142,-0.9467, 0.1438, 0.0013, 0.0344,-0.0700, 0.1251, 0.3951,-0.0122, 0.2166, 3.0688,49.737174,-123.098412, 3.4476, 331.7018, 140.842133, 6.0, 3.0,Walking,High, 100.8086,-0.3461,-150.1938, 30.4680,-515.2466, 0.0000, 0.0000, 0.0000
23-Jan-2019 09:45:24.693, 0.1126,-0.2133,-0.9442, 0.1370, 0.0003, 0.0300,-0.0515, 0.0742, 0.3834,-0.0119, 0.2161, 3.0727,49.737174,-123.098412, 3.4476, 331.7018, 140.842133, 6.0, 3.0,Walking,High, 100.8086,-0.3461,-150.1938, 30.4680,-515.2466, 0.0000, 0.0000, 0.0000
23-Jan-2019 09:45:24.704, 0.1040,-0.2129,-0.9435, 0.1243, 0.0009, 0.0325,-0.0405, 0.0393, 0.3695,-0.0120, 0.2158, 3.0766,49.737174,-123.098412, 3.4476, 331.7018, 140.842133, 6.0, 3.0,Walking,High, 100.8086,-0.3461,-150.1938, 30.4680,-515.2466, 0.0000, 0.0000, 0.0000
23-Jan-2019 09:45:24.713, 0.0985,-0.2144,-0.9503, 0.1158, 0.0008, 0.0334,-0.0447, 0.0286, 0.3620,-0.0121, 0.2154, 3.0803,49.737174,-123.098412, 3.4476, 330.5540, 140.842133, 6.0, 3.0,Walking,High, 100.8086,-0.3461,-148.5514, 31.6813,-514.7996, 0.0000, 0.0000, 0.0000
23-Jan-2019 09:45:24.723, 0.0962,-0.2219,-0.9629, 0.1108,-0.0012, 0.0267,-0.0594, 0.0009, 0.3608,-0.0125, 0.2149, 3.0840,49.737174,-123.098412, 3.4476, 330.5540, 140.842133, 6.0, 3.0,Walking,High, 100.8086,-0.3461,-148.5514, 31.6813,-514.7996, 0.0000, 0.0000, 0.0000
23-Jan-2019 09:45:24.733, 0.0897,-0.2269,-0.9608, 0.1089,-0.0092, 0.0142,-0.0679,-0.0056, 0.3640,-0.0130, 0.2143, 3.0878,49.737174,-123.098412, 3.4476, 330.5540, 140.842133, 6.0, 3.0,Walking,High, 100.8086,-0.3461,-148.5514, 31.6813,-514.7996, 0.0000, 0.0000, 0.0000
23-Jan-2019 09:45:24.743, 0.0796,-0.2264,-0.9516, 0.1025,-0.0148, 0.0164,-0.0638, 0.0232, 0.3683,-0.0132, 0.2137, 3.0916,49.737174,-123.098412, 3.4476, 330.5540, 140.842133, 6.0, 3.0,Walking,High, 100.8086,-0.3461,-148.5514, 31.6813,-514.7996, 0.0000, 0.0000, 0.0000
23-Jan-2019 09:45:24.753, 0.0753,-0.2231,-0.9534, 0.0925,-0.0149, 0.0257,-0.0619, 0.0444, 0.3705,-0.0132, 0.2132, 3.0954,49.737174,-123.098412, 3.4476, 330.5540, 140.842133, 6.0, 3.0,Walking,High, 100.8086,-0.3461,-146.9147, 33.6440,-514.5738, 0.0000, 0.0000, 0.0000
23-Jan-2019 09:45:24.763, 0.0748,-0.2229,-0.9589, 0.0882,-0.0121, 0.0240,-0.0639, 0.0381, 0.3694,-0.0132, 0.2126, 3.0992,49.737174,-123.098412, 3.4476, 329.4689, 140.842133, 6.0, 3.0,Walking,High, 100.8086,-0.3461,-146.9147, 33.6440,-514.5738, 0.0000, 0.0000, 0.0000
23-Jan-2019 09:45:24.773, 0.0724,-0.2229,-0.9561, 0.0878,-0.0125, 0.0186,-0.0682, 0.0273, 0.3758,-0.0133, 0.2120, 3.1030,49.737174,-123.098412, 3.4476, 329.4689, 140.842133, 6.0, 3.0,Walking,High, 100.8086,-0.3461,-146.9147, 33.6440,-514.5738, 0.0000, 0.0000, 0.0000
23-Jan-2019 09:45:24.784, 0.0750,-0.2248,-0.9498, 0.0856,-0.0131, 0.0216,-0.0703, 0.0241, 0.3768,-0.0135, 0.2114, 3.1069,49.737174,-123.098412, 3.4476, 329.4689, 140.842133, 6.0, 3.0,Walking,High, 100.8086,-0.3461,-146.9147, 33.6440,-514.5738, 0.0000, 0.0000, 0.0000
23-Jan-2019 09:45:24.793, 0.0813,-0.2270,-0.9447, 0.0885,-0.0156, 0.0280,-0.0671, 0.0210, 0.3768,-0.0138, 0.2108, 3.1108,49.737174,-123.098412, 3.4476, 329.4689, 140.842133, 6.0, 3.0,Walking,High, 100.8086,-0.3461,-145.4228, 34.7800,-514.6513, 0.0000, 0.0000, 0.0000
23-Jan-2019 09:45:24.803, 0.0848,-0.2260,-0.9361, 0.0952,-0.0182, 0.0331,-0.0521, 0.0125, 0.3758,-0.0142, 0.2103, 3.1147,49.737174,-123.098412, 3.4476, 329.4689, 140.842133, 6.0, 3.0,Walking,High, 100.8086,-0.3461,-145.4228, 34.7800,-514.6513, 0.0000, 0.0000, 0.0000
23-Jan-2019 09:45:24.813, 0.0880,-0.2217,-0.9260, 0.0991,-0.0175, 0.0418,-0.0296,-0.0022, 0.3706,-0.0147, 0.2101, 3.1185,49.737174,-123.098412, 3.4476, 328.3569, 140.842133, 6.0, 3.0,Walking,High, 100.8086,-0.3461,-145.4228, 34.7800,-514.6513, 0.0000, 0.0000, 0.0000
23-Jan-2019 09:45:24.822, 0.0871,-0.2146,-0.9152, 0.1031,-0.0131, 0.0519,-0.0028,-0.0265, 0.3579,-0.0154, 0.2101, 3.1223,49.737174,-123.098412, 3.4476, 328.3569, 140.842133, 6.0, 3.0,Walking,High, 100.8086,-0.3461,-145.4228, 34.7800,-514.6513, 0.0000, 0.0000, 0.0000
23-Jan-2019 09:45:24.834, 0.0805,-0.2126,-0.9108, 0.1030,-0.0059, 0.0627, 0.0049,-0.0508, 0.3376,-0.0163, 0.2102, 3.1258,49.737174,-123.098412, 3.4476, 328.3569, 140.842133, 6.0, 3.0,Walking,High, 100.8086,-0.3461,-145.4228, 34.7800,-514.6513, 0.0000, 0.0000, 0.0000
23-Jan-2019 09:45:24.842, 0.0770,-0.2155,-0.9101, 0.0975,-0.0040, 0.0670,-0.0172,-0.0646, 0.3109,-0.0173, 0.2101, 3.1290,49.737174,-123.098412, 3.4476, 328.3569, 140.842133, 6.0, 3.0,Walking,High, 100.8086,-0.3461,-144.1588, 36.3645,-514.6503, 0.0000, 0.0000, 0.0000
23-Jan-2019 09:45:24.853, 0.0755,-0.2217,-0.9194, 0.0949,-0.0074, 0.0678,-0.0585,-0.0582, 0.2681,-0.0183, 0.2096, 3.1318,49.737174,-123.098412, 3.4476, 328.3569, 140.842133, 6.0, 3.0,Walking,High, 100.8086,-0.3461,-144.1588, 36.3645,-514.6503, 0.0000, 0.0000, 0.0000
23-Jan-2019 09:45:24.862, 0.0793,-0.2273,-0.9276, 0.0940,-0.0144, 0.0587,-0.0945,-0.0464, 0.2157,-0.0189, 0.2088, 3.1341,49.737174,-123.098412, 3.4476, 328.3569, 140.842133, 6.0, 3.0,Walking,High, 100.8086,-0.3461,-144.1588, 36.3645,-514.6503, 0.0000, 0.0000, 0.0000
23-Jan-2019 09:45:24.872, 0.0862,-0.2237,-0.9254, 0.0980,-0.0210, 0.0507,-0.1083,-0.0122, 0.1667,-0.0191, 0.2078, 3.1358,49.737174,-123.098412, 3.4476, 328.3569, 140.842133, 6.0, 3.0,Walking,High, 100.8086,-0.3461,-144.1588, 36.3645,-514.6503, 0.0000, 0.0000, 0.0000
23-Jan-2019 09:45:24.883, 0.0901,-0.2096,-0.9179, 0.1047,-0.0183, 0.0531,-0.1073, 0.0220, 0.1380,-0.0190, 0.2068, 3.1373,49.737174,-123.098412, 3.4476, 328.3569, 140.842133, 6.0, 3.0,Walking,High, 100.8086,-0.3461,-143.9383, 37.0415,-514.4982, 0.0000, 0.0000, 0.0000
23-Jan-2019 09:45:24.892, 0.0963,-0.1972,-0.9173, 0.1084,-0.0052, 0.0608,-0.1053, 0.0402, 0.1338,-0.0186, 0.2059, 3.1388,49.737174,-123.098412, 3.4476, 327.1964, 140.842133, 6.0, 3.0,Walking,High, 100.8086,-0.3461,-143.9383, 37.0415,-514.4982, 0.0000, 0.0000, 0.0000
23-Jan-2019 09:45:24.902, 0.1007,-0.1935,-0.9212, 0.1142, 0.0063, 0.0616,-0.1064, 0.0422, 0.1476,-0.0183, 0.2050, 3.1403,49.737174,-123.098412, 3.4476, 327.1964, 140.842133, 6.0, 3.0,Walking,High, 100.8086,-0.3461,-143.9383, 37.0415,-514.4982, 0.0000, 0.0000, 0.0000
23-Jan-2019 09:45:24.912, 0.1064,-0.1960,-0.9299, 0.1184, 0.0090, 0.0579,-0.1203, 0.0324, 0.1710,-0.0181, 0.2038,-3.1410,49.737174,-123.098412, 3.4476, 327.1964, 140.842133, 6.0, 3.0,Walking,High, 100.8078,-0.2774,-143.9383, 37.0415,-514.4982, 0.0000, 0.0000, 0.0000
23-Jan-2019 09:45:24.922, 0.1124,-0.2015,-0.9445, 0.1242, 0.0051, 0.0496,-0.1480, 0.0130, 0.1964,-0.0181, 0.2025,-3.1390,49.737174,-123.098412, 3.4476, 327.1964, 140.842133, 6.0, 3.0,Walking,High, 100.8078,-0.2774,-143.6421, 37.6441,-514.2717, 0.0000, 0.0000, 0.0000
23-Jan-2019 09:45:24.933, 0.1146,-0.2048,-0.9564, 0.1305,-0.0020, 0.0352,-0.1756,-0.0161, 0.2207,-0.0185, 0.2008,-3.1367,49.737174,-123.098412, 3.4476, 327.1964, 140.842133, 6.0, 3.0,Walking,High, 100.8078,-0.2774,-143.6421, 37.6441,-514.2717, 0.0000, 0.0000, 0.0000
23-Jan-2019 09:45:24.942, 0.1143,-0.2023,-0.9620, 0.1335,-0.0072, 0.0237,-0.1947,-0.0429, 0.2493,-0.0192, 0.1990,-3.1341,49.737174,-123.098412, 3.4476, 327.1964, 140.842133, 6.0, 3.0,Walking,High, 100.8078,-0.2774,-143.6421, 37.6441,-514.2717, 0.0000, 0.0000, 0.0000
23-Jan-2019 09:45:24.952, 0.1108,-0.1978,-0.9643, 0.1341,-0.0063, 0.0184,-0.1884,-0.0633, 0.2855,-0.0202, 0.1972,-3.1311,49.737174,-123.098412, 3.4476, 327.1964, 140.842133, 6.0, 3.0,Walking,High, 100.8078,-0.2774,-143.6421, 37.6441,-514.2717, 0.0000, 0.0000, 0.0000
23-Jan-2019 09:45:24.962, 0.1079,-0.1954,-0.9627, 0.1317,-0.0032, 0.0164,-0.1545,-0.0686, 0.3187,-0.0213, 0.1958,-3.1279,49.737174,-123.098412, 3.4476, 327.1964, 140.842133, 6.0, 3.0,Walking,High, 100.8078,-0.2774,-142.6662, 37.7280,-513.5267, 0.0000, 0.0000, 0.0000
23-Jan-2019 09:45:24.972, 0.1085,-0.1971,-0.9595, 0.1297,-0.0018, 0.0181,-0.1057,-0.0599, 0.3403,-0.0223, 0.1948,-3.1244,49.737174,-123.098412, 3.4476, 327.1964, 140.842133, 6.0, 3.0,Walking,High, 100.8078,-0.2774,-142.6662, 37.7280,-513.5267, 0.0000, 0.0000, 0.0000
23-Jan-2019 09:45:24.983, 0.1093,-0.2033,-0.9578, 0.1311,-0.0041, 0.0215,-0.0622,-0.0363, 0.3448,-0.0230, 0.1942,-3.1208,49.737174,-123.098412, 3.4476, 327.1964, 140.842133, 6.0, 3.0,Walking,High, 100.8078,-0.2774,-142.6662, 37.7280,-513.5267, 0.0000, 0.0000, 0.0000
23-Jan-2019 09:45:24.991, 0.1023,-0.2088,-0.9521, 0.1322,-0.0108, 0.0233,-0.0444, 0.0053, 0.3439,-0.0234, 0.1937,-3.1172,49.737174,-123.098412, 3.4476, 325.7291, 140.842133, 6.0, 3.0,Walking,High, 100.8078,-0.2774,-142.6662, 37.7280,-513.5267, 0.0000, 0.0000, 0.0000
23-Jan-2019 09:45:25.001, 0.0939,-0.2100,-0.9510, 0.1251,-0.0169, 0.0290,-0.0681, 0.0499, 0.3449,-0.0233, 0.1931,-3.1137,49.737174,-123.098412, 3.4476, 325.7291, 140.842133, 6.0, 3.0,Walking,High, 100.8078,-0.2774,-141.3976, 38.7885,-513.0034, 0.0000, 0.0000, 0.0000
23-Jan-2019 09:45:25.011, 0.0918,-0.2133,-0.9575, 0.1166,-0.0192, 0.0304,-0.1150, 0.0507, 0.3436,-0.0231, 0.1919,-3.1102,49.737174,-123.098412, 3.4476, 325.7291, 140.842133, 6.0, 3.0,Walking,High, 100.8078,-0.2774,-141.3976, 38.7885,-513.0034, 0.0000, 0.0000, 0.0000
23-Jan-2019 09:45:25.024, 0.0912,-0.2162,-0.9593, 0.1146,-0.0241, 0.0241,-0.1584, 0.0239, 0.3359,-0.0232, 0.1904,-3.1067,49.737174,-123.098412, 3.4476, 325.7291, 140.842133, 6.0, 3.0,Walking,High, 100.8078,-0.2774,-141.3976, 38.7885,-513.0034, 0.0000, 0.0000, 0.0000
23-Jan-2019 09:45:25.037, 0.0901,-0.2161,-0.9576, 0.1131,-0.0294, 0.0246,-0.1867,-0.0027, 0.2920,-0.0234, 0.1877,-3.1020,49.737174,-123.098412, 3.4476, 325.7291, 140.842133, 6.0, 3.0,Walking,High, 100.8078,-0.2774,-141.3976, 38.7885,-513.0034, 0.0000, 0.0000, 0.0000
23-Jan-2019 09:45:25.042, 0.0870,-0.2119,-0.9613, 0.1133,-0.0303, 0.0247,-0.1867,-0.0027, 0.2920,-0.0236, 0.1868,-3.1005,49.737174,-123.098412, 3.4476, 325.7291, 140.842133, 6.0, 3.0,Walking,High, 100.8078,-0.2774,-139.9003, 39.3258,-512.4839, 0.0000, 0.0000, 0.0000
23-Jan-2019 09:45:25.051, 0.0799,-0.2043,-0.9668, 0.1104,-0.0278, 0.0213,-0.1739,-0.0004, 0.2729,-0.0238, 0.1852,-3.0977,49.737174,-123.098412, 3.4476, 325.7291, 140.842133, 6.0, 3.0,Walking,High, 100.8078,-0.2774,-139.9003, 39.3258,-512.4839, 0.0000, 0.0000, 0.0000
23-Jan-2019 09:45:25.061, 0.0751,-0.1970,-0.9676, 0.1034,-0.0215, 0.0161,-0.1493,-0.0045, 0.2730,-0.0239, 0.1837,-3.0949,49.737174,-123.098412, 3.4476, 324.3294, 140.842133, 6.0, 3.0,Walking,High, 100.8078,-0.2774,-139.9003, 39.3258,-512.4839, 0.0000, 0.0000, 0.0000
23-Jan-2019 09:45:25.071, 0.0754,-0.1906,-0.9599, 0.0988,-0.0153, 0.0155,-0.1153,-0.0054, 0.2817,-0.0241, 0.1827,-3.0920,49.737174,-123.098412, 3.4476, 324.3294, 140.842133, 6.0, 3.0,Walking,High, 100.8078,-0.2774,-139.9003, 39.3258,-512.4839, 0.0000, 0.0000, 0.0000
23-Jan-2019 09:45:25.081, 0.0716,-0.1842,-0.9501, 0.0993,-0.0097, 0.0233,-0.0835,-0.0064, 0.3032,-0.0243, 0.1819,-3.0889,49.737174,-123.098412, 3.4476, 324.3294, 140.842133, 6.0, 3.0,Walking,High, 100.8078,-0.2774,-138.9328, 40.5339,-512.0332, 0.0000, 0.0000, 0.0000
23-Jan-2019 09:45:25.090, 0.0666,-0.1806,-0.9442, 0.0958,-0.0038, 0.0332,-0.0570,-0.0117, 0.3289,-0.0246, 0.1814,-3.0855,49.737174,-123.098412, 3.4476, 324.3294, 140.842133, 6.0, 3.0,Walking,High, 100.8078,-0.2774,-138.9328, 40.5339,-512.0332, 0.0000, 0.0000, 0.0000
23-Jan-2019 09:45:25.100, 0.0627,-0.1799,-0.9389, 0.0913,-0.0006, 0.0391,-0.0411,-0.0202, 0.3502,-0.0251, 0.1811,-3.0820,49.737174,-123.098412, 3.4476, 324.3294, 140.842133, 6.0, 3.0,Walking,High, 100.8078,-0.2774,-138.9328, 40.5339,-512.0332, 0.0000, 0.0000, 0.0000
23-Jan-2019 09:45:25.111, 0.0546,-0.1808,-0.9381, 0.0879,-0.0002, 0.0445,-0.0475,-0.0214, 0.3566,-0.0256, 0.1807,-3.0783,49.737174,-123.098412, 3.4476, 324.3294, 140.842133, 6.0, 3.0,Walking,High, 100.8078,-0.2774,-138.9328, 40.5339,-512.0332, 0.0000, 0.0000, 0.0000
23-Jan-2019 09:45:25.120, 0.0459,-0.1845,-0.9367, 0.0803,-0.0017, 0.0453,-0.0613,-0.0246, 0.3523,-0.0261, 0.1801,-3.0747,49.737174,-123.098412, 3.4476, 324.3294, 140.842133, 6.0, 3.0,Walking,High, 100.8078,-0.2774,-137.8143, 41.5932,-511.5841, 0.0000, 0.0000, 0.0000
23-Jan-2019 09:45:25.135, 0.0376,-0.1841,-0.9330, 0.0637,-0.0059, 0.0507,-0.0730,-0.0129, 0.3384,-0.0265, 0.1791,-3.0696,49.737174,-123.098412, 3.4476, 324.3294, 140.842133, 6.0, 3.0,Walking,High, 100.8078,-0.2774,-137.8143, 41.5932,-511.5841, 0.0000, 0.0000, 0.0000
23-Jan-2019 09:45:25.140, 0.0291,-0.1819,-0.9315, 0.0637,-0.0063, 0.0508,-0.0785, 0.0298, 0.3118,-0.0265, 0.1787,-3.0680,49.737174,-123.098412, 3.4476, 322.8805, 140.842133, 6.0, 3.0,Walking,High, 100.8078,-0.2774,-137.8143, 41.5932,-511.5841, 0.0000, 0.0000, 0.0000
23-Jan-2019 09:45:25.150, 0.0278,-0.1831,-0.9299, 0.0545,-0.0049, 0.0524,-0.0841, 0.0916, 0.2810,-0.0258, 0.1779,-3.0651,49.737174,-123.098412, 3.4476, 322.8805, 140.842133, 6.0, 3.0,Walking,High, 100.8078,-0.2774,-137.8143, 41.5932,-511.5841, 0.0000, 0.0000, 0.0000
23-Jan-2019 09:45:25.160, 0.0335,-0.1814,-0.9255, 0.0520,-0.0069, 0.0542,-0.0928, 0.1535, 0.2534,-0.0245, 0.1771,-3.0625,49.737174,-123.098412, 3.4476, 322.8805, 140.842133, 6.0, 3.0,Walking,High, 100.8078,-0.2774,-136.7687, 42.2765,-511.3614, 0.0000, 0.0000, 0.0000
23-Jan-2019 09:45:25.170, 0.0484,-0.1799,-0.9267, 0.0561,-0.0063, 0.0588,-0.1142, 0.1790, 0.2320,-0.0229, 0.1760,-3.0601,49.737210,-123.098438, 4.3367, 322.8805, 140.842133, 6.0, 3.0,Walking,High, 100.8078,-0.2774,-136.7687, 42.2765,-511.3614, 0.0000, 0.0000, 0.0000
23-Jan-2019 09:45:25.180, 0.0671,-0.1777,-0.9303, 0.0696,-0.0062, 0.0578,-0.1384, 0.1513, 0.2158,-0.0216, 0.1747,-3.0578,49.737210,-123.098438, 4.3367, 322.8805, 140.842133, 6.0, 3.0,Walking,High, 100.8078,-0.2774,-136.7687, 42.2765,-511.3614, 0.0000, 0.0000, 0.0000
23-Jan-2019 09:45:25.190, 0.0763,-0.1724,-0.9257, 0.0874,-0.0054, 0.0546,-0.1572, 0.1065, 0.2146,-0.0206, 0.1732,-3.0556,49.737210,-123.098438, 4.3367, 322.8805, 140.842133, 6.0, 3.0,Walking,High, 100.8078,-0.2774,-136.7687, 42.2765,-511.3614, 0.0000, 0.0000, 0.0000
23-Jan-2019 09:45:25.200, 0.0804,-0.1663,-0.9237, 0.0962,-0.0015, 0.0594,-0.1570, 0.0660, 0.2284,-0.0202, 0.1717,-3.0532,49.737210,-123.098438, 4.3367, 322.8805, 140.842133, 6.0, 3.0,Walking,High, 100.8078,-0.2774,-136.4668, 42.2051,-510.6884, 0.0000, 0.0000, 0.0000
23-Jan-2019 09:45:25.209, 0.0856,-0.1671,-0.9287, 0.1002, 0.0032, 0.0616,-0.1473, 0.0361, 0.2422,-0.0200, 0.1703,-3.0507,49.737210,-123.098438, 4.3367, 321.7809, 140.842133, 6.0, 3.0,Walking,High, 100.8078,-0.2774,-136.4668, 42.2051,-510.6884, 0.0000, 0.0000, 0.0000
23-Jan-2019 09:45:25.219, 0.0942,-0.1747,-0.9347, 0.1054, 0.0011, 0.0568,-0.1324, 0.0149, 0.2550,-0.0202, 0.1690,-3.0480,49.737210,-123.098438, 4.3367, 321.7809, 140.842133, 6.0, 3.0,Walking,High, 100.8078,-0.2774,-136.4668, 42.2051,-510.6884, 0.0000, 0.0000, 0.0000
23-Jan-2019 09:45:25.230, 0.1033,-0.1835,-0.9460, 0.1144,-0.0076, 0.0511,-0.1249,-0.0022, 0.2668,-0.0205, 0.1678,-3.0452,49.737210,-123.098438, 4.3367, 321.7809, 140.842133, 6.0, 3.0,Walking,High, 100.8078,-0.2774,-136.4668, 42.2051,-510.6884, 0.0000, 0.0000, 0.0000
23-Jan-2019 09:45:25.239, 0.1055,-0.1855,-0.9612, 0.1240,-0.0177, 0.0400,-0.1269,-0.0182, 0.2731,-0.0210, 0.1666,-3.0424,49.737210,-123.098438, 4.3367, 321.7809, 140.842133, 6.0, 3.0,Walking,High, 100.8078,-0.2774,-135.8622, 41.6857,-510.1694, 0.0000, 0.0000, 0.0000
23-Jan-2019 09:45:25.249, 0.1034,-0.1863,-0.9770, 0.1266,-0.0210, 0.0249,-0.1439,-0.0172, 0.2741,-0.0214, 0.1653,-3.0396,49.737210,-123.098438, 4.3367, 321.7809, 140.842133, 6.0, 3.0,Walking,High, 100.8078,-0.2774,-135.8622, 41.6857,-510.1694, 0.0000, 0.0000, 0.0000
23-Jan-2019 09:45:25.259, 0.1021,-0.1891,-0.9966, 0.1249,-0.0233, 0.0094,-0.1632,-0.0099, 0.2751,-0.0218, 0.1637,-3.0367,49.737210,-123.098438, 4.3367, 321.7809, 140.842133, 6.0, 3.0,Walking,High, 100.8078,-0.2774,-135.8622, 41.6857,-510.1694, 0.0000, 0.0000, 0.0000
23-Jan-2019 09:45:25.269, 0.0989,-0.1900,-1.0083, 0.1238,-0.0276,-0.0100,-0.1643, 0.0018, 0.2740,-0.0220, 0.1622,-3.0339,49.737210,-123.098438, 4.3367, 321.7809, 140.842133, 6.0, 3.0,Walking,High, 100.8078,-0.2774,-135.8622, 41.6857,-510.1694, 0.0000, 0.0000, 0.0000
23-Jan-2019 09:45:25.279, 0.0931,-0.1893,-1.0099, 0.1202,-0.0299,-0.0215,-0.1529, 0.0477, 0.2656,-0.0217, 0.1607,-3.0312,49.737210,-123.098438, 4.3367, 321.7809, 140.842133, 6.0, 3.0,Walking,High, 100.8078,-0.2774,-135.1832, 41.3171,-509.4999, 0.0000, 0.0000, 0.0000
23-Jan-2019 09:45:25.289, 0.0932,-0.1844,-1.0173, 0.1137,-0.0306,-0.0228,-0.1404, 0.0978, 0.2551,-0.0209, 0.1594,-3.0285,49.737210,-123.098438, 4.3367, 320.5893, 140.842133, 6.0, 3.0,Walking,High, 100.8078,-0.2774,-135.1832, 41.3171,-509.4999, 0.0000, 0.0000, 0.0000
23-Jan-2019 09:45:25.299, 0.0997,-0.1791,-1.0290, 0.1129,-0.0269,-0.0300,-0.1287, 0.1086, 0.2478,-0.0199, 0.1582,-3.0260,49.737210,-123.098438, 4.3367, 320.5893, 140.842133, 6.0, 3.0,Walking,High, 100.8078,-0.2774,-135.1832, 41.3171,-509.4999, 0.0000, 0.0000, 0.0000
23-Jan-2019 09:45:25.309, 0.1076,-0.1769,-1.0326, 0.1185,-0.0226,-0.0415,-0.1158, 0.0884, 0.2521,-0.0191, 0.1571,-3.0234,49.737210,-123.098438, 4.3367, 320.5893, 140.842133, 6.0, 3.0,Walking,High, 100.8078,-0.2774,-135.1832, 41.3171,-509.4999, 0.0000, 0.0000, 0.0000
23-Jan-2019 09:45:25.319, 0.1136,-0.1717,-1.0253, 0.1258,-0.0211,-0.0450,-0.0859, 0.0640, 0.2639,-0.0184, 0.1564,-3.0207,49.737210,-123.098438, 4.3367, 320.5893, 140.842133, 6.0, 3.0,Walking,High, 100.8078,-0.2774,-134.7315, 41.0957,-509.4285, 0.0000, 0.0000, 0.0000
23-Jan-2019 09:45:25.329, 0.1151,-0.1664,-1.0173, 0.1312,-0.0163,-0.0376,-0.0486, 0.0504, 0.2736,-0.0179, 0.1560,-3.0179,49.737210,-123.098438, 4.3367, 320.5893, 140.842133, 6.0, 3.0,Walking,High, 100.8078,-0.2774,-134.7315, 41.0957,-509.4285, 0.0000, 0.0000, 0.0000
23-Jan-2019 09:45:25.339, 0.1172,-0.1662,-1.0114, 0.1323,-0.0111,-0.0296,-0.0125, 0.0473, 0.2834,-0.0174, 0.1560,-3.0150,49.737210,-123.098438, 4.3367, 320.5893, 140.842133, 6.0, 3.0,Walking,High, 100.8078,-0.2774,-134.7315, 41.0957,-509.4285, 0.0000, 0.0000, 0.0000
23-Jan-2019 09:45:25.349, 0.1222,-0.1714,-1.0053, 0.1340,-0.0107,-0.0237, 0.0066, 0.0452, 0.2963,-0.0170, 0.1561,-3.0119,49.737210,-123.098438, 4.3367, 320.5893, 140.842133, 6.0, 3.0,Walking,High, 100.8078,-0.2774,-134.7315, 41.0957,-509.4285, 0.0000, 0.0000, 0.0000
23-Jan-2019 09:45:25.359, 0.1247,-0.1749,-0.9993, 0.1387,-0.0157,-0.0176, 0.0141, 0.0431, 0.3070,-0.0167, 0.1564,-3.0088,49.737210,-123.098438, 4.3367, 319.3882, 140.842133, 6.0, 3.0,Walking,High, 100.8078,-0.2774,-133.9802, 40.8761,-509.5088, 0.0000, 0.0000, 0.0000
23-Jan-2019 09:45:25.369, 0.1222,-0.1731,-0.9975, 0.1408,-0.0190,-0.0116, 0.0108, 0.0483, 0.3176,-0.0163, 0.1565,-3.0055,49.737210,-123.098438, 4.3367, 319.3882, 140.842133, 6.0, 3.0,Walking,High, 100.8078,-0.2774,-133.9802, 40.8761,-509.5088, 0.0000, 0.0000, 0.0000
23-Jan-2019 09:45:25.379, 0.1176,-0.1711,-1.0020, 0.1381,-0.0171,-0.0099,-0.0021, 0.0493, 0.3271,-0.0160, 0.1566,-3.0021,49.737210,-123.098438, 4.3367, 319.3882, 140.842133, 6.0, 3.0,Walking,High, 100.8078,-0.2774,-133.9802, 40.8761,-509.5088, 0.0000, 0.0000, 0.0000
23-Jan-2019 09:45:25.388, 0.1113,-0.1735,-1.0038, 0.1332,-0.0152,-0.0144,-0.0096, 0.0502, 0.3420,-0.0158, 0.1566,-2.9986,49.737210,-123.098438, 4.3367, 319.3882, 140.842133, 6.0, 3.0,Walking,High, 100.8078,-0.2774,-133.9802, 40.8761,-509.5088, 0.0000, 0.0000, 0.0000
23-Jan-2019 09:45:25.399, 0.1092,-0.1756,-0.9990, 0.1266,-0.0174,-0.0161, 0.0169, 0.0545, 0.3624,-0.0155, 0.1568,-2.9949,49.737210,-123.098438, 4.3367, 319.3882, 140.842133, 6.0, 3.0,Walking,High, 100.8078,-0.2774,-133.4571, 40.9537,-510.1862, 0.0000, 0.0000, 0.0000
23-Jan-2019 09:45:25.409, 0.1099,-0.1753,-0.9866, 0.1240,-0.0188,-0.0115, 0.0689, 0.0718, 0.3691,-0.0150, 0.1575,-2.9911,49.737210,-123.098438, 4.3367, 318.3823, 140.842133, 6.0, 3.0,Walking,High, 100.8078,-0.2774,-133.4571, 40.9537,-510.1862, 0.0000, 0.0000, 0.0000
23-Jan-2019 09:45:25.418, 0.1078,-0.1747,-0.9664, 0.1239,-0.0171, 0.0007, 0.1345, 0.1222, 0.3684,-0.0141, 0.1589,-2.9873,49.737210,-123.098438, 4.3367, 318.3823, 140.842133, 6.0, 3.0,Walking,High, 100.8078,-0.2774,-133.4571, 40.9537,-510.1862, 0.0000, 0.0000, 0.0000
23-Jan-2019 09:45:25.429, 0.1066,-0.1784,-0.9495, 0.1203,-0.0148, 0.0206, 0.1831, 0.1746, 0.3730,-0.0127, 0.1607,-2.9834,49.737210,-123.098438, 4.3367, 318.3823, 140.842133, 6.0, 3.0,Walking,High, 100.8078,-0.2774,-133.4571, 40.9537,-510.1862, 0.0000, 0.0000, 0.0000
23-Jan-2019 09:45:25.438, 0.1100,-0.1836,-0.9396, 0.1173,-0.0165, 0.0372, 0.1924, 0.2055, 0.3859,-0.0109, 0.1626,-2.9794,49.737210,-123.098438, 4.3367, 318.3823, 140.842133, 6.0, 3.0,Walking,High, 100.8078,-0.2774,-132.6351, 41.1079,-511.1650, 0.0000, 0.0000, 0.0000
23-Jan-2019 09:45:25.448, 0.1139,-0.1846,-0.9271, 0.1189,-0.0200, 0.0469, 0.1699, 0.2159, 0.4029,-0.0090, 0.1643,-2.9753,49.737210,-123.098438, 4.3367, 318.3823, 140.842133, 6.0, 3.0,Walking,High, 100.8078,-0.2774,-132.6351, 41.1079,-511.1650, 0.0000, 0.0000, 0.0000
23-Jan-2019 09:45:25.458, 0.1212,-0.1826,-0.9142, 0.1208,-0.0199, 0.0592, 0.1186, 0.2379, 0.4165,-0.0070, 0.1655,-2.9710,49.737210,-123.098438, 4.3367, 317.2372, 140.842133, 6.0, 3.0,Walking,High, 100.8078,-0.2774,-132.6351, 41.1079,-511.1650, 0.0000, 0.0000, 0.0000
23-Jan-2019 09:45:25.468, 0.1324,-0.1854,-0.9095, 0.1257,-0.0172, 0.0720, 0.0546, 0.2620, 0.4109,-0.0046, 0.1661,-2.9668,49.737210,-123.098438, 4.3367, 317.2372, 140.842133, 6.0, 3.0,Walking,High, 100.8078,-0.2774,-132.6351, 41.1079,-511.1650, 0.0000, 0.0000, 0.0000
23-Jan-2019 09:45:25.478, 0.1381,-0.1917,-0.9025, 0.1345,-0.0200, 0.0767,-0.0008, 0.2777, 0.4021,-0.0021, 0.1662,-2.9627,49.737210,-123.098438, 4.3367, 317.2372, 140.842133, 6.0, 3.0,Walking,High, 100.8078,-0.2774,-131.8178, 41.7106,-512.8915, 0.0000, 0.0000, 0.0000
23-Jan-2019 09:45:25.488, 0.1508,-0.1944,-0.8940, 0.1378,-0.0265, 0.0838,-0.0369, 0.2733, 0.3977, 0.0003, 0.1659,-2.9586,49.737210,-123.098438, 4.3367, 317.2372, 140.842133, 6.0, 3.0,Walking,High, 100.8078,-0.2774,-131.8178, 41.7106,-512.8915, 0.0000, 0.0000, 0.0000
23-Jan-2019 09:45:25.498, 0.1668,-0.1910,-0.8869, 0.1485,-0.0296, 0.0924,-0.0472, 0.2318, 0.3858, 0.0024, 0.1655,-2.9547,49.737210,-123.098438, 4.3367, 317.2372, 140.842133, 6.0, 3.0,Walking,High, 100.8078,-0.2774,-131.8178, 41.7106,-512.8915, 0.0000, 0.0000, 0.0000
23-Jan-2019 09:45:25.508, 0.1739,-0.1848,-0.8808, 0.1632,-0.0265, 0.0995,-0.0382, 0.1584, 0.3772, 0.0036, 0.1652,-2.9508,49.737210,-123.098438, 4.3367, 316.0677, 140.842133, 6.0, 3.0,Walking,High, 100.8078,-0.2774,-131.8178, 41.7106,-512.8915, 0.0000, 0.0000, 0.0000
23-Jan-2019 09:45:25.518, 0.1763,-0.1823,-0.8778, 0.1698,-0.0204, 0.1055,-0.0164, 0.0830, 0.3814, 0.0041, 0.1652,-2.9468,49.737210,-123.098438, 4.3367, 316.0677, 140.842133, 6.0, 3.0,Walking,High, 100.8078,-0.2774,-130.9906, 41.2659,-513.3483, 0.0000, 0.0000, 0.0000
23-Jan-2019 09:45:25.528, 0.1757,-0.1824,-0.8807, 0.1725,-0.0177, 0.1085, 0.0052, 0.0117, 0.4049, 0.0038, 0.1654,-2.9427,49.737210,-123.098438, 4.3367, 316.0677, 140.842133, 6.0, 3.0,Walking,High, 100.8078,-0.2774,-130.9906, 41.2659,-513.3483, 0.0000, 0.0000, 0.0000
23-Jan-2019 09:45:25.538, 0.1765,-0.1831,-0.8839, 0.1726,-0.0175, 0.1056, 0.0160,-0.0299, 0.4336, 0.0031, 0.1657,-2.9382,49.737210,-123.098438, 4.3367, 316.0677, 140.842133, 6.0, 3.0,Walking,High, 100.8078,-0.2774,-130.9906, 41.2659,-513.3483, 0.0000, 0.0000, 0.0000
23-Jan-2019 09:45:25.548, 0.1825,-0.1857,-0.8903, 0.1744,-0.0179, 0.1024, 0.0160,-0.0439, 0.4613, 0.0021, 0.1660,-2.9335,49.737210,-123.098438, 4.3367, 316.0677, 140.842133, 6.0, 3.0,Walking,High, 100.8078,-0.2774,-130.9906, 41.2659,-513.3483, 0.0000, 0.0000, 0.0000
23-Jan-2019 09:45:25.557, 0.1887,-0.1930,-0.9007, 0.1813,-0.0205, 0.0959,-0.0033,-0.0356, 0.4772, 0.0012, 0.1660,-2.9286,49.737210,-123.098438, 4.3367, 314.8116, 140.842133, 6.0, 3.0,Walking,High, 100.8078,-0.2774,-130.1613, 40.5966,-513.5811, 0.0000, 0.0000, 0.0000
23-Jan-2019 09:45:25.568, 0.2009,-0.2018,-0.9107, 0.1882,-0.0280, 0.0856,-0.0386,-0.0135, 0.4834, 0.0005, 0.1658,-2.9236,49.737210,-123.098438, 4.3367, 314.8116, 140.842133, 6.0, 3.0,Walking,High, 100.8078,-0.2774,-130.1613, 40.5966,-513.5811, 0.0000, 0.0000, 0.0000
23-Jan-2019 09:45:25.577, 0.2132,-0.2071,-0.9185, 0.2012,-0.0373, 0.0757,-0.0685,-0.0052, 0.4918,-0.0003, 0.1652,-2.9185,49.737210,-123.098438, 4.3367, 314.8116, 140.842133, 6.0, 3.0,Walking,High, 100.8078,-0.2774,-130.1613, 40.5966,-513.5811, 0.0000, 0.0000, 0.0000
23-Jan-2019 09:45:25.587, 0.2211,-0.2101,-0.9279, 0.2143,-0.0435, 0.0680,-0.0899,-0.0118, 0.5034,-0.0012, 0.1644,-2.9133,49.737210,-123.098438, 4.3367, 314.8116, 140.842133, 6.0, 3.0,Walking,High, 100.8078,-0.2774,-130.1613, 40.5966,-513.5811, 0.0000, 0.0000, 0.0000
23-Jan-2019 09:45:25.597, 0.2227,-0.2162,-0.9389, 0.2233,-0.0472, 0.0588,-0.0866,-0.0267, 0.5098,-0.0022, 0.1636,-2.9081,49.737210,-123.098438, 4.3367, 314.8116, 140.842133, 6.0, 3.0,Walking,High, 100.8078,-0.2774,-128.2044, 39.7120,-513.2213, 0.0000, 0.0000, 0.0000
23-Jan-2019 09:45:25.607, 0.2125,-0.2210,-0.9473, 0.2256,-0.0539, 0.0479,-0.0697,-0.0085, 0.5120,-0.0030, 0.1630,-2.9028,49.737210,-123.098438, 4.3367, 313.3406, 140.842133, 6.0, 3.0,Walking,High, 100.8078,-0.2774,-128.2044, 39.7120,-513.2213, 0.0000, 0.0000, 0.0000
23-Jan-2019 09:45:25.617, 0.2001,-0.2224,-0.9579, 0.2157,-0.0592, 0.0395,-0.0551, 0.0309, 0.5196,-0.0032, 0.1626,-2.8975,49.737210,-123.098438, 4.3367, 313.3406, 140.842133, 6.0, 3.0,Walking,High, 100.8078,-0.2774,-128.2044, 39.7120,-513.2213, 0.0000, 0.0000, 0.0000
23-Jan-2019 09:45:25.627, 0.1898,-0.2278,-0.9690, 0.2031,-0.0611, 0.0290,-0.0618, 0.0702, 0.5261,-0.0031, 0.1620,-2.8921,49.737210,-123.098438, 4.3367, 313.3406, 140.842133, 6.0, 3.0,Walking,High, 100.8078,-0.2774,-128.2044, 39.7120,-513.2213, 0.0000, 0.0000, 0.0000
23-Jan-2019 09:45:25.637, 0.1867,-0.2344,-0.9781, 0.1924,-0.0671, 0.0180,-0.0811, 0.0935, 0.5228,-0.0027, 0.1613,-2.8868,49.737210,-123.098438, 4.3367, 313.3406, 140.842133, 6.0, 3.0,Walking,High, 100.8078,-0.2774,-125.5029, 39.5074,-513.1622, 0.0000, 0.0000, 0.0000
23-Jan-2019 09:45:25.647, 0.1850,-0.2376,-0.9868, 0.1891,-0.0747, 0.0090,-0.1023, 0.0828, 0.5163,-0.0024, 0.1604,-2.8815,49.737210,-123.098438, 4.3367, 313.3406, 140.842133, 6.0, 3.0,Walking,High, 100.8078,-0.2774,-125.5029, 39.5074,-513.1622, 0.0000, 0.0000, 0.0000
23-Jan-2019 09:45:25.657, 0.1792,-0.2379,-0.9901, 0.1873,-0.0788, 0.0005,-0.1095, 0.0498, 0.5151,-0.0023, 0.1595,-2.8762,49.737210,-123.098438, 4.3367, 311.8159, 140.842133, 6.0, 3.0,Walking,High, 100.8078,-0.2774,-125.5029, 39.5074,-513.1622, 0.0000, 0.0000, 0.0000
23-Jan-2019 09:45:25.667, 0.1724,-0.2314,-0.9880, 0.1817,-0.0799,-0.0026,-0.0934, 0.0179, 0.5237,-0.0025, 0.1587,-2.8709,49.737210,-123.098438, 4.3367, 311.8159, 140.842133, 6.0, 3.0,Walking,High, 100.8078,-0.2774,-125.5029, 39.5074,-513.1622, 0.0000, 0.0000, 0.0000
23-Jan-2019 09:45:25.677, 0.1664,-0.2231,-0.9875, 0.1752,-0.0738,-0.0005,-0.0581,-0.0075, 0.5377,-0.0028, 0.1582,-2.8655,49.737210,-123.098438, 4.3367, 311.8159, 140.842133, 6.0, 3.0,Walking,High, 100.8078,-0.2774,-122.8779, 39.6783,-512.5758, 0.0000, 0.0000, 0.0000
23-Jan-2019 09:45:25.686, 0.1572,-0.2210,-0.9861, 0.1696,-0.0655,-0.0000,-0.0177,-0.0170, 0.5560,-0.0032, 0.1582,-2.8598,49.737210,-123.098438, 4.3367, 311.8159, 140.842133, 6.0, 3.0,Walking,High, 100.8078,-0.2774,-122.8779, 39.6783,-512.5758, 0.0000, 0.0000, 0.0000
