Timestamp,accelX(g),accelY(g),accelZ(g),accelUserX(g),accelUserY(g),accelUserZ(g),gyroX(rad/s),gyroY(rad/s),gyroZ(rad/s),Roll(rads),Pitch(rads),Yaw(rads),Lat,Long,Speed(m/s),TrueHeading,Alt(m), HorizontalAccuracy(m), VerticalAccuracy(m),ActivityType,ActivityConfidence,Pressure(kilopascals),RelativeAltitude(meters),magX(µT),magY(µT),magZ(µT),calMagX,calMagY,calMagZ
23-Jan-2019 09:45:45.472, 0.2122,-0.5076,-0.8214, 0.1534,-0.1720, 0.1188, 0.1146, 0.3496, 0.2175, 0.0625, 0.3422,-1.3277,49.737297,-123.098656, 2.2351, 222.2585, 142.788895, 6.0, 3.0,Unknown,High, 100.8031, 0.1136,-69.9811,-8.5408,-520.4579, 0.0000, 0.0000, 0.0000
23-Jan-2019 09:45:45.482, 0.2271,-0.4576,-0.7817, 0.1672,-0.1215, 0.1582, 0.0637, 0.2220, 0.1520, 0.0636, 0.3428,-1.3261,49.737297,-123.098656, 2.2351, 222.2585, 142.788895, 6.0, 3.0,Unknown,High, 100.8031, 0.1136,-69.9811,-8.5408,-520.4579, 0.0000, 0.0000, 0.0000
23-Jan-2019 09:45:45.488, 0.2102,-0.4403,-0.7571, 0.1675,-0.1218, 0.1584,-0.0490, 0.0328, 0.1703, 0.0633, 0.3425,-1.3250,49.737297,-123.098656, 2.2351, 222.2585, 142.788895, 6.0, 3.0,Unknown,High, 100.8031, 0.1136,-69.9811,-8.5408,-520.4579, 0.0000, 0.0000, 0.0000
23-Jan-2019 09:45:45.498, 0.2348,-0.4527,-0.7678, 0.1524,-0.1063, 0.1837,-0.2407,-0.1548, 0.2318, 0.0613, 0.3406,-1.3224,49.737297,-123.098656, 2.2351, 222.2585, 142.788895, 6.0, 3.0,Unknown,High, 100.8031, 0.1136,-70.5123,-7.7202,-520.6758, 0.0000, 0.0000, 0.0000
23-Jan-2019 09:45:45.508, 0.2558,-0.4729,-0.7951, 0.1813,-0.1222, 0.1745,-0.4449,-0.3799, 0.2933, 0.0568, 0.3369,-1.3191,49.737297,-123.098656, 2.2351, 222.2585, 142.788895, 6.0, 3.0,Unknown,High, 100.8031, 0.1136,-70.5123,-7.7202,-520.6758, 0.0000, 0.0000, 0.0000
23-Jan-2019 09:45:45.518, 0.2557,-0.4794,-0.8071, 0.2079,-0.1474, 0.1492,-0.6059,-0.5300, 0.3305, 0.0507, 0.3315,-1.3153,49.737297,-123.098656, 2.2351, 222.2585, 142.788895, 6.0, 3.0,Unknown,High, 100.8031, 0.1136,-70.5123,-7.7202,-520.6758, 0.0000, 0.0000, 0.0000
23-Jan-2019 09:45:45.528, 0.2515,-0.4708,-0.8187, 0.2137,-0.1599, 0.1395,-0.7026,-0.5572, 0.3407, 0.0444, 0.3252,-1.3113,49.737297,-123.098656, 2.2351, 222.2585, 142.788895, 6.0, 3.0,Unknown,High, 100.8031, 0.1136,-70.5123,-7.7202,-520.6758, 0.0000, 0.0000, 0.0000
23-Jan-2019 09:45:45.538, 0.2379,-0.4553,-0.8422, 0.2149,-0.1575, 0.1302,-0.7233,-0.4956, 0.3481, 0.0386, 0.3187,-1.3073,49.737297,-123.098656, 2.2351, 222.2585, 142.788895, 6.0, 3.0,Unknown,High, 100.8031, 0.1136,-71.6419,-6.8270,-519.8401, 0.0000, 0.0000, 0.0000
23-Jan-2019 09:45:45.548, 0.2222,-0.4383,-0.8676, 0.2060,-0.1476, 0.1087,-0.6718,-0.4114, 0.3698, 0.0336, 0.3128,-1.3032,49.737297,-123.098656, 2.2351, 220.9645, 142.788895, 6.0, 3.0,Unknown,High, 100.8031, 0.1136,-71.6419,-6.8270,-519.8401, 0.0000, 0.0000, 0.0000
23-Jan-2019 09:45:45.558, 0.2117,-0.4192,-0.8840, 0.1940,-0.1354, 0.0850,-0.5704,-0.3130, 0.3982, 0.0296, 0.3078,-1.2988,49.737297,-123.098656, 2.2351, 220.9645, 142.788895, 6.0, 3.0,Unknown,High, 100.8031, 0.1136,-71.6419,-6.8270,-519.8401, 0.0000, 0.0000, 0.0000
23-Jan-2019 09:45:45.568, 0.1986,-0.4028,-0.8980, 0.1863,-0.1200, 0.0698,-0.4553,-0.2125, 0.4309, 0.0266, 0.3038,-1.2942,49.737297,-123.098656, 2.2351, 220.9645, 142.788895, 6.0, 3.0,Unknown,High, 100.8031, 0.1136,-71.6419,-6.8270,-519.8401, 0.0000, 0.0000, 0.0000
23-Jan-2019 09:45:45.578, 0.1842,-0.3938,-0.9157, 0.1753,-0.1064, 0.0568,-0.3454,-0.1269, 0.4636, 0.0244, 0.3010,-1.2893,49.737297,-123.098656, 2.2351, 220.9645, 142.788895, 6.0, 3.0,Unknown,High, 100.8031, 0.1136,-71.6419,-6.8270,-519.8401, 0.0000, 0.0000, 0.0000
23-Jan-2019 09:45:45.588, 0.1776,-0.3957,-0.9326, 0.1623,-0.0993, 0.0397,-0.2662,-0.0467, 0.4812, 0.0230, 0.2989,-1.2843,49.737297,-123.098656, 2.2351, 220.9645, 142.788895, 6.0, 3.0,Unknown,High, 100.8031, 0.1136,-72.2467,-5.9300,-519.0823, 0.0000, 0.0000, 0.0000
23-Jan-2019 09:45:45.598, 0.1781,-0.4027,-0.9409, 0.1561,-0.1029, 0.0233,-0.2327, 0.0418, 0.4826, 0.0225, 0.2972,-1.2793,49.737297,-123.098656, 2.2351, 219.6339, 142.788895, 6.0, 3.0,Unknown,High, 100.8031, 0.1136,-72.2467,-5.9300,-519.0823, 0.0000, 0.0000, 0.0000
23-Jan-2019 09:45:45.607, 0.1873,-0.4115,-0.9533, 0.1568,-0.1114, 0.0154,-0.2244, 0.0631, 0.4890, 0.0223, 0.2956,-1.2742,49.737297,-123.098656, 2.2351, 219.6339, 142.788895, 6.0, 3.0,Unknown,High, 100.8031, 0.1136,-72.2467,-5.9300,-519.0823, 0.0000, 0.0000, 0.0000
23-Jan-2019 09:45:45.618, 0.1995,-0.4133,-0.9588, 0.1664,-0.1215, 0.0035,-0.2146, 0.0312, 0.4837, 0.0218, 0.2942,-1.2692,49.737297,-123.098656, 2.2351, 219.6339, 142.788895, 6.0, 3.0,Unknown,High, 100.8031, 0.1136,-72.2467,-5.9300,-519.0823, 0.0000, 0.0000, 0.0000
23-Jan-2019 09:45:45.627, 0.2139,-0.4051,-0.9591, 0.1794,-0.1244,-0.0016,-0.1790,-0.0067, 0.4518, 0.0211, 0.2930,-1.2645,49.737297,-123.098656, 2.2351, 219.6339, 142.788895, 6.0, 3.0,Unknown,High, 100.8031, 0.1136,-72.6219,-5.7821,-518.7045, 0.0000, 0.0000, 0.0000
23-Jan-2019 09:45:45.637, 0.2204,-0.3979,-0.9613, 0.1944,-0.1169,-0.0017,-0.1276,-0.0168, 0.4052, 0.0203, 0.2923,-1.2603,49.737297,-123.098656, 2.2351, 219.6339, 142.788895, 6.0, 3.0,Unknown,High, 100.8031, 0.1136,-72.6219,-5.7821,-518.7045, 0.0000, 0.0000, 0.0000
23-Jan-2019 09:45:45.647, 0.2208,-0.3918,-0.9699, 0.2012,-0.1101,-0.0038,-0.0863, 0.0304, 0.3789, 0.0201, 0.2919,-1.2564,49.737297,-123.098656, 2.2351, 218.2671, 142.788895, 6.0, 3.0,Unknown,High, 100.8031, 0.1136,-72.6219,-5.7821,-518.7045, 0.0000, 0.0000, 0.0000
23-Jan-2019 09:45:45.657, 0.2200,-0.3869,-0.9799, 0.2013,-0.1043,-0.0123,-0.0675, 0.0880, 0.3780, 0.0204, 0.2917,-1.2524,49.737297,-123.098656, 2.2351, 218.2671, 142.788895, 6.0, 3.0,Unknown,High, 100.8031, 0.1136,-72.6219,-5.7821,-518.7045, 0.0000, 0.0000, 0.0000
23-Jan-2019 09:45:45.667, 0.2250,-0.3846,-0.9821, 0.1996,-0.0995,-0.0223,-0.0575, 0.1667, 0.4027, 0.0212, 0.2915,-1.2482,49.737297,-123.098656, 2.2351, 218.2671, 142.788895, 6.0, 3.0,Unknown,High, 100.8031, 0.1136,-72.9999,-5.3347,-518.6252, 0.0000, 0.0000, 0.0000
23-Jan-2019 09:45:45.677, 0.2306,-0.3883,-0.9807, 0.2034,-0.0973,-0.0245,-0.0464, 0.2304, 0.4370, 0.0226, 0.2914,-1.2436,49.737297,-123.098656, 2.2351, 218.2671, 142.788895, 6.0, 3.0,Unknown,High, 100.8031, 0.1136,-72.9999,-5.3347,-518.6252, 0.0000, 0.0000, 0.0000
23-Jan-2019 09:45:45.687, 0.2286,-0.3896,-0.9706, 0.2075,-0.1008,-0.0232,-0.0139, 0.2719, 0.4777, 0.0241, 0.2916,-1.2386,49.737297,-123.098656, 2.2351, 218.2671, 142.788895, 6.0, 3.0,Unknown,High, 100.8031, 0.1136,-72.9999,-5.3347,-518.6252, 0.0000, 0.0000, 0.0000
23-Jan-2019 09:45:45.697, 0.2281,-0.3896,-0.9532, 0.2039,-0.1015,-0.0133, 0.0283, 0.2986, 0.5035, 0.0259, 0.2922,-1.2334,49.737297,-123.098656, 2.2351, 217.0060, 142.788895, 6.0, 3.0,Unknown,High, 100.8031, 0.1136,-72.9999,-5.3347,-518.6252, 0.0000, 0.0000, 0.0000
23-Jan-2019 09:45:45.706, 0.2233,-0.3951,-0.9388, 0.2017,-0.1007, 0.0038, 0.0570, 0.2987, 0.5058, 0.0276, 0.2931,-1.2281,49.737297,-123.098656, 2.2351, 217.0060, 142.788895, 6.0, 3.0,Unknown,High, 100.8031, 0.1136,-73.2235,-5.5616,-518.7001, 0.0000, 0.0000, 0.0000
23-Jan-2019 09:45:45.717, 0.2154,-0.4052,-0.9264, 0.1955,-0.1053, 0.0179, 0.0605, 0.2711, 0.4983, 0.0291, 0.2940,-1.2229,49.737297,-123.098656, 2.2351, 217.0060, 142.788895, 6.0, 3.0,Unknown,High, 100.8031, 0.1136,-73.2235,-5.5616,-518.7001, 0.0000, 0.0000, 0.0000
23-Jan-2019 09:45:45.726, 0.2097,-0.4135,-0.9123, 0.1865,-0.1147, 0.0300, 0.0438, 0.2328, 0.4822, 0.0302, 0.2948,-1.2178,49.737297,-123.098656, 2.2351, 217.0060, 142.788895, 6.0, 3.0,Unknown,High, 100.8031, 0.1136,-73.2235,-5.5616,-518.7001, 0.0000, 0.0000, 0.0000
23-Jan-2019 09:45:45.737, 0.2047,-0.4175,-0.8971, 0.1800,-0.1225, 0.0439, 0.0206, 0.2008, 0.4692, 0.0310, 0.2953,-1.2129,49.737297,-123.098656, 2.2351, 217.0060, 142.788895, 6.0, 3.0,Unknown,High, 100.8031, 0.1136,-73.2235,-5.5616,-518.7001, 0.0000, 0.0000, 0.0000
23-Jan-2019 09:45:45.746, 0.1991,-0.4143,-0.8836, 0.1745,-0.1262, 0.0590,-0.0015, 0.1666, 0.4690, 0.0315, 0.2956,-1.2079,49.737297,-123.098656, 2.2351, 215.5316, 142.788895, 6.0, 3.0,Unknown,High, 100.8031, 0.1136,-73.2213,-5.9370,-518.9270, 0.0000, 0.0000, 0.0000
23-Jan-2019 09:45:45.756, 0.1958,-0.4129,-0.8762, 0.1688,-0.1229, 0.0725,-0.0204, 0.1282, 0.4721, 0.0317, 0.2957,-1.2030,49.737297,-123.098656, 2.2351, 215.5316, 142.788895, 6.0, 3.0,Unknown,High, 100.8031, 0.1136,-73.2213,-5.9370,-518.9270, 0.0000, 0.0000, 0.0000
23-Jan-2019 09:45:45.766, 0.1959,-0.4154,-0.8709, 0.1658,-0.1215, 0.0800,-0.0276, 0.0834, 0.4751, 0.0314, 0.2958,-1.1980,49.737297,-123.098656, 2.2351, 215.5316, 142.788895, 6.0, 3.0,Unknown,High, 100.8031, 0.1136,-73.2213,-5.9370,-518.9270, 0.0000, 0.0000, 0.0000
23-Jan-2019 09:45:45.776, 0.1897,-0.4124,-0.8682, 0.1665,-0.1238, 0.0852,-0.0167, 0.0505, 0.4741, 0.0308, 0.2959,-1.1930,49.737297,-123.098656, 2.2351, 215.5316, 142.788895, 6.0, 3.0,Unknown,High, 100.8031, 0.1136,-73.2213,-5.9370,-518.9270, 0.0000, 0.0000, 0.0000
23-Jan-2019 09:45:45.786, 0.1771,-0.4002,-0.8662, 0.1606,-0.1206, 0.0879,-0.0083, 0.0697, 0.4763, 0.0304, 0.2962,-1.1880,49.737297,-123.098656, 2.2351, 215.5316, 142.788895, 6.0, 3.0,Unknown,High, 100.8031, 0.1136,-73.3723,-5.7881,-518.9255, 0.0000, 0.0000, 0.0000
23-Jan-2019 09:45:45.796, 0.1684,-0.3899,-0.8646, 0.1482,-0.1080, 0.0898,-0.0075, 0.1026, 0.4891, 0.0303, 0.2965,-1.1829,49.737297,-123.098656, 2.2351, 214.1064, 142.788895, 6.0, 3.0,Unknown,High, 100.8031, 0.1136,-73.3723,-5.7881,-518.9255, 0.0000, 0.0000, 0.0000
23-Jan-2019 09:45:45.806, 0.1651,-0.3862,-0.8580, 0.1394,-0.0975, 0.0912,-0.0141, 0.1217, 0.5019, 0.0304, 0.2968,-1.1777,49.737297,-123.098656, 2.2351, 214.1064, 142.788895, 6.0, 3.0,Unknown,High, 100.8031, 0.1136,-73.3723,-5.7881,-518.9255, 0.0000, 0.0000, 0.0000
23-Jan-2019 09:45:45.816, 0.1606,-0.3942,-0.8474, 0.1360,-0.0936, 0.0978,-0.0270, 0.1172, 0.5263, 0.0304, 0.2970,-1.1722,49.737297,-123.098656, 2.2351, 214.1064, 142.788895, 6.0, 3.0,Unknown,High, 100.8031, 0.1136,-73.3723,-5.7881,-518.9255, 0.0000, 0.0000, 0.0000
23-Jan-2019 09:45:45.826, 0.1579,-0.4017,-0.8366, 0.1317,-0.1015, 0.1084,-0.0482, 0.0946, 0.5496, 0.0302, 0.2970,-1.1665,49.737297,-123.098656, 2.2351, 214.1064, 142.788895, 6.0, 3.0,Unknown,High, 100.8031, 0.1136,-72.9188,-6.3853,-519.2309, 0.0000, 0.0000, 0.0000
23-Jan-2019 09:45:45.836, 0.1553,-0.4063,-0.8318, 0.1295,-0.1092, 0.1193,-0.0788, 0.0530, 0.5355, 0.0297, 0.2968,-1.1610,49.737297,-123.098656, 2.2351, 214.1064, 142.788895, 6.0, 3.0,Unknown,High, 100.8031, 0.1136,-72.9188,-6.3853,-519.2309, 0.0000, 0.0000, 0.0000
23-Jan-2019 09:45:45.846, 0.1531,-0.4137,-0.8353, 0.1276,-0.1144, 0.1242,-0.1187, 0.0147, 0.5001, 0.0289, 0.2962,-1.1558,49.737297,-123.098656, 2.2351, 212.5542, 142.788895, 6.0, 3.0,Unknown,High, 100.8031, 0.1136,-72.9188,-6.3853,-519.2309, 0.0000, 0.0000, 0.0000
23-Jan-2019 09:45:45.856, 0.1534,-0.4153,-0.8418, 0.1264,-0.1228, 0.1210,-0.1578,-0.0088, 0.4690, 0.0279, 0.2952,-1.1509,49.737297,-123.098656, 2.2351, 212.5542, 142.788895, 6.0, 3.0,Unknown,High, 100.8031, 0.1136,-72.9188,-6.3853,-519.2309, 0.0000, 0.0000, 0.0000
23-Jan-2019 09:45:45.865, 0.1554,-0.4061,-0.8524, 0.1278,-0.1258, 0.1150,-0.1948,-0.0259, 0.4496, 0.0267, 0.2937,-1.1461,49.737297,-123.098656, 2.2351, 212.5542, 142.788895, 6.0, 3.0,Unknown,High, 100.8031, 0.1136,-72.3921,-6.6062,-519.1599, 0.0000, 0.0000, 0.0000
23-Jan-2019 09:45:45.876, 0.1584,-0.3929,-0.8613, 0.1312,-0.1183, 0.1050,-0.2170,-0.0462, 0.4388, 0.0253, 0.2920,-1.1415,49.737297,-123.098656, 2.2351, 212.5542, 142.788895, 6.0, 3.0,Unknown,High, 100.8031, 0.1136,-72.3921,-6.6062,-519.1599, 0.0000, 0.0000, 0.0000
23-Jan-2019 09:45:45.885, 0.1517,-0.3810,-0.8677, 0.1356,-0.1068, 0.0966,-0.2222,-0.0580, 0.4398, 0.0237, 0.2902,-1.1368,49.737297,-123.098656, 2.2351, 212.5542, 142.788895, 6.0, 3.0,Unknown,High, 100.8031, 0.1136,-72.3921,-6.6062,-519.1599, 0.0000, 0.0000, 0.0000
23-Jan-2019 09:45:45.895, 0.1470,-0.3741,-0.8734, 0.1305,-0.0966, 0.0908,-0.2127,-0.0580, 0.4516, 0.0221, 0.2884,-1.1320,49.737297,-123.098656, 2.2351, 211.1706, 142.788895, 6.0, 3.0,Unknown,High, 100.8031, 0.1136,-72.3921,-6.6062,-519.1599, 0.0000, 0.0000, 0.0000
23-Jan-2019 09:45:45.905, 0.1508,-0.3761,-0.8861, 0.1273,-0.0913, 0.0855,-0.2021,-0.0526, 0.4474, 0.0205, 0.2868,-1.1273,49.737297,-123.098656, 2.2351, 211.1706, 142.788895, 6.0, 3.0,Unknown,High, 100.8031, 0.1136,-71.7917,-6.5259,-518.7128, 0.0000, 0.0000, 0.0000
23-Jan-2019 09:45:45.915, 0.1510,-0.3840,-0.9020, 0.1325,-0.0948, 0.0733,-0.1935,-0.0535, 0.4315, 0.0191, 0.2852,-1.1227,49.737297,-123.098656, 2.2351, 211.1706, 142.788895, 6.0, 3.0,Unknown,High, 100.8031, 0.1136,-71.7917,-6.5259,-518.7128, 0.0000, 0.0000, 0.0000
23-Jan-2019 09:45:45.925, 0.1541,-0.3797,-0.9082, 0.1338,-0.1041, 0.0579,-0.1883,-0.0225, 0.4166, 0.0179, 0.2837,-1.1183,49.737297,-123.098656, 2.2351, 211.1706, 142.788895, 6.0, 3.0,Unknown,High, 100.8031, 0.1136,-71.7917,-6.5259,-518.7128, 0.0000, 0.0000, 0.0000
23-Jan-2019 09:45:45.935, 0.1563,-0.3664,-0.9185, 0.1376,-0.1013, 0.0521,-0.1949, 0.0126, 0.4049, 0.0171, 0.2821,-1.1140,49.737297,-123.098656, 2.2351, 211.1706, 142.788895, 6.0, 3.0,Unknown,High, 100.8031, 0.1136,-71.7917,-6.5259,-518.7128, 0.0000, 0.0000, 0.0000
23-Jan-2019 09:45:45.945, 0.1607,-0.3559,-0.9288, 0.1404,-0.0897, 0.0423,-0.2120, 0.0370, 0.4006, 0.0166, 0.2804,-1.1098,49.737297,-123.098656, 2.2351, 209.8690, 142.788895, 6.0, 3.0,Unknown,High, 100.8031, 0.1136,-71.5654,-6.5228,-518.0391, 0.0000, 0.0000, 0.0000
23-Jan-2019 09:45:45.955, 0.1725,-0.3552,-0.9350, 0.1453,-0.0810, 0.0325,-0.2268, 0.0263, 0.3963, 0.0160, 0.2786,-1.1055,49.737297,-123.098656, 2.2351, 209.8690, 142.788895, 6.0, 3.0,Unknown,High, 100.8031, 0.1136,-71.5654,-6.5228,-518.0391, 0.0000, 0.0000, 0.0000
23-Jan-2019 09:45:45.965, 0.1716,-0.3500,-0.9410, 0.1578,-0.0821, 0.0268,-0.2331, 0.0092, 0.4047, 0.0153, 0.2766,-1.1013,49.737297,-123.098656, 2.2351, 209.8690, 142.788895, 6.0, 3.0,Unknown,High, 100.8031, 0.1136,-71.5654,-6.5228,-518.0391, 0.0000, 0.0000, 0.0000
23-Jan-2019 09:45:45.975, 0.1716,-0.3394,-0.9522, 0.1579,-0.0787, 0.0214,-0.2299,-0.0218, 0.4324, 0.0142, 0.2747,-1.0967,49.737297,-123.098656, 2.2351, 209.8690, 142.788895, 6.0, 3.0,Unknown,High, 100.8031, 0.1136,-71.5654,-6.5228,-518.0391, 0.0000, 0.0000, 0.0000
23-Jan-2019 09:45:45.985, 0.1750,-0.3324,-0.9568, 0.1592,-0.0697, 0.0107,-0.2065,-0.0409, 0.4516, 0.0129, 0.2730,-1.0920,49.737297,-123.098656, 2.2351, 209.8690, 142.788895, 6.0, 3.0,Unknown,High, 100.8031, 0.1136,-70.8886,-6.5914,-517.3681, 0.0000, 0.0000, 0.0000
23-Jan-2019 09:45:45.995, 0.1664,-0.3239,-0.9521, 0.1636,-0.0639, 0.0064,-0.1610,-0.0152, 0.4700, 0.0119, 0.2718,-1.0871,49.737297,-123.098656, 2.2351, 208.6001, 142.788895, 6.0, 3.0,Unknown,High, 100.8031, 0.1136,-70.8886,-6.5914,-517.3681, 0.0000, 0.0000, 0.0000
23-Jan-2019 09:45:46.005, 0.1475,-0.3089,-0.9483, 0.1555,-0.0561, 0.0113,-0.1158, 0.0391, 0.5087, 0.0113, 0.2711,-1.0818,49.737297,-123.098656, 2.2351, 208.6001, 142.788895, 6.0, 3.0,Unknown,High, 100.8031, 0.1136,-70.8886,-6.5914,-517.3681, 0.0000, 0.0000, 0.0000
23-Jan-2019 09:45:46.014, 0.1378,-0.3006,-0.9403, 0.1369,-0.0414, 0.0152,-0.0790, 0.0732, 0.5505, 0.0110, 0.2708,-1.0761,49.737297,-123.098656, 2.2351, 208.6001, 142.788895, 6.0, 3.0,Unknown,High, 100.8031, 0.1136,-70.8886,-6.5914,-517.3681, 0.0000, 0.0000, 0.0000
23-Jan-2019 09:45:46.041, 0.1362,-0.3155,-0.9224, 0.1264,-0.0483, 0.0412,-0.0647, 0.0276, 0.5260, 0.0102, 0.2705,-1.0618,49.737297,-123.098656, 2.2351, 208.6001, 142.788895, 6.0, 3.0,Unknown,High, 100.8031, 0.1136,-70.4356,-6.8871,-516.9221, 0.0000, 0.0000, 0.0000
23-Jan-2019 09:45:46.049, 0.1276,-0.3253,-0.9208, 0.1183,-0.0586, 0.0430,-0.0965, 0.0394, 0.4854, 0.0096, 0.2700,-1.0566,49.737297,-123.098656, 2.2351, 208.6001, 142.788895, 6.0, 3.0,Unknown,High, 100.8031, 0.1136,-70.4356,-6.8871,-516.9221, 0.0000, 0.0000, 0.0000
23-Jan-2019 09:45:46.050, 0.1276,-0.3253,-0.9208, 0.1183,-0.0586, 0.0430,-0.0965, 0.0394, 0.4854, 0.0096, 0.2700,-1.0566,49.737297,-123.098656, 2.2351, 208.6001, 142.788895, 6.0, 3.0,Unknown,High, 100.8031, 0.1136,-70.4356,-6.8871,-516.9221, 0.0000, 0.0000, 0.0000
23-Jan-2019 09:45:46.064, 0.1093,-0.3180,-0.9352, 0.1050,-0.0589, 0.0417,-0.1497, 0.0669, 0.4489, 0.0092, 0.2683,-1.0494,49.737297,-123.098656, 2.2351, 207.0146, 142.788895, 6.0, 3.0,Unknown,High, 100.8031, 0.1136,-70.4356,-6.8871,-516.9221, 0.0000, 0.0000, 0.0000
23-Jan-2019 09:45:46.066, 0.1093,-0.3180,-0.9352, 0.1002,-0.0536, 0.0292,-0.2028, 0.0710, 0.4220, 0.0095, 0.2676,-1.0473,49.737297,-123.098656, 2.2351, 207.0146, 142.788895, 6.0, 3.0,Unknown,High, 100.8031, 0.1136,-70.2055,-7.5599,-516.7017, 0.0000, 0.0000, 0.0000
23-Jan-2019 09:45:46.081, 0.1104,-0.3123,-0.9493, 0.1011,-0.0498, 0.0156,-0.2390, 0.0901, 0.4017, 0.0097, 0.2657,-1.0430,49.737297,-123.098656, 2.2351, 207.0146, 142.788895, 6.0, 3.0,Unknown,High, 100.8031, 0.1136,-70.2055,-7.5599,-516.7017, 0.0000, 0.0000, 0.0000
23-Jan-2019 09:45:46.084, 0.1183,-0.3085,-0.9535, 0.1011,-0.0509, 0.0159,-0.2390, 0.0901, 0.4017, 0.0096, 0.2645,-1.0409,49.737297,-123.098656, 2.2351, 207.0146, 142.788895, 6.0, 3.0,Unknown,High, 100.8031, 0.1136,-70.2055,-7.5599,-516.7017, 0.0000, 0.0000, 0.0000
23-Jan-2019 09:45:46.098, 0.1261,-0.3070,-0.9678, 0.1160,-0.0489,-0.0018,-0.2527, 0.1062, 0.3622, 0.0105, 0.2611,-1.0351,49.737297,-123.098656, 2.2351, 205.6785, 142.788895, 6.0, 3.0,Unknown,High, 100.8031, 0.1136,-70.2055,-7.5599,-516.7017, 0.0000, 0.0000, 0.0000
23-Jan-2019 09:45:46.107, 0.1337,-0.3095,-0.9815, 0.1229,-0.0534,-0.0149,-0.2326, 0.1309, 0.3432, 0.0112, 0.2590,-1.0314,49.737297,-123.098656, 2.2351, 205.6785, 142.788895, 6.0, 3.0,Unknown,High, 100.8031, 0.1136,-70.7290,-7.4869,-515.7234, 0.0000, 0.0000, 0.0000
23-Jan-2019 09:45:46.114, 0.1465,-0.3134,-0.9906, 0.1227,-0.0544,-0.0147,-0.2326, 0.1309, 0.3432, 0.0114, 0.2579,-1.0296,49.737297,-123.098656, 2.2351, 205.6785, 142.788895, 6.0, 3.0,Unknown,High, 100.8031, 0.1136,-70.7290,-7.4869,-515.7234, 0.0000, 0.0000, 0.0000
23-Jan-2019 09:45:46.124, 0.1577,-0.3130,-1.0023, 0.1346,-0.0601,-0.0233,-0.2060, 0.1386, 0.3295, 0.0124, 0.2561,-1.0261,49.737297,-123.098656, 2.2351, 205.6785, 142.788895, 6.0, 3.0,Unknown,High, 100.8031, 0.1136,-70.7290,-7.4869,-515.7234, 0.0000, 0.0000, 0.0000
23-Jan-2019 09:45:46.134, 0.1638,-0.3067,-1.0040, 0.1447,-0.0611,-0.0347,-0.1794, 0.1493, 0.3317, 0.0134, 0.2547,-1.0227,49.737297,-123.098656, 2.2351, 205.6785, 142.788895, 6.0, 3.0,Unknown,High, 100.8031, 0.1136,-70.7290,-7.4869,-515.7234, 0.0000, 0.0000, 0.0000
23-Jan-2019 09:45:46.143, 0.1673,-0.3024,-1.0001, 0.1498,-0.0559,-0.0361,-0.1531, 0.1696, 0.3511, 0.0145, 0.2535,-1.0190,49.737297,-123.098656, 2.2351, 204.6338, 142.788895, 6.0, 3.0,Unknown,High, 100.8031, 0.1136,-71.4058,-7.0406,-515.0425, 0.0000, 0.0000, 0.0000
23-Jan-2019 09:45:46.159, 0.1798,-0.3209,-0.9997, 0.1644,-0.0715,-0.0315,-0.1029, 0.1218, 0.3907, 0.0159, 0.2521,-1.0130,49.737289,-123.098714, 3.7957, 204.6338, 142.748947, 6.0, 3.0,Unknown,High, 100.8031, 0.1136,-71.4058,-7.0406,-515.0425, 0.0000, 0.0000, 0.0000
23-Jan-2019 09:45:46.164, 0.1912,-0.3408,-0.9989, 0.1644,-0.0718,-0.0314,-0.1029, 0.1218, 0.3907, 0.0159, 0.2517,-1.0110,49.737289,-123.098714, 3.7957, 204.6338, 142.748947, 6.0, 3.0,Unknown,High, 100.8031, 0.1136,-71.4058,-7.0406,-515.0425, 0.0000, 0.0000, 0.0000
23-Jan-2019 09:45:46.173, 0.1984,-0.3561,-0.9967, 0.1757,-0.0922,-0.0304,-0.0728, 0.0794, 0.3854, 0.0160, 0.2512,-1.0069,49.737289,-123.098714, 3.7957, 204.6338, 142.748947, 6.0, 3.0,Unknown,High, 100.8031, 0.1136,-71.4058,-7.0406,-515.0425, 0.0000, 0.0000, 0.0000
23-Jan-2019 09:45:46.183, 0.1975,-0.3620,-1.0007, 0.1830,-0.1079,-0.0281,-0.0609, 0.0551, 0.3695, 0.0159, 0.2508,-1.0031,49.737289,-123.098714, 3.7957, 204.6338, 142.748947, 6.0, 3.0,Unknown,High, 100.8031, 0.1136,-72.7570,-6.6744,-514.3583, 0.0000, 0.0000, 0.0000
23-Jan-2019 09:45:46.193, 0.1980,-0.3649,-1.0102, 0.1824,-0.1142,-0.0320,-0.0649, 0.0381, 0.3577, 0.0156, 0.2504,-0.9993,49.737289,-123.098714, 3.7957, 203.5078, 142.748947, 6.0, 3.0,Unknown,High, 100.8031, 0.1136,-72.7570,-6.6744,-514.3583, 0.0000, 0.0000, 0.0000
23-Jan-2019 09:45:46.203, 0.2056,-0.3662,-1.0172, 0.1833,-0.1175,-0.0414,-0.0679, 0.0158, 0.3480, 0.0152, 0.2500,-0.9957,49.737289,-123.098714, 3.7957, 203.5078, 142.748947, 6.0, 3.0,Unknown,High, 100.8031, 0.1136,-72.7570,-6.6744,-514.3583, 0.0000, 0.0000, 0.0000
23-Jan-2019 09:45:46.213, 0.2149,-0.3642,-1.0266, 0.1916,-0.1192,-0.0483,-0.0581,-0.0150, 0.3395, 0.0144, 0.2496,-0.9921,49.737289,-123.098714, 3.7957, 203.5078, 142.748947, 6.0, 3.0,Unknown,High, 100.8031, 0.1136,-72.7570,-6.6744,-514.3583, 0.0000, 0.0000, 0.0000
23-Jan-2019 09:45:46.223, 0.2244,-0.3609,-1.0323, 0.2018,-0.1172,-0.0577,-0.0206,-0.0359, 0.3205, 0.0135, 0.2496,-0.9887,49.737289,-123.098714, 3.7957, 203.5078, 142.748947, 6.0, 3.0,Unknown,High, 100.8031, 0.1136,-73.4377,-5.9299,-514.5757, 0.0000, 0.0000, 0.0000
23-Jan-2019 09:45:46.233, 0.2270,-0.3518,-1.0327, 0.2121,-0.1135,-0.0634, 0.0303,-0.0047, 0.3101, 0.0127, 0.2500,-0.9854,49.737289,-123.098714, 3.7957, 203.5078, 142.748947, 6.0, 3.0,Unknown,High, 100.8031, 0.1136,-73.4377,-5.9299,-514.5757, 0.0000, 0.0000, 0.0000
23-Jan-2019 09:45:46.243, 0.2202,-0.3368,-1.0397, 0.2152,-0.1035,-0.0641, 0.0769, 0.0200, 0.3232, 0.0122, 0.2509,-0.9820,49.737289,-123.098714, 3.7957, 202.5001, 142.748947, 6.0, 3.0,Unknown,High, 100.8031, 0.1136,-73.4377,-5.9299,-514.5757, 0.0000, 0.0000, 0.0000
23-Jan-2019 09:45:46.253, 0.2160,-0.3235,-1.0307, 0.2087,-0.0872,-0.0715, 0.1223, 0.0541, 0.3565, 0.0119, 0.2523,-0.9782,49.737289,-123.098714, 3.7957, 202.5001, 142.748947, 6.0, 3.0,Unknown,High, 100.8031, 0.1136,-73.4377,-5.9299,-514.5757, 0.0000, 0.0000, 0.0000
23-Jan-2019 09:45:46.263, 0.2195,-0.3161,-1.0186, 0.2049,-0.0720,-0.0629, 0.1764, 0.0510, 0.3930, 0.0114, 0.2542,-0.9741,49.737289,-123.098714, 3.7957, 202.5001, 142.748947, 6.0, 3.0,Unknown,High, 100.8031, 0.1136,-73.8934,-5.1839,-514.8695, 0.0000, 0.0000, 0.0000
23-Jan-2019 09:45:46.272, 0.2221,-0.3143,-0.9999, 0.2090,-0.0623,-0.0514, 0.2317, 0.0342, 0.4146, 0.0108, 0.2566,-0.9697,49.737289,-123.098714, 3.7957, 202.5001, 142.748947, 6.0, 3.0,Unknown,High, 100.8031, 0.1136,-73.8934,-5.1839,-514.8695, 0.0000, 0.0000, 0.0000
23-Jan-2019 09:45:46.283, 0.2156,-0.3150,-0.9808, 0.2123,-0.0576,-0.0334, 0.2870, 0.0334, 0.4308, 0.0101, 0.2596,-0.9652,49.737289,-123.098714, 3.7957, 202.5001, 142.748947, 6.0, 3.0,Unknown,High, 100.8031, 0.1136,-73.8934,-5.1839,-514.8695, 0.0000, 0.0000, 0.0000
23-Jan-2019 09:45:46.292, 0.2038,-0.3129,-0.9571, 0.2063,-0.0549,-0.0152, 0.3357, 0.0623, 0.4439, 0.0096, 0.2630,-0.9606,49.737289,-123.098714, 3.7957, 201.3304, 142.748947, 6.0, 3.0,Unknown,High, 100.8031, 0.1136,-73.8934,-5.1839,-514.8695, 0.0000, 0.0000, 0.0000
23-Jan-2019 09:45:46.302, 0.1970,-0.3096,-0.9248, 0.1945,-0.0492, 0.0074, 0.3703, 0.1188, 0.4580, 0.0097, 0.2668,-0.9558,49.737289,-123.098714, 3.7957, 201.3304, 142.748947, 6.0, 3.0,Unknown,High, 100.8031, 0.1136,-74.5010,-4.5163,-516.2879, 0.0000, 0.0000, 0.0000
23-Jan-2019 09:45:46.313, 0.1918,-0.3130,-0.8967, 0.1871,-0.0422, 0.0387, 0.3784, 0.1806, 0.4624, 0.0102, 0.2707,-0.9509,49.737289,-123.098714, 3.7957, 201.3304, 142.748947, 6.0, 3.0,Unknown,High, 100.8031, 0.1136,-74.5010,-4.5163,-516.2879, 0.0000, 0.0000, 0.0000
23-Jan-2019 09:45:46.322, 0.1880,-0.3219,-0.8662, 0.1810,-0.0419, 0.0657, 0.3675, 0.2198, 0.4720, 0.0112, 0.2745,-0.9460,49.737289,-123.098714, 3.7957, 201.3304, 142.748947, 6.0, 3.0,Unknown,High, 100.8031, 0.1136,-74.5010,-4.5163,-516.2879, 0.0000, 0.0000, 0.0000
23-Jan-2019 09:45:46.332, 0.1859,-0.3286,-0.8329, 0.1762,-0.0473, 0.0953, 0.3534, 0.2410, 0.4805, 0.0123, 0.2782,-0.9410,49.737289,-123.098714, 3.7957, 201.3304, 142.748947, 6.0, 3.0,Unknown,High, 100.8031, 0.1136,-74.5010,-4.5163,-516.2879, 0.0000, 0.0000, 0.0000
23-Jan-2019 09:45:46.342, 0.1849,-0.3344,-0.8051, 0.1728,-0.0506, 0.1276, 0.3395, 0.2505, 0.4847, 0.0137, 0.2818,-0.9359,49.737289,-123.098714, 3.7957, 199.9365, 142.748947, 6.0, 3.0,Unknown,High, 100.8023, 0.1770,-74.8799,-4.2966,-517.4847, 0.0000, 0.0000, 0.0000
23-Jan-2019 09:45:46.352, 0.1915,-0.3483,-0.7838, 0.1704,-0.0531, 0.1544, 0.3205, 0.2409, 0.4729, 0.0151, 0.2851,-0.9311,49.737289,-123.098714, 3.7957, 199.9365, 142.748947, 6.0, 3.0,Unknown,High, 100.8023, 0.1770,-74.8799,-4.2966,-517.4847, 0.0000, 0.0000, 0.0000
23-Jan-2019 09:45:46.362, 0.2000,-0.3657,-0.7702, 0.1757,-0.0640, 0.1748, 0.2995, 0.2228, 0.4408, 0.0164, 0.2883,-0.9265,49.737289,-123.098714, 3.7957, 199.9365, 142.748947, 6.0, 3.0,Unknown,High, 100.8023, 0.1770,-74.8799,-4.2966,-517.4847, 0.0000, 0.0000, 0.0000
23-Jan-2019 09:45:46.372, 0.2048,-0.3770,-0.7645, 0.1831,-0.0788, 0.1876, 0.2667, 0.2132, 0.4044, 0.0177, 0.2911,-0.9223,49.737289,-123.098714, 3.7957, 199.9365, 142.748947, 6.0, 3.0,Unknown,High, 100.8023, 0.1770,-74.8799,-4.2966,-517.4847, 0.0000, 0.0000, 0.0000
23-Jan-2019 09:45:46.382, 0.2111,-0.3829,-0.7618, 0.1871,-0.0877, 0.1926, 0.2288, 0.1791, 0.3733, 0.0185, 0.2935,-0.9184,49.737289,-123.098714, 3.7957, 199.9365, 142.748947, 6.0, 3.0,Unknown,High, 100.8023, 0.1770,-75.8604,-3.7809,-518.4517, 0.0000, 0.0000, 0.0000
23-Jan-2019 09:45:46.392, 0.2190,-0.3857,-0.7542, 0.1927,-0.0917, 0.1947, 0.1789, 0.1768, 0.3538, 0.0192, 0.2954,-0.9146,49.737289,-123.098714, 3.7957, 198.6508, 142.748947, 6.0, 3.0,Unknown,High, 100.8023, 0.1770,-75.8604,-3.7809,-518.4517, 0.0000, 0.0000, 0.0000
23-Jan-2019 09:45:46.402, 0.2299,-0.3911,-0.7643, 0.2001,-0.0933, 0.2019, 0.1121, 0.1542, 0.3353, 0.0198, 0.2967,-0.9110,49.737289,-123.098714, 3.7957, 198.6508, 142.748947, 6.0, 3.0,Unknown,High, 100.8023, 0.1770,-75.8604,-3.7809,-518.4517, 0.0000, 0.0000, 0.0000
23-Jan-2019 09:45:46.412, 0.2418,-0.3976,-0.7758, 0.2104,-0.0981, 0.1916, 0.0433, 0.1230, 0.3168, 0.0204, 0.2974,-0.9077,49.737289,-123.098714, 3.7957, 198.6508, 142.748947, 6.0, 3.0,Unknown,High, 100.8023, 0.1770,-75.8604,-3.7809,-518.4517, 0.0000, 0.0000, 0.0000
23-Jan-2019 09:45:46.422, 0.2480,-0.3974,-0.7843, 0.2219,-0.1045, 0.1801,-0.0129, 0.1037, 0.2963, 0.0208, 0.2975,-0.9046,49.737289,-123.098714, 3.7957, 198.6508, 142.748947, 6.0, 3.0,Unknown,High, 100.8023, 0.1770,-77.0646,-3.2655,-518.7425, 0.0000, 0.0000, 0.0000
23-Jan-2019 09:45:46.432, 0.2519,-0.3899,-0.7978, 0.2279,-0.1048, 0.1717,-0.0638, 0.0950, 0.2779, 0.0209, 0.2970,-0.9015,49.737289,-123.098714, 3.7957, 198.6508, 142.748947, 6.0, 3.0,Unknown,High, 100.8023, 0.1770,-77.0646,-3.2655,-518.7425, 0.0000, 0.0000, 0.0000
23-Jan-2019 09:45:46.441, 0.2589,-0.3861,-0.8145, 0.2318,-0.0981, 0.1584,-0.1052, 0.0831, 0.2659, 0.0210, 0.2961,-0.8986,49.737289,-123.098714, 3.7957, 198.6508, 142.748947, 6.0, 3.0,Unknown,High, 100.8023, 0.1770,-77.0646,-3.2655,-518.7425, 0.0000, 0.0000, 0.0000
23-Jan-2019 09:45:46.452, 0.2683,-0.3842,-0.8356, 0.2389,-0.0956, 0.1421,-0.1433, 0.0605, 0.2593, 0.0209, 0.2948,-0.8958,49.737289,-123.098714, 3.7957, 198.6508, 142.748947, 6.0, 3.0,Unknown,High, 100.8023, 0.1770,-77.0646,-3.2655,-518.7425, 0.0000, 0.0000, 0.0000
23-Jan-2019 09:45:46.461, 0.2778,-0.3821,-0.8559, 0.2485,-0.0951, 0.1214,-0.1719, 0.0423, 0.2592, 0.0206, 0.2933,-0.8929,49.737289,-123.098714, 3.7957, 197.2825, 142.748947, 6.0, 3.0,Unknown,High, 100.8023, 0.1770,-78.5728,-2.0766,-518.6533, 0.0000, 0.0000, 0.0000
23-Jan-2019 09:45:46.471, 0.2892,-0.3804,-0.8765, 0.2583,-0.0946, 0.1018,-0.1921, 0.0390, 0.2590, 0.0203, 0.2915,-0.8900,49.737289,-123.098714, 3.7957, 197.2825, 142.748947, 6.0, 3.0,Unknown,High, 100.8023, 0.1770,-78.5728,-2.0766,-518.6533, 0.0000, 0.0000, 0.0000
23-Jan-2019 09:45:46.482, 0.2967,-0.3789,-0.8972, 0.2700,-0.0948, 0.0816,-0.2071, 0.0474, 0.2622, 0.0201, 0.2896,-0.8872,49.737289,-123.098714, 3.7957, 197.2825, 142.748947, 6.0, 3.0,Unknown,High, 100.8023, 0.1770,-78.5728,-2.0766,-518.6533, 0.0000, 0.0000, 0.0000
23-Jan-2019 09:45:46.491, 0.2974,-0.3732,-0.9166, 0.2773,-0.0953, 0.0616,-0.2244, 0.0899, 0.2632, 0.0202, 0.2876,-0.8843,49.737289,-123.098714, 3.7957, 197.2825, 142.748947, 6.0, 3.0,Unknown,High, 100.8023, 0.1770,-78.5728,-2.0766,-518.6533, 0.0000, 0.0000, 0.0000
23-Jan-2019 09:45:46.502, 0.2990,-0.3702,-0.9422, 0.2773,-0.0920, 0.0428,-0.2620, 0.1429, 0.2599, 0.0209, 0.2851,-0.8814,49.737289,-123.098714, 3.7957, 197.2825, 142.748947, 6.0, 3.0,Unknown,High, 100.8023, 0.1770,-80.0030,-1.1108,-517.8906, 0.0000, 0.0000, 0.0000
23-Jan-2019 09:45:46.511, 0.3041,-0.3698,-0.9675, 0.2780,-0.0918, 0.0180,-0.3101, 0.1649, 0.2629, 0.0218, 0.2822,-0.8785,49.737289,-123.098714, 3.7957, 197.2825, 142.748947, 6.0, 3.0,Unknown,High, 100.8023, 0.1770,-80.0030,-1.1108,-517.8906, 0.0000, 0.0000, 0.0000
23-Jan-2019 09:45:46.521, 0.3116,-0.3697,-0.9839, 0.2820,-0.0943,-0.0064,-0.3399, 0.1626, 0.2734, 0.0230, 0.2791,-0.8755,49.737289,-123.098714, 3.7957, 197.2825, 142.748947, 6.0, 3.0,Unknown,High, 100.8023, 0.1770,-80.0030,-1.1108,-517.8906, 0.0000, 0.0000, 0.0000
23-Jan-2019 09:45:46.532, 0.3187,-0.3644,-1.0033, 0.2885,-0.0971,-0.0221,-0.3408, 0.1285, 0.2798, 0.0240, 0.2761,-0.8726,49.737289,-123.098714, 3.7957, 197.2825, 142.748947, 6.0, 3.0,Unknown,High, 100.8023, 0.1770,-80.0030,-1.1108,-517.8906, 0.0000, 0.0000, 0.0000
23-Jan-2019 09:45:46.541, 0.3209,-0.3557,-1.0235, 0.2951,-0.0944,-0.0407,-0.3181, 0.0754, 0.2840, 0.0245, 0.2734,-0.8696,49.737289,-123.098714, 3.7957, 196.0391, 142.748947, 6.0, 3.0,Unknown,High, 100.8023, 0.1770,-81.0556,-0.4416,-516.8314, 0.0000, 0.0000, 0.0000
23-Jan-2019 09:45:46.551, 0.3183,-0.3447,-1.0360, 0.2972,-0.0881,-0.0602,-0.2839, 0.0340, 0.3012, 0.0246, 0.2709,-0.8664,49.737289,-123.098714, 3.7957, 196.0391, 142.748947, 6.0, 3.0,Unknown,High, 100.8023, 0.1770,-81.0556,-0.4416,-516.8314, 0.0000, 0.0000, 0.0000
23-Jan-2019 09:45:46.560, 0.3163,-0.3347,-1.0495, 0.2947,-0.0791,-0.0722,-0.2499, 0.0266, 0.3269, 0.0245, 0.2688,-0.8630,49.737289,-123.098714, 3.7957, 196.0391, 142.748947, 6.0, 3.0,Unknown,High, 100.8023, 0.1770,-81.0556,-0.4416,-516.8314, 0.0000, 0.0000, 0.0000
23-Jan-2019 09:45:46.571, 0.3129,-0.3313,-1.0597, 0.2929,-0.0709,-0.0852,-0.2181, 0.0148, 0.3643, 0.0242, 0.2670,-0.8592,49.737289,-123.098714, 3.7957, 196.0391, 142.748947, 6.0, 3.0,Unknown,High, 100.8023, 0.1770,-81.0556,-0.4416,-516.8314, 0.0000, 0.0000, 0.0000
23-Jan-2019 09:45:46.581, 0.3122,-0.3316,-1.0520, 0.2896,-0.0689,-0.0950,-0.1770, 0.0489, 0.4030, 0.0241, 0.2655,-0.8550,49.737289,-123.098714, 3.7957, 196.0391, 142.748947, 6.0, 3.0,Unknown,High, 100.8023, 0.1770,-81.6590, 0.3057,-515.9244, 0.0000, 0.0000, 0.0000
23-Jan-2019 09:45:46.590, 0.3092,-0.3333,-1.0546, 0.2888,-0.0703,-0.0870,-0.1508, 0.0990, 0.4234, 0.0243, 0.2643,-0.8505,49.737289,-123.098714, 3.7957, 195.0101, 142.748947, 6.0, 3.0,Unknown,High, 100.8023, 0.1770,-81.6590, 0.3057,-515.9244, 0.0000, 0.0000, 0.0000
23-Jan-2019 09:45:46.601, 0.3042,-0.3397,-1.0538, 0.2855,-0.0732,-0.0893,-0.1416, 0.1437, 0.4353, 0.0246, 0.2631,-0.8459,49.737289,-123.098714, 3.7957, 195.0101, 142.748947, 6.0, 3.0,Unknown,High, 100.8023, 0.1770,-81.6590, 0.3057,-515.9244, 0.0000, 0.0000, 0.0000
23-Jan-2019 09:45:46.610, 0.2921,-0.3438,-1.0423, 0.2797,-0.0808,-0.0882,-0.1473, 0.1905, 0.4364, 0.0254, 0.2618,-0.8413,49.737289,-123.098714, 3.7957, 195.0101, 142.748947, 6.0, 3.0,Unknown,High, 100.8023, 0.1770,-81.6590, 0.3057,-515.9244, 0.0000, 0.0000, 0.0000
23-Jan-2019 09:45:46.620, 0.2805,-0.3429,-1.0322, 0.2664,-0.0863,-0.0763,-0.1624, 0.2298, 0.4321, 0.0266, 0.2604,-0.8367,49.737289,-123.098714, 3.7957, 195.0101, 142.748947, 6.0, 3.0,Unknown,High, 100.8023, 0.1770,-82.1048,-0.1466,-515.3992, 0.0000, 0.0000, 0.0000
23-Jan-2019 09:45:46.631, 0.2746,-0.3418,-1.0258, 0.2537,-0.0869,-0.0659,-0.1826, 0.2297, 0.4267, 0.0278, 0.2589,-0.8321,49.737289,-123.098714, 3.7957, 195.0101, 142.748947, 6.0, 3.0,Unknown,High, 100.8023, 0.1770,-82.1048,-0.1466,-515.3992, 0.0000, 0.0000, 0.0000
23-Jan-2019 09:45:46.640, 0.2716,-0.3398,-1.0202, 0.2470,-0.0874,-0.0591,-0.1929, 0.1807, 0.4244, 0.0285, 0.2572,-0.8276,49.737289,-123.098714, 3.7957, 193.6949, 142.748947, 6.0, 3.0,Unknown,High, 100.8023, 0.1770,-82.1048,-0.1466,-515.3992, 0.0000, 0.0000, 0.0000
23-Jan-2019 09:45:46.650, 0.2697,-0.3334,-1.0160, 0.2439,-0.0870,-0.0531,-0.1818, 0.1180, 0.4233, 0.0286, 0.2556,-0.8231,49.737289,-123.098714, 3.7957, 193.6949, 142.748947, 6.0, 3.0,Unknown,High, 100.8023, 0.1770,-82.1048,-0.1466,-515.3992, 0.0000, 0.0000, 0.0000
23-Jan-2019 09:45:46.660, 0.2640,-0.3225,-1.0175, 0.2425,-0.0819,-0.0486,-0.1580, 0.0564, 0.4265, 0.0282, 0.2542,-0.8185,49.737289,-123.098714, 3.7957, 193.6949, 142.748947, 6.0, 3.0,Unknown,High, 100.8023, 0.1770,-81.7294, 0.0077,-514.6505, 0.0000, 0.0000, 0.0000
23-Jan-2019 09:45:46.670, 0.2541,-0.3099,-1.0235, 0.2374,-0.0720,-0.0497,-0.1238, 0.0267, 0.4298, 0.0274, 0.2532,-0.8139,49.737289,-123.098714, 3.7957, 193.6949, 142.748947, 6.0, 3.0,Unknown,High, 100.8023, 0.1770,-81.7294, 0.0077,-514.6505, 0.0000, 0.0000, 0.0000
23-Jan-2019 09:45:46.680, 0.2433,-0.2970,-1.0263, 0.2284,-0.0599,-0.0555,-0.0834, 0.0216, 0.4460, 0.0266, 0.2526,-0.8092,49.737289,-123.098714, 3.7957, 193.6949, 142.748947, 6.0, 3.0,Unknown,High, 100.8023, 0.1770,-81.7294, 0.0077,-514.6505, 0.0000, 0.0000, 0.0000
23-Jan-2019 09:45:46.690, 0.2281,-0.2813,-1.0163, 0.2185,-0.0470,-0.0584,-0.0240, 0.0260, 0.4782, 0.0257, 0.2526,-0.8042,49.737289,-123.098714, 3.7957, 192.3793, 142.748947, 6.0, 3.0,Unknown,High, 100.8023, 0.1770,-81.7294, 0.0077,-514.6505, 0.0000, 0.0000, 0.0000
23-Jan-2019 09:45:46.700, 0.2133,-0.2682,-0.9945, 0.2040,-0.0308,-0.0485, 0.0374, 0.0495, 0.5191, 0.0249, 0.2532,-0.7987,49.737289,-123.098714, 3.7957, 192.3793, 142.748947, 6.0, 3.0,Unknown,High, 100.8023, 0.1770,-81.7305, 0.0821,-514.9501, 0.0000, 0.0000, 0.0000
23-Jan-2019 09:45:46.709, 0.2024,-0.2635,-0.9706, 0.1900,-0.0165,-0.0270, 0.0967, 0.0539, 0.5599, 0.0241, 0.2544,-0.7929,49.737289,-123.098714, 3.7957, 192.3793, 142.748947, 6.0, 3.0,Unknown,High, 100.8023, 0.1770,-81.7305, 0.0821,-514.9501, 0.0000, 0.0000, 0.0000
23-Jan-2019 09:45:46.720, 0.1920,-0.2655,-0.9418, 0.1802,-0.0102,-0.0034, 0.1509, 0.0338, 0.5953, 0.0230, 0.2561,-0.7867,49.737289,-123.098714, 3.7957, 192.3793, 142.748947, 6.0, 3.0,Unknown,High, 100.8023, 0.1770,-81.7305, 0.0821,-514.9501, 0.0000, 0.0000, 0.0000
23-Jan-2019 09:45:46.730, 0.1806,-0.2695,-0.9119, 0.1710,-0.0101, 0.0248, 0.1946, 0.0191, 0.6093, 0.0217, 0.2583,-0.7804,49.737289,-123.098714, 3.7957, 192.3793, 142.748947, 6.0, 3.0,Unknown,High, 100.8023, 0.1770,-81.7305, 0.0821,-514.9501, 0.0000, 0.0000, 0.0000
23-Jan-2019 09:45:46.739, 0.1722,-0.2754,-0.8896, 0.1609,-0.0119, 0.0542, 0.2042, 0.0234, 0.6040, 0.0204, 0.2605,-0.7741,49.737289,-123.098714, 3.7957, 190.7124, 142.748947, 6.0, 3.0,Unknown,High, 100.8023, 0.1770,-80.9066, 0.1627,-515.2542, 0.0000, 0.0000, 0.0000
23-Jan-2019 09:45:46.750, 0.1666,-0.2836,-0.8689, 0.1535,-0.0159, 0.0759, 0.1829, 0.0394, 0.5837, 0.0193, 0.2625,-0.7680,49.737289,-123.098714, 3.7957, 190.7124, 142.748947, 6.0, 3.0,Unknown,High, 100.8023, 0.1770,-80.9066, 0.1627,-515.2542, 0.0000, 0.0000, 0.0000
23-Jan-2019 09:45:46.759, 0.1661,-0.2917,-0.8488, 0.1487,-0.0226, 0.0963, 0.1382, 0.0574, 0.5516, 0.0185, 0.2641,-0.7623,49.737289,-123.098714, 3.7957, 190.7124, 142.748947, 6.0, 3.0,Unknown,High, 100.8023, 0.1770,-80.9066, 0.1627,-515.2542, 0.0000, 0.0000, 0.0000
23-Jan-2019 09:45:46.769, 0.1740,-0.3005,-0.8386, 0.1486,-0.0298, 0.1161, 0.0778, 0.0594, 0.5054, 0.0181, 0.2651,-0.7570,49.737289,-123.098714, 3.7957, 190.7124, 142.748947, 6.0, 3.0,Unknown,High, 100.8023, 0.1770,-80.9066, 0.1627,-515.2542, 0.0000, 0.0000, 0.0000
23-Jan-2019 09:45:46.781, 0.1862,-0.3040,-0.8339, 0.1695,-0.0414, 0.1309, 0.0283, 0.0254, 0.4540, 0.0174, 0.2657,-0.7502,49.737289,-123.098714, 3.7957, 190.7124, 142.748947, 6.0, 3.0,Unknown,High, 100.8023, 0.1770,-81.0607, 0.5350,-516.0015, 0.0000, 0.0000, 0.0000
23-Jan-2019 09:45:46.789, 0.1969,-0.2992,-0.8319, 0.1701,-0.0412, 0.1309, 0.0107,-0.0192, 0.4112, 0.0167, 0.2658,-0.7481,49.737289,-123.098714, 3.7957, 189.1298, 142.748947, 6.0, 3.0,Unknown,High, 100.8023, 0.1770,-81.0607, 0.5350,-516.0015, 0.0000, 0.0000, 0.0000
23-Jan-2019 09:45:46.799, 0.2036,-0.2888,-0.8372, 0.1818,-0.0362, 0.1328, 0.0133,-0.0606, 0.3835, 0.0156, 0.2662,-0.7441,49.737289,-123.098714, 3.7957, 189.1298, 142.748947, 6.0, 3.0,Unknown,High, 100.8023, 0.1770,-81.0607, 0.5350,-516.0015, 0.0000, 0.0000, 0.0000
23-Jan-2019 09:45:46.809, 0.2085,-0.2807,-0.8396, 0.1898,-0.0252, 0.1274, 0.0401,-0.0848, 0.3772, 0.0143, 0.2667,-0.7403,49.737289,-123.098714, 3.7957, 189.1298, 142.748947, 6.0, 3.0,Unknown,High, 100.8023, 0.1770,-81.0607, 0.5350,-516.0015, 0.0000, 0.0000, 0.0000
23-Jan-2019 09:45:46.819, 0.2137,-0.2797,-0.8428, 0.1961,-0.0162, 0.1247, 0.0763,-0.0921, 0.3741, 0.0129, 0.2677,-0.7364,49.737289,-123.098714, 3.7957, 189.1298, 142.748947, 6.0, 3.0,Unknown,High, 100.8023, 0.1770,-82.4908, 1.1989,-516.2154, 0.0000, 0.0000, 0.0000
23-Jan-2019 09:45:46.829, 0.2185,-0.2878,-0.8450, 0.2026,-0.0142, 0.1213, 0.0912,-0.0760, 0.3657, 0.0116, 0.2687,-0.7326,49.737289,-123.098714, 3.7957, 189.1298, 142.748947, 6.0, 3.0,Unknown,High, 100.8023, 0.1770,-82.4908, 1.1989,-516.2154, 0.0000, 0.0000, 0.0000
23-Jan-2019 09:45:46.839, 0.2266,-0.3030,-0.8526, 0.2084,-0.0213, 0.1188, 0.0804,-0.0493, 0.3487, 0.0105, 0.2697,-0.7290,49.737289,-123.098714, 3.7957, 188.0044, 142.748947, 6.0, 3.0,Unknown,High, 100.8023, 0.1770,-82.4908, 1.1989,-516.2154, 0.0000, 0.0000, 0.0000
23-Jan-2019 09:45:46.849, 0.2368,-0.3195,-0.8611, 0.2173,-0.0359, 0.1110, 0.0453,-0.0313, 0.3198, 0.0096, 0.2703,-0.7257,49.737289,-123.098714, 3.7957, 188.0044, 142.748947, 6.0, 3.0,Unknown,High, 100.8023, 0.1770,-82.4908, 1.1989,-516.2154, 0.0000, 0.0000, 0.0000
23-Jan-2019 09:45:46.858, 0.2458,-0.3307,-0.8635, 0.2281,-0.0522, 0.1025, 0.0071,-0.0079, 0.2823, 0.0090, 0.2706,-0.7227,49.737289,-123.098714, 3.7957, 188.0044, 142.748947, 6.0, 3.0,Unknown,High, 100.8023, 0.1770,-84.2222, 1.9347,-516.8021, 0.0000, 0.0000, 0.0000
23-Jan-2019 09:45:46.869, 0.2543,-0.3369,-0.8641, 0.2376,-0.0636, 0.1001,-0.0280, 0.0102, 0.2428, 0.0085, 0.2704,-0.7200,49.737289,-123.098714, 3.7957, 188.0044, 142.748947, 6.0, 3.0,Unknown,High, 100.8023, 0.1770,-84.2222, 1.9347,-516.8021, 0.0000, 0.0000, 0.0000
23-Jan-2019 09:45:46.880, 0.2652,-0.3421,-0.8719, 0.2464,-0.0702, 0.0996,-0.0565, 0.0167, 0.1990, 0.0082, 0.2700,-0.7179,49.737289,-123.098714, 3.7957, 188.0044, 142.748947, 6.0, 3.0,Unknown,High, 100.8023, 0.1770,-84.2222, 1.9347,-516.8021, 0.0000, 0.0000, 0.0000
23-Jan-2019 09:45:46.888, 0.2780,-0.3444,-0.8805, 0.2573,-0.0760, 0.0921,-0.0808, 0.0242, 0.1594, 0.0081, 0.2693,-0.7161,49.737289,-123.098714, 3.7957, 188.0044, 142.748947, 6.0, 3.0,Unknown,High, 100.8023, 0.1770,-84.2222, 1.9347,-516.8021, 0.0000, 0.0000, 0.0000
23-Jan-2019 09:45:46.898, 0.2891,-0.3428,-0.8947, 0.2700,-0.0793, 0.0837,-0.1074, 0.0487, 0.1242, 0.0083, 0.2683,-0.7147,49.737289,-123.098714, 3.7957, 188.0044, 142.748947, 6.0, 3.0,Unknown,High, 100.8023, 0.1770,-86.3291, 2.9693,-516.6354, 0.0000, 0.0000, 0.0000
23-Jan-2019 09:45:46.908, 0.2984,-0.3396,-0.9156, 0.2806,-0.0789, 0.0699,-0.1426, 0.0731, 0.1081, 0.0088, 0.2670,-0.7134,49.737289,-123.098714, 3.7957, 186.9635, 142.748947, 6.0, 3.0,Unknown,High, 100.8023, 0.1770,-86.3291, 2.9693,-516.6354, 0.0000, 0.0000, 0.0000
23-Jan-2019 09:45:46.918, 0.3083,-0.3413,-0.9310, 0.2893,-0.0771, 0.0493,-0.1597, 0.0708, 0.1133, 0.0095, 0.2656,-0.7122,49.737289,-123.098714, 3.7957, 186.9635, 142.748947, 6.0, 3.0,Unknown,High, 100.8023, 0.1770,-86.3291, 2.9693,-516.6354, 0.0000, 0.0000, 0.0000
23-Jan-2019 09:45:46.928, 0.3175,-0.3404,-0.9335, 0.2986,-0.0801, 0.0342,-0.1500, 0.0548, 0.1261, 0.0101, 0.2643,-0.7108,49.737289,-123.098714, 3.7957, 186.9635, 142.748947, 6.0, 3.0,Unknown,High, 100.8023, 0.1770,-86.3291, 2.9693,-516.6354, 0.0000, 0.0000, 0.0000
23-Jan-2019 09:45:46.938, 0.3276,-0.3373,-0.9438, 0.3075,-0.0803, 0.0320,-0.1307, 0.0251, 0.1315, 0.0104, 0.2632,-0.7094,49.737289,-123.098714, 3.7957, 186.9635, 142.748947, 6.0, 3.0,Unknown,High, 100.8023, 0.1770,-88.5157, 4.8293,-515.9390, 0.0000, 0.0000, 0.0000
23-Jan-2019 09:45:46.948, 0.3295,-0.3382,-0.9615, 0.3173,-0.0781, 0.0219,-0.1252,-0.0004, 0.1315, 0.0106, 0.2622,-0.7080,49.737289,-123.098714, 3.7957, 186.9635, 142.748947, 6.0, 3.0,Unknown,High, 100.8023, 0.1770,-88.5157, 4.8293,-515.9390, 0.0000, 0.0000, 0.0000
23-Jan-2019 09:45:46.958, 0.3252,-0.3371,-0.9718, 0.3189,-0.0799, 0.0045,-0.1264, 0.0102, 0.1475, 0.0110, 0.2612,-0.7065,49.737289,-123.098714, 3.7957, 186.9635, 142.748947, 6.0, 3.0,Unknown,High, 100.8023, 0.1770,-88.5157, 4.8293,-515.9390, 0.0000, 0.0000, 0.0000
23-Jan-2019 09:45:46.968, 0.3208,-0.3295,-0.9829, 0.3138,-0.0796,-0.0056,-0.1203, 0.0399, 0.1614, 0.0119, 0.2604,-0.7050,49.737289,-123.098714, 3.7957, 186.9635, 142.748947, 6.0, 3.0,Unknown,High, 100.8023, 0.1770,-88.5157, 4.8293,-515.9390, 0.0000, 0.0000, 0.0000
23-Jan-2019 09:45:46.978, 0.3190,-0.3198,-0.9926, 0.3082,-0.0726,-0.0165,-0.1057, 0.0687, 0.1722, 0.0130, 0.2598,-0.7033,49.737289,-123.098714, 3.7957, 186.9635, 142.748947, 6.0, 3.0,Unknown,High, 100.8023, 0.1770,-90.5465, 5.7899,-515.4731, 0.0000, 0.0000, 0.0000
23-Jan-2019 09:45:46.988, 0.3173,-0.3130,-0.9940, 0.3049,-0.0634,-0.0261,-0.0879, 0.1060, 0.1851, 0.0146, 0.2593,-0.7015,49.737289,-123.098714, 3.7957, 186.9635, 142.748947, 6.0, 3.0,Unknown,High, 100.8023, 0.1770,-90.5465, 5.7899,-515.4731, 0.0000, 0.0000, 0.0000
23-Jan-2019 09:45:46.998, 0.3147,-0.3074,-1.0002, 0.3017,-0.0571,-0.0274,-0.0787, 0.1389, 0.2097, 0.0162, 0.2588,-0.6993,49.737289,-123.098714, 3.7957, 186.9635, 142.748947, 6.0, 3.0,Unknown,High, 100.8023, 0.1770,-90.5465, 5.7899,-515.4731, 0.0000, 0.0000, 0.0000
23-Jan-2019 09:45:47.007, 0.3113,-0.3003,-0.9986, 0.2976,-0.0518,-0.0335,-0.0629, 0.1484, 0.2407, 0.0176, 0.2584,-0.6969,49.737289,-123.098714, 3.7957, 186.9635, 142.748947, 6.0, 3.0,Unknown,High, 100.8023, 0.1770,-90.5465, 5.7899,-515.4731, 0.0000, 0.0000, 0.0000
23-Jan-2019 09:45:47.018, 0.3079,-0.2946,-0.9924, 0.2931,-0.0449,-0.0320,-0.0429, 0.1483, 0.2781, 0.0189, 0.2583,-0.6940,49.737289,-123.098714, 3.7957, 186.9635, 142.748947, 6.0, 3.0,Unknown,High, 100.8023, 0.1770,-91.9026, 6.7554,-515.1608, 0.0000, 0.0000, 0.0000
23-Jan-2019 09:45:47.041, 0.3006,-0.2885,-0.9748, 0.2798,-0.0326,-0.0083, 0.0184, 0.1364, 0.3796, 0.0215, 0.2588,-0.6852,49.737289,-123.098714, 3.7957, 186.9635, 142.748947, 6.0, 3.0,Unknown,High, 100.8023, 0.1770,-91.9026, 6.7554,-515.1608, 0.0000, 0.0000, 0.0000
23-Jan-2019 09:45:47.047, 0.2972,-0.2887,-0.9660, 0.2796,-0.0324,-0.0084, 0.0184, 0.1364, 0.3796, 0.0217, 0.2590,-0.6832,49.737289,-123.098714, 3.7957, 185.5915, 142.748947, 6.0, 3.0,Unknown,High, 100.8023, 0.1770,-91.9026, 6.7554,-515.1608, 0.0000, 0.0000, 0.0000
23-Jan-2019 09:45:47.049, 0.2972,-0.2887,-0.9660, 0.2761,-0.0323, 0.0004, 0.0341, 0.1363, 0.4159, 0.0219, 0.2592,-0.6810,49.737289,-123.098714, 3.7957, 185.5915, 142.748947, 6.0, 3.0,Unknown,High, 100.8023, 0.1770,-91.9026, 6.7554,-515.1608, 0.0000, 0.0000, 0.0000
23-Jan-2019 09:45:47.066, 0.2931,-0.2913,-0.9505, 0.2715,-0.0340, 0.0156, 0.0509, 0.1490, 0.4479, 0.0224, 0.2602,-0.6741,49.737289,-123.098714, 3.7957, 185.5915, 142.748947, 6.0, 3.0,Unknown,High, 100.8023, 0.1770,-92.8062, 7.2736,-515.1532, 0.0000, 0.0000, 0.0000
23-Jan-2019 09:45:47.068, 0.2891,-0.2958,-0.9355, 0.2715,-0.0340, 0.0156, 0.0509, 0.1490, 0.4479, 0.0224, 0.2602,-0.6741,49.737289,-123.098714, 3.7957, 185.5915, 142.748947, 6.0, 3.0,Unknown,High, 100.8023, 0.1770,-92.8062, 7.2736,-515.1532, 0.0000, 0.0000, 0.0000
23-Jan-2019 09:45:47.081, 0.2884,-0.3015,-0.9269, 0.2660,-0.0432, 0.0389, 0.0369, 0.1733, 0.4554, 0.0232, 0.2612,-0.6669,49.737289,-123.098714, 3.7957, 184.3433, 142.748947, 6.0, 3.0,Unknown,High, 100.8023, 0.1770,-92.8062, 7.2736,-515.1532, 0.0000, 0.0000, 0.0000
23-Jan-2019 09:45:47.087, 0.2901,-0.3076,-0.9176, 0.2657,-0.0430, 0.0388, 0.0369, 0.1733, 0.4554, 0.0235, 0.2615,-0.6645,49.737289,-123.098714, 3.7957, 184.3433, 142.748947, 6.0, 3.0,Unknown,High, 100.8023, 0.1770,-92.8062, 7.2736,-515.1532, 0.0000, 0.0000, 0.0000
23-Jan-2019 09:45:47.098, 0.2900,-0.3095,-0.9139, 0.2669,-0.0489, 0.0481, 0.0008, 0.1689, 0.4477, 0.0240, 0.2617,-0.6597,49.737289,-123.098714, 3.7957, 184.3433, 142.748947, 6.0, 3.0,Unknown,High, 100.8023, 0.1770,-92.9610, 7.8719,-515.4493, 0.0000, 0.0000, 0.0000
23-Jan-2019 09:45:47.107, 0.2919,-0.3085,-0.9139, 0.2662,-0.0510, 0.0518,-0.0469, 0.1442, 0.4411, 0.0247, 0.2615,-0.6552,49.737289,-123.098714, 3.7957, 184.3433, 142.748947, 6.0, 3.0,Unknown,High, 100.8023, 0.1770,-92.9610, 7.8719,-515.4493, 0.0000, 0.0000, 0.0000
23-Jan-2019 09:45:47.117, 0.2923,-0.3067,-0.9110, 0.2677,-0.0506, 0.0520,-0.0797, 0.1153, 0.4376, 0.0250, 0.2609,-0.6506,49.737289,-123.098714, 3.7957, 184.3433, 142.748947, 6.0, 3.0,Unknown,High, 100.8023, 0.1770,-92.9610, 7.8719,-515.4493, 0.0000, 0.0000, 0.0000
23-Jan-2019 09:45:47.127, 0.2917,-0.3044,-0.9115, 0.2678,-0.0496, 0.0551,-0.1073, 0.1034, 0.4428, 0.0253, 0.2601,-0.6460,49.737289,-123.098714, 3.7957, 184.3433, 142.748947, 6.0, 3.0,Unknown,High, 100.8023, 0.1770,-92.9610, 7.8719,-515.4493, 0.0000, 0.0000, 0.0000
23-Jan-2019 09:45:47.136, 0.2940,-0.3046,-0.9181, 0.2671,-0.0483, 0.0548,-0.1317, 0.0904, 0.4469, 0.0255, 0.2590,-0.6413,49.737289,-123.098714, 3.7957, 183.0151, 142.748947, 6.0, 3.0,Unknown,High, 100.8023, 0.1770,-93.1853, 7.8710,-515.0731, 0.0000, 0.0000, 0.0000
23-Jan-2019 09:45:47.148, 0.2969,-0.3050,-0.9252, 0.2694,-0.0496, 0.0485,-0.1455, 0.0712, 0.4543, 0.0255, 0.2578,-0.6366,49.737289,-123.098714, 3.7957, 183.0151, 142.748947, 6.0, 3.0,Unknown,High, 100.8023, 0.1770,-93.1853, 7.8710,-515.0731, 0.0000, 0.0000, 0.0000
23-Jan-2019 09:45:47.156, 0.2968,-0.3036,-0.9358, 0.2723,-0.0512, 0.0418,-0.1487, 0.0626, 0.4638, 0.0254, 0.2566,-0.6318,49.737289,-123.098714, 3.7957, 183.0151, 142.748947, 6.0, 3.0,Unknown,High, 100.8023, 0.1770,-93.1853, 7.8710,-515.0731, 0.0000, 0.0000, 0.0000
23-Jan-2019 09:45:47.166, 0.2935,-0.3006,-0.9445, 0.2721,-0.0510, 0.0315,-0.1499, 0.0774, 0.4713, 0.0255, 0.2554,-0.6269,49.737289,-123.098714, 3.7957, 183.0151, 142.748947, 6.0, 3.0,Unknown,High, 100.8023, 0.1770,-93.1853, 7.8710,-515.0731, 0.0000, 0.0000, 0.0000
23-Jan-2019 09:45:47.177, 0.2923,-0.2973,-0.9588, 0.2687,-0.0492, 0.0231,-0.1606, 0.0858, 0.4830, 0.0257, 0.2542,-0.6219,49.737271,-123.098777, 4.7902, 183.0151, 142.569077, 6.0, 3.0,Unknown,High, 100.8023, 0.1770,-93.1079, 7.7229,-514.3993, 0.0000, 0.0000, 0.0000
23-Jan-2019 09:45:47.186, 0.2862,-0.2932,-0.9640, 0.2671,-0.0471, 0.0091,-0.1640, 0.0985, 0.4958, 0.0260, 0.2529,-0.6168,49.737271,-123.098777, 4.7902, 181.6320, 142.569077, 6.0, 3.0,Unknown,High, 100.8023, 0.1770,-93.1079, 7.7229,-514.3993, 0.0000, 0.0000, 0.0000
23-Jan-2019 09:45:47.196, 0.2779,-0.2894,-0.9647, 0.2604,-0.0443, 0.0042,-0.1653, 0.1293, 0.5044, 0.0267, 0.2516,-0.6116,49.737271,-123.098777, 4.7902, 181.6320, 142.569077, 6.0, 3.0,Unknown,High, 100.8023, 0.1770,-93.1079, 7.7229,-514.3993, 0.0000, 0.0000, 0.0000
23-Jan-2019 09:45:47.206, 0.2776,-0.2952,-0.9751, 0.2513,-0.0417, 0.0038,-0.1642, 0.1315, 0.4958, 0.0274, 0.2503,-0.6065,49.737271,-123.098777, 4.7902, 181.6320, 142.569077, 6.0, 3.0,Unknown,High, 100.8023, 0.1770,-93.1079, 7.7229,-514.3993, 0.0000, 0.0000, 0.0000
23-Jan-2019 09:45:47.216, 0.2823,-0.3027,-0.9774, 0.2504,-0.0488,-0.0063,-0.1630, 0.1188, 0.4798, 0.0280, 0.2490,-0.6016,49.737271,-123.098777, 4.7902, 181.6320, 142.569077, 6.0, 3.0,Unknown,High, 100.8023, 0.1770,-93.1079, 7.7229,-514.3993, 0.0000, 0.0000, 0.0000
23-Jan-2019 09:45:47.226, 0.2852,-0.3022,-0.9791, 0.2547,-0.0574,-0.0083,-0.1522, 0.1030, 0.4714, 0.0285, 0.2478,-0.5967,49.737271,-123.098777, 4.7902, 181.6320, 142.569077, 6.0, 3.0,Unknown,High, 100.8023, 0.1770,-92.6538, 7.2017,-514.1794, 0.0000, 0.0000, 0.0000
23-Jan-2019 09:45:47.236, 0.2836,-0.2959,-0.9785, 0.2572,-0.0578,-0.0098,-0.1373, 0.1041, 0.4757, 0.0289, 0.2468,-0.5918,49.737271,-123.098777, 4.7902, 180.1869, 142.569077, 6.0, 3.0,Unknown,High, 100.8023, 0.1770,-92.6538, 7.2017,-514.1794, 0.0000, 0.0000, 0.0000
23-Jan-2019 09:45:47.246, 0.2831,-0.2899,-0.9812, 0.2552,-0.0525,-0.0090,-0.1332, 0.1094, 0.4885, 0.0294, 0.2458,-0.5868,49.737271,-123.098777, 4.7902, 180.1869, 142.569077, 6.0, 3.0,Unknown,High, 100.8023, 0.1770,-92.6538, 7.2017,-514.1794, 0.0000, 0.0000, 0.0000
23-Jan-2019 09:45:47.256, 0.2843,-0.2902,-0.9832, 0.2542,-0.0474,-0.0115,-0.1216, 0.1147, 0.5024, 0.0298, 0.2450,-0.5816,49.737271,-123.098777, 4.7902, 180.1869, 142.569077, 6.0, 3.0,Unknown,High, 100.8023, 0.1770,-92.6538, 7.2017,-514.1794, 0.0000, 0.0000, 0.0000
23-Jan-2019 09:45:47.266, 0.2862,-0.2941,-0.9830, 0.2550,-0.0484,-0.0134,-0.1015, 0.1275, 0.5111, 0.0303, 0.2442,-0.5763,49.737271,-123.098777, 4.7902, 180.1869, 142.569077, 6.0, 3.0,Unknown,High, 100.8023, 0.1770,-92.8754, 6.6748,-514.3308, 0.0000, 0.0000, 0.0000
23-Jan-2019 09:45:47.276, 0.2862,-0.2947,-0.9849, 0.2564,-0.0528,-0.0130,-0.0845, 0.1286, 0.5175, 0.0307, 0.2437,-0.5710,49.737271,-123.098777, 4.7902, 180.1869, 142.569077, 6.0, 3.0,Unknown,High, 100.8012, 0.2722,-92.8754, 6.6748,-514.3308, 0.0000, 0.0000, 0.0000
23-Jan-2019 09:45:47.286, 0.2826,-0.2923,-0.9827, 0.2562,-0.0537,-0.0149,-0.0653, 0.1149, 0.5240, 0.0310, 0.2434,-0.5655,49.737271,-123.098777, 4.7902, 178.6993, 142.569077, 6.0, 3.0,Unknown,High, 100.8012, 0.2722,-92.8754, 6.6748,-514.3308, 0.0000, 0.0000, 0.0000
23-Jan-2019 09:45:47.296, 0.2785,-0.2912,-0.9748, 0.2524,-0.0514,-0.0126,-0.0376, 0.1001, 0.5337, 0.0310, 0.2433,-0.5600,49.737271,-123.098777, 4.7902, 178.6993, 142.569077, 6.0, 3.0,Unknown,High, 100.8012, 0.2722,-92.8754, 6.6748,-514.3308, 0.0000, 0.0000, 0.0000
23-Jan-2019 09:45:47.305, 0.2742,-0.2897,-0.9621, 0.2483,-0.0499,-0.0048,-0.0003, 0.0992, 0.5392, 0.0311, 0.2437,-0.5545,49.737271,-123.098777, 4.7902, 178.6993, 142.569077, 6.0, 3.0,Unknown,High, 100.8012, 0.2722,-92.8013, 6.8255,-514.2555, 0.0000, 0.0000, 0.0000
23-Jan-2019 09:45:47.316, 0.2713,-0.2883,-0.9493, 0.2440,-0.0478, 0.0077, 0.0380, 0.1016, 0.5394, 0.0311, 0.2443,-0.5489,49.737271,-123.098777, 4.7902, 178.6993, 142.569077, 6.0, 3.0,Unknown,High, 100.8012, 0.2722,-92.8013, 6.8255,-514.2555, 0.0000, 0.0000, 0.0000
23-Jan-2019 09:45:47.326, 0.2687,-0.2884,-0.9394, 0.2411,-0.0455, 0.0203, 0.0624, 0.1049, 0.5374, 0.0312, 0.2453,-0.5434,49.737271,-123.098777, 4.7902, 178.6993, 142.569077, 6.0, 3.0,Unknown,High, 100.8012, 0.2722,-92.8013, 6.8255,-514.2555, 0.0000, 0.0000, 0.0000
23-Jan-2019 09:45:47.335, 0.2669,-0.2888,-0.9288, 0.2383,-0.0446, 0.0299, 0.0731, 0.1072, 0.5268, 0.0313, 0.2463,-0.5380,49.737271,-123.098777, 4.7902, 177.1161, 142.569077, 6.0, 3.0,Unknown,High, 100.8012, 0.2722,-92.8013, 6.8255,-514.2555, 0.0000, 0.0000, 0.0000
23-Jan-2019 09:45:47.345, 0.2677,-0.2902,-0.9173, 0.2363,-0.0440, 0.0402, 0.0753, 0.1115, 0.5130, 0.0316, 0.2473,-0.5327,49.737271,-123.098777, 4.7902, 177.1161, 142.569077, 6.0, 3.0,Unknown,High, 100.8012, 0.2722,-92.5021, 6.8270,-514.6321, 0.0000, 0.0000, 0.0000
23-Jan-2019 09:45:47.355, 0.2706,-0.2939,-0.9073, 0.2368,-0.0444, 0.0515, 0.0753, 0.1158, 0.4970, 0.0319, 0.2484,-0.5276,49.737271,-123.098777, 4.7902, 177.1161, 142.569077, 6.0, 3.0,Unknown,High, 100.8012, 0.2722,-92.5021, 6.8270,-514.6321, 0.0000, 0.0000, 0.0000
23-Jan-2019 09:45:47.365, 0.2757,-0.2963,-0.9011, 0.2394,-0.0471, 0.0613, 0.0786, 0.1181, 0.4779, 0.0323, 0.2494,-0.5227,49.737271,-123.098777, 4.7902, 177.1161, 142.569077, 6.0, 3.0,Unknown,High, 100.8012, 0.2722,-92.5021, 6.8270,-514.6321, 0.0000, 0.0000, 0.0000
23-Jan-2019 09:45:47.375, 0.2802,-0.2968,-0.8924, 0.2440,-0.0483, 0.0671, 0.0884, 0.1141, 0.4502, 0.0327, 0.2506,-0.5181,49.737271,-123.098777, 4.7902, 177.1161, 142.569077, 6.0, 3.0,Unknown,High, 100.8012, 0.2722,-92.5021, 6.8270,-514.6321, 0.0000, 0.0000, 0.0000
23-Jan-2019 09:45:47.385, 0.2855,-0.2928,-0.8850, 0.2479,-0.0477, 0.0756, 0.0896, 0.1153, 0.4246, 0.0333, 0.2518,-0.5137,49.737271,-123.098777, 4.7902, 175.6758, 142.569077, 6.0, 3.0,Unknown,High, 100.8012, 0.2722,-92.6583, 7.6503,-514.8522, 0.0000, 0.0000, 0.0000
23-Jan-2019 09:45:47.395, 0.2915,-0.2930,-0.8821, 0.2528,-0.0426, 0.0827, 0.0845, 0.1005, 0.4033, 0.0338, 0.2529,-0.5096,49.737271,-123.098777, 4.7902, 175.6758, 142.569077, 6.0, 3.0,Unknown,High, 100.8012, 0.2722,-92.6583, 7.6503,-514.8522, 0.0000, 0.0000, 0.0000
23-Jan-2019 09:45:47.405, 0.3034,-0.2934,-0.8765, 0.2583,-0.0417, 0.0852, 0.0836, 0.0888, 0.3883, 0.0343, 0.2540,-0.5057,49.737271,-123.098777, 4.7902, 175.6758, 142.569077, 6.0, 3.0,Unknown,High, 100.8012, 0.2722,-92.6583, 7.6503,-514.8522, 0.0000, 0.0000, 0.0000
23-Jan-2019 09:45:47.415, 0.3119,-0.2905,-0.8741, 0.2697,-0.0410, 0.0905, 0.0848, 0.0793, 0.3713, 0.0349, 0.2551,-0.5020,49.737271,-123.098777, 4.7902, 175.6758, 142.569077, 6.0, 3.0,Unknown,High, 100.8012, 0.2722,-92.6583, 7.6503,-514.8522, 0.0000, 0.0000, 0.0000
23-Jan-2019 09:45:47.425, 0.3172,-0.2895,-0.8759, 0.2775,-0.0371, 0.0927, 0.0795, 0.0804, 0.3585, 0.0355, 0.2562,-0.4984,49.737271,-123.098777, 4.7902, 175.6758, 142.569077, 6.0, 3.0,Unknown,High, 100.8012, 0.2722,-93.4152, 8.3929,-515.7443, 0.0000, 0.0000, 0.0000
23-Jan-2019 09:45:47.434, 0.3192,-0.2885,-0.8726, 0.2818,-0.0351, 0.0906, 0.0720, 0.1049, 0.3478, 0.0365, 0.2573,-0.4949,49.737271,-123.098777, 4.7902, 174.5536, 142.569077, 6.0, 3.0,Unknown,High, 100.8012, 0.2722,-93.4152, 8.3929,-515.7443, 0.0000, 0.0000, 0.0000
23-Jan-2019 09:45:47.444, 0.3253,-0.2864,-0.8702, 0.2825,-0.0331, 0.0935, 0.0643, 0.1507, 0.3319, 0.0380, 0.2583,-0.4916,49.737271,-123.098777, 4.7902, 174.5536, 142.569077, 6.0, 3.0,Unknown,High, 100.8012, 0.2722,-93.4152, 8.3929,-515.7443, 0.0000, 0.0000, 0.0000
23-Jan-2019 09:45:47.455, 0.3407,-0.2916,-0.8782, 0.2870,-0.0304, 0.0957, 0.0335, 0.1624, 0.3030, 0.0397, 0.2589,-0.4886,49.737271,-123.098777, 4.7902, 174.5536, 142.569077, 6.0, 3.0,Unknown,High, 100.8012, 0.2722,-93.4152, 8.3929,-515.7443, 0.0000, 0.0000, 0.0000
23-Jan-2019 09:45:47.464, 0.3504,-0.2977,-0.8855, 0.3007,-0.0354, 0.0876,-0.0143, 0.1580, 0.2815, 0.0414, 0.2591,-0.4858,49.737271,-123.098777, 4.7902, 174.5536, 142.569077, 6.0, 3.0,Unknown,High, 100.8012, 0.2722,-94.6199, 8.9833,-516.0347, 0.0000, 0.0000, 0.0000
23-Jan-2019 09:45:47.477, 0.3605,-0.2946,-0.8932, 0.3179,-0.0387, 0.0726,-0.0545, 0.1387, 0.2663, 0.0441, 0.2588,-0.4819,49.737271,-123.098777, 4.7902, 174.5536, 142.569077, 6.0, 3.0,Unknown,High, 100.8012, 0.2722,-94.6199, 8.9833,-516.0347, 0.0000, 0.0000, 0.0000
23-Jan-2019 09:45:47.484, 0.3733,-0.2894,-0.9042, 0.3176,-0.0390, 0.0726,-0.0788, 0.1237, 0.2587, 0.0443, 0.2585,-0.4805,49.737271,-123.098777, 4.7902, 174.5536, 142.569077, 6.0, 3.0,Unknown,High, 100.8012, 0.2722,-94.6199, 8.9833,-516.0347, 0.0000, 0.0000, 0.0000
23-Jan-2019 09:45:47.494, 0.3835,-0.2856,-0.9183, 0.3291,-0.0342, 0.0617,-0.0777, 0.1120, 0.2576, 0.0457, 0.2580,-0.4779,49.737271,-123.098777, 4.7902, 174.5536, 142.569077, 6.0, 3.0,Unknown,High, 100.8012, 0.2722,-94.6199, 8.9833,-516.0347, 0.0000, 0.0000, 0.0000
23-Jan-2019 09:45:47.504, 0.3860,-0.2789,-0.9298, 0.3379,-0.0307, 0.0475,-0.0619, 0.1290, 0.2769, 0.0472, 0.2578,-0.4751,49.737271,-123.098777, 4.7902, 173.2948, 142.569077, 6.0, 3.0,Unknown,High, 100.8012, 0.2722,-95.8275, 10.1750,-515.6471, 0.0000, 0.0000, 0.0000
23-Jan-2019 09:45:47.514, 0.3849,-0.2703,-0.9391, 0.3388,-0.0241, 0.0360,-0.0484, 0.1524, 0.3068, 0.0488, 0.2577,-0.4721,49.737271,-123.098777, 4.7902, 173.2948, 142.569077, 6.0, 3.0,Unknown,High, 100.8012, 0.2722,-95.8275, 10.1750,-515.6471, 0.0000, 0.0000, 0.0000
23-Jan-2019 09:45:47.524, 0.3854,-0.2664,-0.9464, 0.3361,-0.0155, 0.0267,-0.0466, 0.1617, 0.3473, 0.0505, 0.2576,-0.4686,49.737271,-123.098777, 4.7902, 173.2948, 142.569077, 6.0, 3.0,Unknown,High, 100.8012, 0.2722,-95.8275, 10.1750,-515.6471, 0.0000, 0.0000, 0.0000
23-Jan-2019 09:45:47.535, 0.3852,-0.2705,-0.9472, 0.3351,-0.0117, 0.0194,-0.0489, 0.1572, 0.3889, 0.0521, 0.2575,-0.4647,49.737271,-123.098777, 4.7902, 173.2948, 142.569077, 6.0, 3.0,Unknown,High, 100.8012, 0.2722,-95.8275, 10.1750,-515.6471, 0.0000, 0.0000, 0.0000
23-Jan-2019 09:45:47.544, 0.3834,-0.2752,-0.9450, 0.3336,-0.0159, 0.0184,-0.0479, 0.1443, 0.4261, 0.0534, 0.2575,-0.4604,49.737271,-123.098777, 4.7902, 173.2948, 142.569077, 6.0, 3.0,Unknown,High, 100.8012, 0.2722,-96.9552, 10.5414,-515.7141, 0.0000, 0.0000, 0.0000
23-Jan-2019 09:45:47.554, 0.3765,-0.2800,-0.9451, 0.3306,-0.0205, 0.0206,-0.0448, 0.1367, 0.4538, 0.0546, 0.2575,-0.4559,49.737271,-123.098777, 4.7902, 172.2143, 142.569077, 6.0, 3.0,Unknown,High, 100.8012, 0.2722,-96.9552, 10.5414,-515.7141, 0.0000, 0.0000, 0.0000
23-Jan-2019 09:45:47.564, 0.3703,-0.2864,-0.9419, 0.3227,-0.0252, 0.0204,-0.0332, 0.1356, 0.4731, 0.0557, 0.2577,-0.4511,49.737271,-123.098777, 4.7902, 172.2143, 142.569077, 6.0, 3.0,Unknown,High, 100.8012, 0.2722,-96.9552, 10.5414,-515.7141, 0.0000, 0.0000, 0.0000
23-Jan-2019 09:45:47.574, 0.3641,-0.2919,-0.9371, 0.3155,-0.0314, 0.0235,-0.0280, 0.1387, 0.4901, 0.0567, 0.2578,-0.4462,49.737271,-123.098777, 4.7902, 172.2143, 142.569077, 6.0, 3.0,Unknown,High, 100.8012, 0.2722,-96.9552, 10.5414,-515.7141, 0.0000, 0.0000, 0.0000
23-Jan-2019 09:45:47.583, 0.3578,-0.2959,-0.9368, 0.3085,-0.0368, 0.0282,-0.0302, 0.1397, 0.5082, 0.0575, 0.2580,-0.4410,49.737271,-123.098777, 4.7902, 172.2143, 142.569077, 6.0, 3.0,Unknown,High, 100.8012, 0.2722,-97.1011, 10.0157,-515.4909, 0.0000, 0.0000, 0.0000
23-Jan-2019 09:45:47.593, 0.3513,-0.2979,-0.9351, 0.3016,-0.0407, 0.0284,-0.0367, 0.1332, 0.5221, 0.0582, 0.2580,-0.4357,49.737271,-123.098777, 4.7902, 172.2143, 142.569077, 6.0, 3.0,Unknown,High, 100.8012, 0.2722,-97.1011, 10.0157,-515.4909, 0.0000, 0.0000, 0.0000
23-Jan-2019 09:45:47.604, 0.3455,-0.2982,-0.9354, 0.2947,-0.0427, 0.0302,-0.0452, 0.1224, 0.5390, 0.0586, 0.2580,-0.4302,49.737271,-123.098777, 4.7902, 170.7473, 142.569077, 6.0, 3.0,Unknown,High, 100.8012, 0.2722,-97.1011, 10.0157,-515.4909, 0.0000, 0.0000, 0.0000
23-Jan-2019 09:45:47.613, 0.3406,-0.2997,-0.9406, 0.2887,-0.0432, 0.0299,-0.0568, 0.1052, 0.5517, 0.0588, 0.2579,-0.4245,49.737271,-123.098777, 4.7902, 170.7473, 142.569077, 6.0, 3.0,Unknown,High, 100.8012, 0.2722,-97.1011, 10.0157,-515.4909, 0.0000, 0.0000, 0.0000
23-Jan-2019 09:45:47.623, 0.3342,-0.3010,-0.9414, 0.2838,-0.0448, 0.0247,-0.0515, 0.0870, 0.5709, 0.0588, 0.2578,-0.4186,49.737271,-123.098777, 4.7902, 170.7473, 142.569077, 6.0, 3.0,Unknown,High, 100.8012, 0.2722,-96.8758, 9.8667,-515.8679, 0.0000, 0.0000, 0.0000
23-Jan-2019 09:45:47.634, 0.3258,-0.2967,-0.9379, 0.2777,-0.0458, 0.0239,-0.0281, 0.0722, 0.5912, 0.0584, 0.2580,-0.4125,49.737271,-123.098777, 4.7902, 170.7473, 142.569077, 6.0, 3.0,Unknown,High, 100.8012, 0.2722,-96.8758, 9.8667,-515.8679, 0.0000, 0.0000, 0.0000
23-Jan-2019 09:45:47.643, 0.3180,-0.2943,-0.9380, 0.2699,-0.0410, 0.0273, 0.0103, 0.0468, 0.6063, 0.0579, 0.2585,-0.4063,49.737271,-123.098777, 4.7902, 170.7473, 142.569077, 6.0, 3.0,Unknown,High, 100.8012, 0.2722,-96.8758, 9.8667,-515.8679, 0.0000, 0.0000, 0.0000
23-Jan-2019 09:45:47.653, 0.3143,-0.2983,-0.9407, 0.2628,-0.0378, 0.0269, 0.0380, 0.0448, 0.6107, 0.0572, 0.2594,-0.4001,49.737271,-123.098777, 4.7902, 169.0315, 142.569077, 6.0, 3.0,Unknown,High, 100.8012, 0.2722,-96.8758, 9.8667,-515.8679, 0.0000, 0.0000, 0.0000
23-Jan-2019 09:45:47.663, 0.3071,-0.3053,-0.9425, 0.2596,-0.0409, 0.0241, 0.0538, 0.0598, 0.6119, 0.0567, 0.2604,-0.3938,49.737271,-123.098777, 4.7902, 169.0315, 142.569077, 6.0, 3.0,Unknown,High, 100.8012, 0.2722,-96.2755, 9.7960,-515.9465, 0.0000, 0.0000, 0.0000
23-Jan-2019 09:45:47.673, 0.3026,-0.3091,-0.9452, 0.2526,-0.0469, 0.0220, 0.0558, 0.0896, 0.6087, 0.0565, 0.2614,-0.3876,49.737271,-123.098777, 4.7902, 169.0315, 142.569077, 6.0, 3.0,Unknown,High, 100.8012, 0.2722,-96.2755, 9.7960,-515.9465, 0.0000, 0.0000, 0.0000
23-Jan-2019 09:45:47.683, 0.3015,-0.3102,-0.9369, 0.2479,-0.0497, 0.0190, 0.0544, 0.1375, 0.5971, 0.0567, 0.2624,-0.3815,49.737271,-123.098777, 4.7902, 169.0315, 142.569077, 6.0, 3.0,Unknown,High, 100.8012, 0.2722,-96.2755, 9.7960,-515.9465, 0.0000, 0.0000, 0.0000
