Timestamp,accelX(g),accelY(g),accelZ(g),accelUserX(g),accelUserY(g),accelUserZ(g),gyroX(rad/s),gyroY(rad/s),gyroZ(rad/s),Roll(rads),Pitch(rads),Yaw(rads),Lat,Long,Speed(m/s),TrueHeading,Alt(m), HorizontalAccuracy(m), VerticalAccuracy(m),ActivityType,ActivityConfidence,Pressure(kilopascals),RelativeAltitude(meters),magX(µT),magY(µT),magZ(µT),calMagX,calMagY,calMagZ
23-Jan-2019 09:46:10.040, 0.1976,-0.3070,-0.9514, 0.0649,-0.0734, 0.0118,-0.0689, 0.2109, 0.0874, 0.1369, 0.2359, 0.8807,49.737110,-123.098675, 3.4641, 96.7598, 140.842178, 6.0, 3.0,Unknown,High, 100.8113,-0.5734,-98.1654, 34.1625,-513.1143, 0.0000, 0.0000, 0.0000
23-Jan-2019 09:46:10.048, 0.1983,-0.3001,-0.9469, 0.0663,-0.0740, 0.0122,-0.1690,-0.2151, 0.2342, 0.1355, 0.2352, 0.8821,49.737110,-123.098675, 3.4641, 96.7598, 140.842178, 6.0, 3.0,Unknown,High, 100.8113,-0.5734,-98.1654, 34.1625,-513.1143, 0.0000, 0.0000, 0.0000
23-Jan-2019 09:46:10.049, 0.1983,-0.3001,-0.9469, 0.0686,-0.0676, 0.0170,-0.2155,-0.2868, 0.2615, 0.1338, 0.2346, 0.8836,49.737110,-123.098675, 3.4641, 96.7598, 140.842178, 6.0, 3.0,Unknown,High, 100.8113,-0.5734,-98.1654, 34.1625,-513.1143, 0.0000, 0.0000, 0.0000
23-Jan-2019 09:46:10.051, 0.1983,-0.3001,-0.9469, 0.0686,-0.0676, 0.0170,-0.2155,-0.2868, 0.2615, 0.1338, 0.2346, 0.8836,49.737110,-123.098675, 3.4641, 96.7598, 140.842178, 6.0, 3.0,Unknown,High, 100.8113,-0.5734,-99.1434, 34.6808,-512.8063, 0.0000, 0.0000, 0.0000
23-Jan-2019 09:46:10.057, 0.1982,-0.2915,-0.9465, 0.0703,-0.0685, 0.0174,-0.2155,-0.2868, 0.2615, 0.1321, 0.2337, 0.8851,49.737110,-123.098675, 3.4641, 96.7598, 140.842178, 6.0, 3.0,Unknown,High, 100.8113,-0.5734,-99.1434, 34.6808,-512.8063, 0.0000, 0.0000, 0.0000
23-Jan-2019 09:46:10.067, 0.1898,-0.2815,-0.9469, 0.0735,-0.0616, 0.0187,-0.2496,-0.2956, 0.2763, 0.1285, 0.2319, 0.8884,49.737110,-123.098675, 3.4641, 96.7598, 140.842178, 6.0, 3.0,Unknown,High, 100.8113,-0.5734,-99.1434, 34.6808,-512.8063, 0.0000, 0.0000, 0.0000
23-Jan-2019 09:46:10.077, 0.1776,-0.2776,-0.9449, 0.0679,-0.0535, 0.0191,-0.2617,-0.2382, 0.2806, 0.1255, 0.2300, 0.8917,49.737110,-123.098675, 3.4641, 96.7598, 140.842178, 6.0, 3.0,Unknown,High, 100.8113,-0.5734,-99.1434, 34.6808,-512.8063, 0.0000, 0.0000, 0.0000
23-Jan-2019 09:46:10.086, 0.1702,-0.2793,-0.9404, 0.0573,-0.0515, 0.0217,-0.2550,-0.1104, 0.2702, 0.1238, 0.2281, 0.8948,49.737110,-123.098675, 3.4641, 96.7598, 140.842178, 6.0, 3.0,Unknown,High, 100.8113,-0.5734,-99.3723, 35.3548,-512.4267, 0.0000, 0.0000, 0.0000
23-Jan-2019 09:46:10.096, 0.1742,-0.2815,-0.9393, 0.0501,-0.0550, 0.0267,-0.2420, 0.0249, 0.2449, 0.1235, 0.2263, 0.8977,49.737110,-123.098675, 3.4641, 95.4311, 140.842178, 6.0, 3.0,Unknown,High, 100.8113,-0.5734,-99.3723, 35.3548,-512.4267, 0.0000, 0.0000, 0.0000
23-Jan-2019 09:46:10.107, 0.1851,-0.2817,-0.9413, 0.0533,-0.0590, 0.0281,-0.2456, 0.1145, 0.2067, 0.1243, 0.2244, 0.9002,49.737110,-123.098675, 3.4641, 95.4311, 140.842178, 6.0, 3.0,Unknown,High, 100.8113,-0.5734,-99.3723, 35.3548,-512.4267, 0.0000, 0.0000, 0.0000
23-Jan-2019 09:46:10.117, 0.1954,-0.2785,-0.9418, 0.0630,-0.0612, 0.0265,-0.2541, 0.1487, 0.1716, 0.1255, 0.2224, 0.9023,49.737110,-123.098675, 3.4641, 95.4311, 140.842178, 6.0, 3.0,Unknown,High, 100.8113,-0.5734,-99.3723, 35.3548,-512.4267, 0.0000, 0.0000, 0.0000
23-Jan-2019 09:46:10.126, 0.2024,-0.2694,-0.9465, 0.0722,-0.0600, 0.0262,-0.2603, 0.1286, 0.1449, 0.1266, 0.2203, 0.9042,49.737110,-123.098675, 3.4641, 95.4311, 140.842178, 6.0, 3.0,Unknown,High, 100.8113,-0.5734,-99.2250, 36.0331,-511.3741, 0.0000, 0.0000, 0.0000
23-Jan-2019 09:46:10.136, 0.2056,-0.2569,-0.9465, 0.0785,-0.0528, 0.0218,-0.2450, 0.0862, 0.1374, 0.1273, 0.2183, 0.9060,49.737110,-123.098675, 3.4641, 95.4311, 140.842178, 6.0, 3.0,Unknown,High, 100.8113,-0.5734,-99.2250, 36.0331,-511.3741, 0.0000, 0.0000, 0.0000
23-Jan-2019 09:46:10.146, 0.2070,-0.2484,-0.9442, 0.0815,-0.0418, 0.0222,-0.2053, 0.0225, 0.1450, 0.1274, 0.2168, 0.9078,49.737110,-123.098675, 3.4641, 95.4311, 140.842178, 6.0, 3.0,Unknown,High, 100.8113,-0.5734,-99.2250, 36.0331,-511.3741, 0.0000, 0.0000, 0.0000
23-Jan-2019 09:46:10.156, 0.2079,-0.2462,-0.9436, 0.0835,-0.0343, 0.0248,-0.1548,-0.0465, 0.1589, 0.1268, 0.2157, 0.9097,49.737110,-123.098675, 3.4641, 95.4311, 140.842178, 6.0, 3.0,Unknown,High, 100.8113,-0.5734,-99.2250, 36.0331,-511.3741, 0.0000, 0.0000, 0.0000
23-Jan-2019 09:46:10.166, 0.2115,-0.2512,-0.9453, 0.0854,-0.0328, 0.0256,-0.1185,-0.0975, 0.1846, 0.1256, 0.2150, 0.9117,49.737101,-123.098632, 2.9563, 95.4311, 140.842148, 6.0, 3.0,Unknown,High, 100.8113,-0.5734,-100.1239, 36.1784,-510.3185, 0.0000, 0.0000, 0.0000
23-Jan-2019 09:46:10.176, 0.2123,-0.2589,-0.9468, 0.0906,-0.0383, 0.0243,-0.1013,-0.1390, 0.2134, 0.1240, 0.2146, 0.9141,49.737101,-123.098632, 2.9563, 95.4311, 140.842148, 6.0, 3.0,Unknown,High, 100.8113,-0.5734,-100.1239, 36.1784,-510.3185, 0.0000, 0.0000, 0.0000
23-Jan-2019 09:46:10.186, 0.2090,-0.2633,-0.9477, 0.0933,-0.0464, 0.0230,-0.0991,-0.1626, 0.2389, 0.1221, 0.2142, 0.9167,49.737101,-123.098632, 2.9563, 95.4311, 140.842148, 6.0, 3.0,Unknown,High, 100.8113,-0.5734,-100.1239, 36.1784,-510.3185, 0.0000, 0.0000, 0.0000
23-Jan-2019 09:46:10.195, 0.2017,-0.2636,-0.9475, 0.0920,-0.0511, 0.0225,-0.0992,-0.1702, 0.2623, 0.1201, 0.2138, 0.9195,49.737101,-123.098632, 2.9563, 94.1806, 140.842148, 6.0, 3.0,Unknown,High, 100.8113,-0.5734,-100.1239, 36.1784,-510.3185, 0.0000, 0.0000, 0.0000
23-Jan-2019 09:46:10.205, 0.1905,-0.2604,-0.9492, 0.0863,-0.0519, 0.0230,-0.1047,-0.1511, 0.2730, 0.1183, 0.2133, 0.9225,49.737101,-123.098632, 2.9563, 94.1806, 140.842148, 6.0, 3.0,Unknown,High, 100.8113,-0.5734,-100.4290, 36.8507,-510.5384, 0.0000, 0.0000, 0.0000
23-Jan-2019 09:46:10.215, 0.1814,-0.2558,-0.9538, 0.0764,-0.0492, 0.0216,-0.1167,-0.1022, 0.2656, 0.1170, 0.2128, 0.9254,49.737101,-123.098632, 2.9563, 94.1806, 140.842148, 6.0, 3.0,Unknown,High, 100.8113,-0.5734,-100.4290, 36.8507,-510.5384, 0.0000, 0.0000, 0.0000
23-Jan-2019 09:46:10.225, 0.1752,-0.2505,-0.9589, 0.0680,-0.0453, 0.0172,-0.1266,-0.0468, 0.2464, 0.1163, 0.2120, 0.9281,49.737101,-123.098632, 2.9563, 94.1806, 140.842148, 6.0, 3.0,Unknown,High, 100.8113,-0.5734,-100.4290, 36.8507,-510.5384, 0.0000, 0.0000, 0.0000
23-Jan-2019 09:46:10.235, 0.1704,-0.2433,-0.9587, 0.0618,-0.0409, 0.0123,-0.1312, 0.0182, 0.2337, 0.1163, 0.2112, 0.9306,49.737101,-123.098632, 2.9563, 94.1806, 140.842148, 6.0, 3.0,Unknown,High, 100.8113,-0.5734,-100.4290, 36.8507,-510.5384, 0.0000, 0.0000, 0.0000
23-Jan-2019 09:46:10.245, 0.1714,-0.2358,-0.9615, 0.0564,-0.0345, 0.0125,-0.1326, 0.0747, 0.2211, 0.1168, 0.2104, 0.9331,49.737101,-123.098632, 2.9563, 94.1806, 140.842148, 6.0, 3.0,Unknown,High, 100.8113,-0.5734,-100.7285, 36.9245,-510.0114, 0.0000, 0.0000, 0.0000
23-Jan-2019 09:46:10.255, 0.1775,-0.2333,-0.9685, 0.0565,-0.0277, 0.0098,-0.1295, 0.1077, 0.2094, 0.1177, 0.2096, 0.9354,49.737101,-123.098632, 2.9563, 94.1806, 140.842148, 6.0, 3.0,Unknown,High, 100.8113,-0.5734,-100.7285, 36.9245,-510.0114, 0.0000, 0.0000, 0.0000
23-Jan-2019 09:46:10.266, 0.1824,-0.2321,-0.9696, 0.0615,-0.0257, 0.0028,-0.1020, 0.1292, 0.2011, 0.1189, 0.2091, 0.9376,49.737101,-123.098632, 2.9563, 94.1806, 140.842148, 6.0, 3.0,Unknown,High, 100.8113,-0.5734,-100.7285, 36.9245,-510.0114, 0.0000, 0.0000, 0.0000
23-Jan-2019 09:46:10.275, 0.1898,-0.2253,-0.9627, 0.0651,-0.0246, 0.0015,-0.0563, 0.1454, 0.2003, 0.1202, 0.2090, 0.9398,49.737101,-123.098632, 2.9563, 93.0735, 140.842148, 6.0, 3.0,Unknown,High, 100.8113,-0.5734,-100.7285, 36.9245,-510.0114, 0.0000, 0.0000, 0.0000
23-Jan-2019 09:46:10.285, 0.1986,-0.2206,-0.9541, 0.0711,-0.0174, 0.0082,-0.0054, 0.1585, 0.2101, 0.1217, 0.2094, 0.9420,49.737101,-123.098632, 2.9563, 93.0735, 140.842148, 6.0, 3.0,Unknown,High, 100.8113,-0.5734,-101.1077, 37.5217,-510.0063, 0.0000, 0.0000, 0.0000
23-Jan-2019 09:46:10.295, 0.2112,-0.2234,-0.9458, 0.0787,-0.0119, 0.0165, 0.0318, 0.1490, 0.2327, 0.1229, 0.2103, 0.9443,49.737101,-123.098632, 2.9563, 93.0735, 140.842148, 6.0, 3.0,Unknown,High, 100.8113,-0.5734,-101.1077, 37.5217,-510.0063, 0.0000, 0.0000, 0.0000
23-Jan-2019 09:46:10.305, 0.2211,-0.2314,-0.9417, 0.0904,-0.0137, 0.0244, 0.0532, 0.1223, 0.2583, 0.1239, 0.2113, 0.9470,49.737101,-123.098632, 2.9563, 93.0735, 140.842148, 6.0, 3.0,Unknown,High, 100.8113,-0.5734,-101.1077, 37.5217,-510.0063, 0.0000, 0.0000, 0.0000
23-Jan-2019 09:46:10.315, 0.2246,-0.2368,-0.9344, 0.0998,-0.0205, 0.0283, 0.0596, 0.0935, 0.2913, 0.1244, 0.2124, 0.9499,49.737101,-123.098632, 2.9563, 93.0735, 140.842148, 6.0, 3.0,Unknown,High, 100.8113,-0.5734,-101.1077, 37.5217,-510.0063, 0.0000, 0.0000, 0.0000
23-Jan-2019 09:46:10.325, 0.2265,-0.2403,-0.9282, 0.1032,-0.0249, 0.0353, 0.0522, 0.0550, 0.3199, 0.1245, 0.2135, 0.9531,49.737101,-123.098632, 2.9563, 93.0735, 140.842148, 6.0, 3.0,Unknown,High, 100.8113,-0.5734,-101.4132, 38.1180,-510.6767, 0.0000, 0.0000, 0.0000
23-Jan-2019 09:46:10.335, 0.2260,-0.2452,-0.9258, 0.1056,-0.0275, 0.0414, 0.0322, 0.0036, 0.3443, 0.1240, 0.2144, 0.9566,49.737101,-123.098632, 2.9563, 93.0735, 140.842148, 6.0, 3.0,Unknown,High, 100.8113,-0.5734,-101.4132, 38.1180,-510.6767, 0.0000, 0.0000, 0.0000
23-Jan-2019 09:46:10.345, 0.2223,-0.2576,-0.9264, 0.1061,-0.0317, 0.0438, 0.0048,-0.0445, 0.3590, 0.1230, 0.2151, 0.9603,49.737101,-123.098632, 2.9563, 91.8593, 140.842148, 6.0, 3.0,Unknown,High, 100.8113,-0.5734,-101.4132, 38.1180,-510.6767, 0.0000, 0.0000, 0.0000
23-Jan-2019 09:46:10.355, 0.2216,-0.2713,-0.9279, 0.1038,-0.0437, 0.0433,-0.0141,-0.0925, 0.3662, 0.1216, 0.2155, 0.9641,49.737101,-123.098632, 2.9563, 91.8593, 140.842148, 6.0, 3.0,Unknown,High, 100.8113,-0.5734,-101.4132, 38.1180,-510.6767, 0.0000, 0.0000, 0.0000
23-Jan-2019 09:46:10.365, 0.2236,-0.2802,-0.9286, 0.1050,-0.0572, 0.0419,-0.0288,-0.1267, 0.3767, 0.1197, 0.2159, 0.9680,49.737101,-123.098632, 2.9563, 91.8593, 140.842148, 6.0, 3.0,Unknown,High, 100.8113,-0.5734,-101.1114, 37.6689,-511.3556, 0.0000, 0.0000, 0.0000
23-Jan-2019 09:46:10.375, 0.2209,-0.2818,-0.9334, 0.1092,-0.0658, 0.0414,-0.0318,-0.1790, 0.4022, 0.1174, 0.2161, 0.9722,49.737101,-123.098632, 2.9563, 91.8593, 140.842148, 6.0, 3.0,Unknown,High, 100.8113,-0.5734,-101.1114, 37.6689,-511.3556, 0.0000, 0.0000, 0.0000
23-Jan-2019 09:46:10.384, 0.2109,-0.2818,-0.9348, 0.1091,-0.0670, 0.0369,-0.0360,-0.2133, 0.4394, 0.1147, 0.2164, 0.9767,49.737101,-123.098632, 2.9563, 91.8593, 140.842148, 6.0, 3.0,Unknown,High, 100.8113,-0.5734,-101.1114, 37.6689,-511.3556, 0.0000, 0.0000, 0.0000
23-Jan-2019 09:46:10.394, 0.2010,-0.2847,-0.9354, 0.1018,-0.0667, 0.0356,-0.0319,-0.2092, 0.4693, 0.1120, 0.2168, 0.9816,49.737101,-123.098632, 2.9563, 90.6610, 140.842148, 6.0, 3.0,Unknown,High, 100.8113,-0.5734,-101.1114, 37.6689,-511.3556, 0.0000, 0.0000, 0.0000
23-Jan-2019 09:46:10.404, 0.1959,-0.2926,-0.9379, 0.0942,-0.0691, 0.0352,-0.0206,-0.1688, 0.4843, 0.1096, 0.2173, 0.9865,49.737101,-123.098632, 2.9563, 90.6610, 140.842148, 6.0, 3.0,Unknown,High, 100.8113,-0.5734,-100.5091, 37.1471,-512.0365, 0.0000, 0.0000, 0.0000
23-Jan-2019 09:46:10.415, 0.1882,-0.3013,-0.9364, 0.0909,-0.0763, 0.0328,-0.0008,-0.1187, 0.4962, 0.1078, 0.2180, 0.9916,49.737101,-123.098632, 2.9563, 90.6610, 140.842148, 6.0, 3.0,Unknown,High, 100.8113,-0.5734,-100.5091, 37.1471,-512.0365, 0.0000, 0.0000, 0.0000
23-Jan-2019 09:46:10.424, 0.1809,-0.3080,-0.9332, 0.0846,-0.0842, 0.0342, 0.0170,-0.0729, 0.5081, 0.1063, 0.2189, 0.9968,49.737101,-123.098632, 2.9563, 90.6610, 140.842148, 6.0, 3.0,Unknown,High, 100.8113,-0.5734,-100.5091, 37.1471,-512.0365, 0.0000, 0.0000, 0.0000
23-Jan-2019 09:46:10.434, 0.1798,-0.3130,-0.9230, 0.0785,-0.0898, 0.0373, 0.0327,-0.0463, 0.5199, 0.1051, 0.2200, 1.0020,49.737101,-123.098632, 2.9563, 90.6610, 140.842148, 6.0, 3.0,Unknown,High, 100.8113,-0.5734,-100.5091, 37.1471,-512.0365, 0.0000, 0.0000, 0.0000
23-Jan-2019 09:46:10.444, 0.1796,-0.3180,-0.9155, 0.0785,-0.0937, 0.0474, 0.0347,-0.0314, 0.5296, 0.1040, 0.2211, 1.0074,49.737101,-123.098632, 2.9563, 89.1901, 140.842148, 6.0, 3.0,Unknown,High, 100.8113,-0.5734,-99.0798, 36.4069,-512.4980, 0.0000, 0.0000, 0.0000
23-Jan-2019 09:46:10.454, 0.1749,-0.3258,-0.9138, 0.0793,-0.0978, 0.0547, 0.0176,-0.0316, 0.5423, 0.1029, 0.2221, 1.0129,49.737101,-123.098632, 2.9563, 89.1901, 140.842148, 6.0, 3.0,Unknown,High, 100.8113,-0.5734,-99.0798, 36.4069,-512.4980, 0.0000, 0.0000, 0.0000
23-Jan-2019 09:46:10.465, 0.1706,-0.3319,-0.9137, 0.0758,-0.1048, 0.0564,-0.0027,-0.0307, 0.5518, 0.1018, 0.2229, 1.0185,49.737101,-123.098632, 2.9563, 89.1901, 140.842148, 6.0, 3.0,Unknown,High, 100.8113,-0.5734,-99.0798, 36.4069,-512.4980, 0.0000, 0.0000, 0.0000
23-Jan-2019 09:46:10.474, 0.1713,-0.3387,-0.9122, 0.0726,-0.1103, 0.0565,-0.0177,-0.0202, 0.5549, 0.1007, 0.2235, 1.0242,49.737101,-123.098632, 2.9563, 89.1901, 140.842148, 6.0, 3.0,Unknown,High, 100.8113,-0.5734,-99.0798, 36.4069,-512.4980, 0.0000, 0.0000, 0.0000
23-Jan-2019 09:46:10.484, 0.1726,-0.3450,-0.9075, 0.0743,-0.1165, 0.0580,-0.0199,-0.0160, 0.5613, 0.0996, 0.2241, 1.0300,49.737101,-123.098632, 2.9563, 89.1901, 140.842148, 6.0, 3.0,Unknown,High, 100.8113,-0.5734,-97.6494, 35.3658,-513.4111, 0.0000, 0.0000, 0.0000
23-Jan-2019 09:46:10.494, 0.1705,-0.3495,-0.9073, 0.0769,-0.1221, 0.0626,-0.0157,-0.0224, 0.5751, 0.0984, 0.2248, 1.0359,49.737101,-123.098632, 2.9563, 87.5672, 140.842148, 6.0, 3.0,Unknown,High, 100.8113,-0.5734,-97.6494, 35.3658,-513.4111, 0.0000, 0.0000, 0.0000
23-Jan-2019 09:46:10.503, 0.1655,-0.3572,-0.9138, 0.0761,-0.1257, 0.0628,-0.0029,-0.0352, 0.5901, 0.0970, 0.2257, 1.0419,49.737101,-123.098632, 2.9563, 87.5672, 140.842148, 6.0, 3.0,Unknown,High, 100.8113,-0.5734,-97.6494, 35.3658,-513.4111, 0.0000, 0.0000, 0.0000
23-Jan-2019 09:46:10.514, 0.1629,-0.3656,-0.9217, 0.0725,-0.1324, 0.0561, 0.0185,-0.0478, 0.5902, 0.0955, 0.2267, 1.0480,49.737101,-123.098632, 2.9563, 87.5672, 140.842148, 6.0, 3.0,Unknown,High, 100.8113,-0.5734,-97.6494, 35.3658,-513.4111, 0.0000, 0.0000, 0.0000
23-Jan-2019 09:46:10.523, 0.1557,-0.3676,-0.9221, 0.0714,-0.1394, 0.0480, 0.0579,-0.0486, 0.5776, 0.0941, 0.2282, 1.0538,49.737101,-123.098632, 2.9563, 87.5672, 140.842148, 6.0, 3.0,Unknown,High, 100.8113,-0.5734,-95.7686, 34.4040,-513.8763, 0.0000, 0.0000, 0.0000
23-Jan-2019 09:46:10.533, 0.1442,-0.3645,-0.9159, 0.0654,-0.1396, 0.0474, 0.0972,-0.0238, 0.5651, 0.0929, 0.2300, 1.0595,49.737101,-123.098632, 2.9563, 87.5672, 140.842148, 6.0, 3.0,Unknown,High, 100.8113,-0.5734,-95.7686, 34.4040,-513.8763, 0.0000, 0.0000, 0.0000
23-Jan-2019 09:46:10.544, 0.1379,-0.3590,-0.9116, 0.0548,-0.1346, 0.0532, 0.1151, 0.0136, 0.5524, 0.0920, 0.2320, 1.0651,49.737101,-123.098632, 2.9563, 85.8856, 140.842148, 6.0, 3.0,Unknown,High, 100.8113,-0.5734,-95.7686, 34.4040,-513.8763, 0.0000, 0.0000, 0.0000
23-Jan-2019 09:46:10.553, 0.1378,-0.3603,-0.9099, 0.0491,-0.1272, 0.0571, 0.1054, 0.0338, 0.5471, 0.0914, 0.2339, 1.0706,49.737101,-123.098632, 2.9563, 85.8856, 140.842148, 6.0, 3.0,Unknown,High, 100.8113,-0.5734,-95.7686, 34.4040,-513.8763, 0.0000, 0.0000, 0.0000
23-Jan-2019 09:46:10.563, 0.1364,-0.3638,-0.9087, 0.0496,-0.1270, 0.0585, 0.0692, 0.0475, 0.5427, 0.0909, 0.2354, 1.0762,49.737101,-123.098632, 2.9563, 85.8856, 140.842148, 6.0, 3.0,Unknown,High, 100.8120,-0.6262,-93.5151, 33.6692,-514.7173, 0.0000, 0.0000, 0.0000
23-Jan-2019 09:46:10.573, 0.1321,-0.3618,-0.9111, 0.0484,-0.1294, 0.0595, 0.0222, 0.0696, 0.5350, 0.0906, 0.2365, 1.0816,49.737101,-123.098632, 2.9563, 85.8856, 140.842148, 6.0, 3.0,Unknown,High, 100.8120,-0.6262,-93.5151, 33.6692,-514.7173, 0.0000, 0.0000, 0.0000
23-Jan-2019 09:46:10.583, 0.1268,-0.3539,-0.9179, 0.0441,-0.1269, 0.0569,-0.0300, 0.0981, 0.5252, 0.0907, 0.2371, 1.0871,49.737101,-123.098632, 2.9563, 85.8856, 140.842148, 6.0, 3.0,Unknown,High, 100.8120,-0.6262,-93.5151, 33.6692,-514.7173, 0.0000, 0.0000, 0.0000
23-Jan-2019 09:46:10.593, 0.1225,-0.3446,-0.9225, 0.0386,-0.1189, 0.0501,-0.0749, 0.1212, 0.5186, 0.0909, 0.2373, 1.0925,49.737101,-123.098632, 2.9563, 84.3143, 140.842148, 6.0, 3.0,Unknown,High, 100.8120,-0.6262,-93.5151, 33.6692,-514.7173, 0.0000, 0.0000, 0.0000
23-Jan-2019 09:46:10.603, 0.1197,-0.3414,-0.9260, 0.0340,-0.1096, 0.0455,-0.1015, 0.1329, 0.5079, 0.0912, 0.2372, 1.0978,49.737101,-123.098632, 2.9563, 84.3143, 140.842148, 6.0, 3.0,Unknown,High, 100.8120,-0.6262,-91.7818, 32.4067,-514.9582, 0.0000, 0.0000, 0.0000
23-Jan-2019 09:46:10.613, 0.1122,-0.3390,-0.9313, 0.0308,-0.1067, 0.0420,-0.1185, 0.1307, 0.4982, 0.0916, 0.2369, 1.1031,49.737101,-123.098632, 2.9563, 84.3143, 140.842148, 6.0, 3.0,Unknown,High, 100.8120,-0.6262,-91.7818, 32.4067,-514.9582, 0.0000, 0.0000, 0.0000
23-Jan-2019 09:46:10.623, 0.1059,-0.3367,-0.9311, 0.0232,-0.1044, 0.0368,-0.1045, 0.1159, 0.4982, 0.0917, 0.2368, 1.1083,49.737101,-123.098632, 2.9563, 84.3143, 140.842148, 6.0, 3.0,Unknown,High, 100.8120,-0.6262,-91.7818, 32.4067,-514.9582, 0.0000, 0.0000, 0.0000
23-Jan-2019 09:46:10.633, 0.1046,-0.3361,-0.9229, 0.0169,-0.1020, 0.0369,-0.0705, 0.1086, 0.5069, 0.0918, 0.2369, 1.1137,49.737101,-123.098632, 2.9563, 84.3143, 140.842148, 6.0, 3.0,Unknown,High, 100.8120,-0.6262,-91.7818, 32.4067,-514.9582, 0.0000, 0.0000, 0.0000
23-Jan-2019 09:46:10.643, 0.1016,-0.3339,-0.9193, 0.0155,-0.1008, 0.0449,-0.0333, 0.1066, 0.5167, 0.0918, 0.2375, 1.1190,49.737101,-123.098632, 2.9563, 82.7945, 140.842148, 6.0, 3.0,Unknown,High, 100.8120,-0.6262,-89.9777, 31.8202,-514.9710, 0.0000, 0.0000, 0.0000
23-Jan-2019 09:46:10.652, 0.1007,-0.3382,-0.9110, 0.0125,-0.0978, 0.0483,-0.0014, 0.1078, 0.5275, 0.0918, 0.2384, 1.1245,49.737101,-123.098632, 2.9563, 82.7945, 140.842148, 6.0, 3.0,Unknown,High, 100.8120,-0.6262,-89.9777, 31.8202,-514.9710, 0.0000, 0.0000, 0.0000
23-Jan-2019 09:46:10.663, 0.0999,-0.3484,-0.8969, 0.0116,-0.1010, 0.0564, 0.0177, 0.1121, 0.5372, 0.0918, 0.2395, 1.1300,49.737101,-123.098632, 2.9563, 82.7945, 140.842148, 6.0, 3.0,Unknown,High, 100.8120,-0.6262,-89.9777, 31.8202,-514.9710, 0.0000, 0.0000, 0.0000
23-Jan-2019 09:46:10.673, 0.0970,-0.3614,-0.8871, 0.0108,-0.1104, 0.0703, 0.0028, 0.1131, 0.5275, 0.0918, 0.2404, 1.1355,49.737101,-123.098632, 2.9563, 82.7945, 140.842148, 6.0, 3.0,Unknown,High, 100.8120,-0.6262,-89.9777, 31.8202,-514.9710, 0.0000, 0.0000, 0.0000
23-Jan-2019 09:46:10.682, 0.0923,-0.3756,-0.8808, 0.0079,-0.1230, 0.0800,-0.0405, 0.1014, 0.4921, 0.0918, 0.2408, 1.1406,49.737101,-123.098632, 2.9563, 82.7945, 140.842148, 6.0, 3.0,Unknown,High, 100.8120,-0.6262,-88.2464, 30.8577,-515.2104, 0.0000, 0.0000, 0.0000
23-Jan-2019 09:46:10.692, 0.0812,-0.3839,-0.8731, 0.0032,-0.1373, 0.0863,-0.0914, 0.0960, 0.4482, 0.0918, 0.2406, 1.1453,49.737101,-123.098632, 2.9563, 81.2728, 140.842148, 6.0, 3.0,Unknown,High, 100.8120,-0.6262,-88.2464, 30.8577,-515.2104, 0.0000, 0.0000, 0.0000
23-Jan-2019 09:46:10.703, 0.0709,-0.3822,-0.8720,-0.0080,-0.1463, 0.0942,-0.1358, 0.1013, 0.3979, 0.0919, 0.2399, 1.1496,49.737101,-123.098632, 2.9563, 81.2728, 140.842148, 6.0, 3.0,Unknown,High, 100.8120,-0.6262,-88.2464, 30.8577,-515.2104, 0.0000, 0.0000, 0.0000
23-Jan-2019 09:46:10.712, 0.0668,-0.3750,-0.8789,-0.0184,-0.1456, 0.0955,-0.1707, 0.0950, 0.3551, 0.0921, 0.2389, 1.1535,49.737101,-123.098632, 2.9563, 81.2728, 140.842148, 6.0, 3.0,Unknown,High, 100.8120,-0.6262,-88.2464, 30.8577,-515.2104, 0.0000, 0.0000, 0.0000
23-Jan-2019 09:46:10.722, 0.0678,-0.3702,-0.8834,-0.0227,-0.1395, 0.0889,-0.1790, 0.0877, 0.3231, 0.0923, 0.2377, 1.1571,49.737101,-123.098632, 2.9563, 81.2728, 140.842148, 6.0, 3.0,Unknown,High, 100.8120,-0.6262,-87.1907, 30.1162,-514.9199, 0.0000, 0.0000, 0.0000
23-Jan-2019 09:46:10.732, 0.0717,-0.3684,-0.8889,-0.0220,-0.1357, 0.0845,-0.1629, 0.0922, 0.2966, 0.0925, 0.2367, 1.1604,49.737101,-123.098632, 2.9563, 81.2728, 140.842148, 6.0, 3.0,Unknown,High, 100.8120,-0.6262,-87.1907, 30.1162,-514.9199, 0.0000, 0.0000, 0.0000
23-Jan-2019 09:46:10.742, 0.0772,-0.3681,-0.8969,-0.0187,-0.1347, 0.0792,-0.1352, 0.1127, 0.2744, 0.0931, 0.2359, 1.1634,49.737101,-123.098632, 2.9563, 80.2118, 140.842148, 6.0, 3.0,Unknown,High, 100.8120,-0.6262,-87.1907, 30.1162,-514.9199, 0.0000, 0.0000, 0.0000
23-Jan-2019 09:46:10.752, 0.0855,-0.3655,-0.9022,-0.0140,-0.1349, 0.0713,-0.1087, 0.1364, 0.2490, 0.0939, 0.2354, 1.1661,49.737101,-123.098632, 2.9563, 80.2118, 140.842148, 6.0, 3.0,Unknown,High, 100.8120,-0.6262,-87.1907, 30.1162,-514.9199, 0.0000, 0.0000, 0.0000
23-Jan-2019 09:46:10.762, 0.0905,-0.3572,-0.9033,-0.0066,-0.1326, 0.0660,-0.0852, 0.1430, 0.2310, 0.0949, 0.2351, 1.1686,49.737101,-123.098632, 2.9563, 80.2118, 140.842148, 6.0, 3.0,Unknown,High, 100.8120,-0.6262,-87.4151, 30.1906,-514.3933, 0.0000, 0.0000, 0.0000
23-Jan-2019 09:46:10.772, 0.0948,-0.3470,-0.8977,-0.0026,-0.1245, 0.0647,-0.0671, 0.1538, 0.2194, 0.0959, 0.2349, 1.1711,49.737101,-123.098632, 2.9563, 80.2118, 140.842148, 6.0, 3.0,Unknown,High, 100.8120,-0.6262,-87.4151, 30.1906,-514.3933, 0.0000, 0.0000, 0.0000
23-Jan-2019 09:46:10.781, 0.1070,-0.3418,-0.8939, 0.0007,-0.1143, 0.0703,-0.0681, 0.1475, 0.2098, 0.0969, 0.2348, 1.1734,49.737101,-123.098632, 2.9563, 80.2118, 140.842148, 6.0, 3.0,Unknown,High, 100.8120,-0.6262,-87.4151, 30.1906,-514.3933, 0.0000, 0.0000, 0.0000
23-Jan-2019 09:46:10.791, 0.1192,-0.3450,-0.8934, 0.0121,-0.1094, 0.0741,-0.0828, 0.1229, 0.2033, 0.0977, 0.2345, 1.1756,49.737101,-123.098632, 2.9563, 80.2118, 140.842148, 6.0, 3.0,Unknown,High, 100.8120,-0.6262,-87.4151, 30.1906,-514.3933, 0.0000, 0.0000, 0.0000
23-Jan-2019 09:46:10.802, 0.1277,-0.3501,-0.8961, 0.0239,-0.1133, 0.0747,-0.1240, 0.0897, 0.1977, 0.0981, 0.2338, 1.1779,49.737101,-123.098632, 2.9563, 80.2118, 140.842148, 6.0, 3.0,Unknown,High, 100.8120,-0.6262,-87.5675, 30.6402,-514.0152, 0.0000, 0.0000, 0.0000
23-Jan-2019 09:46:10.811, 0.1357,-0.3535,-0.9009, 0.0321,-0.1196, 0.0723,-0.1706, 0.0662, 0.1782, 0.0984, 0.2327, 1.1800,49.737101,-123.098632, 2.9563, 80.2118, 140.842148, 6.0, 3.0,Unknown,High, 100.8120,-0.6262,-87.5675, 30.6402,-514.0152, 0.0000, 0.0000, 0.0000
23-Jan-2019 09:46:10.822, 0.1484,-0.3551,-0.9055, 0.0398,-0.1245, 0.0678,-0.2034, 0.0608, 0.1482, 0.0987, 0.2311, 1.1818,49.737101,-123.098632, 2.9563, 79.1866, 140.842148, 6.0, 3.0,Unknown,High, 100.8120,-0.6262,-87.5675, 30.6402,-514.0152, 0.0000, 0.0000, 0.0000
23-Jan-2019 09:46:10.831, 0.1657,-0.3567,-0.9168, 0.0523,-0.1278, 0.0635,-0.2245, 0.0566, 0.1172, 0.0989, 0.2293, 1.1834,49.737101,-123.098632, 2.9563, 79.1866, 140.842148, 6.0, 3.0,Unknown,High, 100.8120,-0.6262,-87.5675, 30.6402,-514.0152, 0.0000, 0.0000, 0.0000
23-Jan-2019 09:46:10.841, 0.1797,-0.3532,-0.9270, 0.0693,-0.1312, 0.0526,-0.2297, 0.0428, 0.1044, 0.0991, 0.2275, 1.1848,49.737101,-123.098632, 2.9563, 79.1866, 140.842148, 6.0, 3.0,Unknown,High, 100.8120,-0.6262,-88.6973, 31.5333,-513.2545, 0.0000, 0.0000, 0.0000
23-Jan-2019 09:46:10.851, 0.1888,-0.3420,-0.9319, 0.0830,-0.1294, 0.0428,-0.2243, 0.0375, 0.1108, 0.0993, 0.2257, 1.1863,49.737101,-123.098632, 2.9563, 79.1866, 140.842148, 6.0, 3.0,Unknown,High, 100.8120,-0.6262,-88.6973, 31.5333,-513.2545, 0.0000, 0.0000, 0.0000
23-Jan-2019 09:46:10.861, 0.1953,-0.3301,-0.9352, 0.0920,-0.1200, 0.0384,-0.2330, 0.0427, 0.1236, 0.0995, 0.2238, 1.1878,49.737101,-123.098632, 2.9563, 79.1866, 140.842148, 6.0, 3.0,Unknown,High, 100.8120,-0.6262,-88.6973, 31.5333,-513.2545, 0.0000, 0.0000, 0.0000
23-Jan-2019 09:46:10.871, 0.2057,-0.3219,-0.9432, 0.0983,-0.1102, 0.0355,-0.2585, 0.0393, 0.1266, 0.0996, 0.2217, 1.1895,49.737101,-123.098632, 2.9563, 79.1866, 140.842148, 6.0, 3.0,Unknown,High, 100.8120,-0.6262,-88.6973, 31.5333,-513.2545, 0.0000, 0.0000, 0.0000
23-Jan-2019 09:46:10.881, 0.2171,-0.3199,-0.9560, 0.1086,-0.1044, 0.0280,-0.2999, 0.0252, 0.1285, 0.0996, 0.2193, 1.1912,49.737101,-123.098632, 2.9563, 79.1866, 140.842148, 6.0, 3.0,Unknown,High, 100.8120,-0.6262,-89.7512, 32.3522,-512.3446, 0.0000, 0.0000, 0.0000
23-Jan-2019 09:46:10.891, 0.2237,-0.3175,-0.9751, 0.1201,-0.1050, 0.0158,-0.3306,-0.0016, 0.1304, 0.0995, 0.2166, 1.1930,49.737101,-123.098632, 2.9563, 79.1866, 140.842148, 6.0, 3.0,Unknown,High, 100.8120,-0.6262,-89.7512, 32.3522,-512.3446, 0.0000, 0.0000, 0.0000
23-Jan-2019 09:46:10.901, 0.2252,-0.3083,-0.9980, 0.1270,-0.1053,-0.0027,-0.3465,-0.0134, 0.1399, 0.0991, 0.2138, 1.1948,49.737101,-123.098632, 2.9563, 79.1866, 140.842148, 6.0, 3.0,Unknown,High, 100.8120,-0.6262,-89.7512, 32.3522,-512.3446, 0.0000, 0.0000, 0.0000
23-Jan-2019 09:46:10.911, 0.2254,-0.2960,-1.0204, 0.1287,-0.0988,-0.0249,-0.3402,-0.0135, 0.1549, 0.0988, 0.2111, 1.1968,49.737101,-123.098632, 2.9563, 79.1866, 140.842148, 6.0, 3.0,Unknown,High, 100.8120,-0.6262,-89.7512, 32.3522,-512.3446, 0.0000, 0.0000, 0.0000
23-Jan-2019 09:46:10.921, 0.2277,-0.2897,-1.0327, 0.1291,-0.0888,-0.0468,-0.3021,-0.0070, 0.1806, 0.0986, 0.2088, 1.1990,49.737101,-123.098632, 2.9563, 79.1866, 140.842148, 6.0, 3.0,Unknown,High, 100.8120,-0.6262,-91.0301, 33.3204,-510.9077, 0.0000, 0.0000, 0.0000
23-Jan-2019 09:46:10.931, 0.2324,-0.2864,-1.0310, 0.1315,-0.0841,-0.0588,-0.2300, 0.0092, 0.2066, 0.0985, 0.2071, 1.2014,49.737101,-123.098632, 2.9563, 79.1866, 140.842148, 6.0, 3.0,Unknown,High, 100.8120,-0.6262,-91.0301, 33.3204,-510.9077, 0.0000, 0.0000, 0.0000
23-Jan-2019 09:46:10.940, 0.2357,-0.2865,-1.0253, 0.1361,-0.0815,-0.0570,-0.1355, 0.0288, 0.2327, 0.0985, 0.2064, 1.2040,49.737101,-123.098632, 2.9563, 77.8820, 140.842148, 6.0, 3.0,Unknown,High, 100.8120,-0.6262,-91.0301, 33.3204,-510.9077, 0.0000, 0.0000, 0.0000
23-Jan-2019 09:46:10.951, 0.2376,-0.2893,-1.0207, 0.1394,-0.0815,-0.0513,-0.0432, 0.0420, 0.2598, 0.0986, 0.2065, 1.2067,49.737101,-123.098632, 2.9563, 77.8820, 140.842148, 6.0, 3.0,Unknown,High, 100.8120,-0.6262,-91.0301, 33.3204,-510.9077, 0.0000, 0.0000, 0.0000
23-Jan-2019 09:46:10.961, 0.2341,-0.2899,-1.0082, 0.1412,-0.0833,-0.0469, 0.0386, 0.0423, 0.2922, 0.0987, 0.2074, 1.2097,49.737101,-123.098632, 2.9563, 77.8820, 140.842148, 6.0, 3.0,Unknown,High, 100.8120,-0.6262,-92.0105, 34.2895,-510.2225, 0.0000, 0.0000, 0.0000
23-Jan-2019 09:46:10.971, 0.2283,-0.2888,-0.9905, 0.1376,-0.0827,-0.0347, 0.0873, 0.0552, 0.3180, 0.0988, 0.2088, 1.2129,49.737101,-123.098632, 2.9563, 77.8820, 140.842148, 6.0, 3.0,Unknown,High, 100.8120,-0.6262,-92.0105, 34.2895,-510.2225, 0.0000, 0.0000, 0.0000
23-Jan-2019 09:46:10.980, 0.2225,-0.2915,-0.9732, 0.1316,-0.0801,-0.0173, 0.1053, 0.0680, 0.3266, 0.0991, 0.2103, 1.2162,49.737101,-123.098632, 2.9563, 77.8820, 140.842148, 6.0, 3.0,Unknown,High, 100.8120,-0.6262,-92.0105, 34.2895,-510.2225, 0.0000, 0.0000, 0.0000
23-Jan-2019 09:46:10.990, 0.2237,-0.3029,-0.9539, 0.1255,-0.0814,-0.0003, 0.0947, 0.0776, 0.3138, 0.0994, 0.2117, 1.2193,49.737101,-123.098632, 2.9563, 77.8820, 140.842148, 6.0, 3.0,Unknown,High, 100.8120,-0.6262,-92.0105, 34.2895,-510.2225, 0.0000, 0.0000, 0.0000
23-Jan-2019 09:46:11.000, 0.2281,-0.3143,-0.9361, 0.1263,-0.0917, 0.0187, 0.0639, 0.0829, 0.2881, 0.0998, 0.2128, 1.2222,49.737101,-123.098632, 2.9563, 77.8820, 140.842148, 6.0, 3.0,Unknown,High, 100.8120,-0.6262,-92.2417, 34.9613,-510.9679, 0.0000, 0.0000, 0.0000
23-Jan-2019 09:46:11.010, 0.2299,-0.3191,-0.9317, 0.1302,-0.1026, 0.0363, 0.0119, 0.0891, 0.2580, 0.1003, 0.2133, 1.2249,49.737101,-123.098632, 2.9563, 77.8820, 140.842148, 6.0, 3.0,Unknown,High, 100.8120,-0.6262,-92.2417, 34.9613,-510.9679, 0.0000, 0.0000, 0.0000
23-Jan-2019 09:46:11.020, 0.2282,-0.3179,-0.9382, 0.1314,-0.1075, 0.0407,-0.0466, 0.0942, 0.2375, 0.1010, 0.2133, 1.2275,49.737101,-123.098632, 2.9563, 76.6039, 140.842148, 6.0, 3.0,Unknown,High, 100.8120,-0.6262,-92.2417, 34.9613,-510.9679, 0.0000, 0.0000, 0.0000
23-Jan-2019 09:46:11.030, 0.2300,-0.3123,-0.9420, 0.1291,-0.1067, 0.0342,-0.0828, 0.0962, 0.2341, 0.1016, 0.2129, 1.2300,49.737101,-123.098632, 2.9563, 76.6039, 140.842148, 6.0, 3.0,Unknown,High, 100.8120,-0.6262,-92.2417, 34.9613,-510.9679, 0.0000, 0.0000, 0.0000
23-Jan-2019 09:46:11.048, 0.2358,-0.3009,-0.9423, 0.1357,-0.0901, 0.0301,-0.0551, 0.0888, 0.2385, 0.1026, 0.2124, 1.2338,49.737101,-123.098632, 2.9563, 76.6039, 140.842148, 6.0, 3.0,Unknown,High, 100.8120,-0.6262,-92.9230, 35.9316,-510.7343, 0.0000, 0.0000, 0.0000
23-Jan-2019 09:46:11.050, 0.2419,-0.2881,-0.9423, 0.1355,-0.0902, 0.0301,-0.0551, 0.0888, 0.2385, 0.1028, 0.2123, 1.2351,49.737101,-123.098632, 2.9563, 76.6039, 140.842148, 6.0, 3.0,Unknown,High, 100.8120,-0.6262,-92.9230, 35.9316,-510.7343, 0.0000, 0.0000, 0.0000
23-Jan-2019 09:46:11.060, 0.2460,-0.2824,-0.9435, 0.1412,-0.0772, 0.0300,-0.0252, 0.0783, 0.2461, 0.1032, 0.2125, 1.2377,49.737101,-123.098632, 2.9563, 76.6039, 140.842148, 6.0, 3.0,Unknown,High, 100.8120,-0.6262,-92.9230, 35.9316,-510.7343, 0.0000, 0.0000, 0.0000
23-Jan-2019 09:46:11.071, 0.2495,-0.2811,-0.9426, 0.1449,-0.0711, 0.0286,-0.0072, 0.0698, 0.2653, 0.1036, 0.2129, 1.2405,49.737101,-123.098632, 2.9563, 76.6039, 140.842148, 6.0, 3.0,Unknown,High, 100.8120,-0.6262,-92.9230, 35.9316,-510.7343, 0.0000, 0.0000, 0.0000
23-Jan-2019 09:46:11.079, 0.2478,-0.2786,-0.9410, 0.1482,-0.0693, 0.0295, 0.0044, 0.0634, 0.2899, 0.1038, 0.2134, 1.2435,49.737101,-123.098632, 2.9563, 76.6039, 140.842148, 6.0, 3.0,Unknown,High, 100.8120,-0.6262,-93.4521, 36.5276,-510.7284, 0.0000, 0.0000, 0.0000
23-Jan-2019 09:46:11.090, 0.2430,-0.2735,-0.9364, 0.1464,-0.0660, 0.0308, 0.0203, 0.0559, 0.3102, 0.1040, 0.2142, 1.2467,49.737101,-123.098632, 2.9563, 75.4420, 140.842148, 6.0, 3.0,Unknown,High, 100.8120,-0.6262,-93.4521, 36.5276,-510.7284, 0.0000, 0.0000, 0.0000
23-Jan-2019 09:46:11.099, 0.2383,-0.2704,-0.9297, 0.1414,-0.0600, 0.0353, 0.0394, 0.0655, 0.3242, 0.1042, 0.2152, 1.2500,49.737101,-123.098632, 2.9563, 75.4420, 140.842148, 6.0, 3.0,Unknown,High, 100.8120,-0.6262,-93.4521, 36.5276,-510.7284, 0.0000, 0.0000, 0.0000
23-Jan-2019 09:46:11.111, 0.2338,-0.2692,-0.9253, 0.1362,-0.0559, 0.0416, 0.0466, 0.0889, 0.3328, 0.1047, 0.2162, 1.2534,49.737101,-123.098632, 2.9563, 75.4420, 140.842148, 6.0, 3.0,Unknown,High, 100.8120,-0.6262,-93.4521, 36.5276,-510.7284, 0.0000, 0.0000, 0.0000
23-Jan-2019 09:46:11.119, 0.2321,-0.2699,-0.9213, 0.1310,-0.0537, 0.0458, 0.0411, 0.1133, 0.3413, 0.1054, 0.2172, 1.2569,49.737101,-123.098632, 2.9563, 75.4420, 140.842148, 6.0, 3.0,Unknown,High, 100.8120,-0.6262,-93.2337, 37.3535,-511.1005, 0.0000, 0.0000, 0.0000
23-Jan-2019 09:46:11.129, 0.2327,-0.2732,-0.9180, 0.1284,-0.0535, 0.0495, 0.0218, 0.1313, 0.3423, 0.1064, 0.2181, 1.2603,49.737101,-123.098632, 2.9563, 75.4420, 140.842148, 6.0, 3.0,Unknown,High, 100.8120,-0.6262,-93.2337, 37.3535,-511.1005, 0.0000, 0.0000, 0.0000
23-Jan-2019 09:46:11.139, 0.2335,-0.2776,-0.9152, 0.1280,-0.0561, 0.0526, 0.0079, 0.1397, 0.3412, 0.1074, 0.2188, 1.2638,49.737101,-123.098632, 2.9563, 75.4420, 140.842148, 6.0, 3.0,Unknown,High, 100.8120,-0.6262,-93.2337, 37.3535,-511.1005, 0.0000, 0.0000, 0.0000
23-Jan-2019 09:46:11.150, 0.2364,-0.2768,-0.9118, 0.1280,-0.0598, 0.0550, 0.0123, 0.1174, 0.3380, 0.1083, 0.2196, 1.2672,49.737101,-123.098632, 2.9563, 75.4420, 140.842148, 6.0, 3.0,Unknown,High, 100.8120,-0.6262,-93.2337, 37.3535,-511.1005, 0.0000, 0.0000, 0.0000
23-Jan-2019 09:46:11.159, 0.2363,-0.2699,-0.9012, 0.1303,-0.0579, 0.0582, 0.0433, 0.0974, 0.3370, 0.1090, 0.2206, 1.2706,49.737101,-123.098632, 2.9563, 75.4420, 140.842148, 6.0, 3.0,Unknown,High, 100.8120,-0.6262,-93.6855, 37.5749,-511.2469, 0.0000, 0.0000, 0.0000
23-Jan-2019 09:46:11.169, 0.2394,-0.2682,-0.8921, 0.1296,-0.0498, 0.0684, 0.0732, 0.0858, 0.3393, 0.1096, 0.2220, 1.2740,49.737101,-123.098632, 2.9563, 75.4420, 140.842148, 6.0, 3.0,Unknown,High, 100.8120,-0.6262,-93.6855, 37.5749,-511.2469, 0.0000, 0.0000, 0.0000
23-Jan-2019 09:46:11.179, 0.2453,-0.2753,-0.8891, 0.1324,-0.0466, 0.0772, 0.0849, 0.0752, 0.3500, 0.1100, 0.2234, 1.2775,49.737095,-123.098584, 2.9563, 75.4420, 140.842133, 6.0, 3.0,Unknown,High, 100.8120,-0.6262,-93.6855, 37.5749,-511.2469, 0.0000, 0.0000, 0.0000
23-Jan-2019 09:46:11.188, 0.2510,-0.2848,-0.8871, 0.1380,-0.0524, 0.0798, 0.0775, 0.0623, 0.3659, 0.1103, 0.2248, 1.2812,49.737095,-123.098584, 2.9563, 73.9760, 140.842133, 6.0, 3.0,Unknown,High, 100.8120,-0.6262,-93.6855, 37.5749,-511.2469, 0.0000, 0.0000, 0.0000
23-Jan-2019 09:46:11.198, 0.2555,-0.2905,-0.8845, 0.1435,-0.0607, 0.0815, 0.0561, 0.0611, 0.3764, 0.1104, 0.2260, 1.2849,49.737095,-123.098584, 2.9563, 73.9760, 140.842133, 6.0, 3.0,Unknown,High, 100.8120,-0.6262,-93.9892, 37.9465,-511.7684, 0.0000, 0.0000, 0.0000
23-Jan-2019 09:46:11.208, 0.2629,-0.2988,-0.8833, 0.1479,-0.0656, 0.0839, 0.0284, 0.0609, 0.3806, 0.1106, 0.2269, 1.2888,49.737095,-123.098584, 2.9563, 73.9760, 140.842133, 6.0, 3.0,Unknown,High, 100.8120,-0.6262,-93.9892, 37.9465,-511.7684, 0.0000, 0.0000, 0.0000
23-Jan-2019 09:46:11.218, 0.2713,-0.3057,-0.8853, 0.1553,-0.0732, 0.0849, 0.0061, 0.0554, 0.3804, 0.1107, 0.2276, 1.2927,49.737095,-123.098584, 2.9563, 72.9286, 140.842133, 6.0, 3.0,Unknown,High, 100.8120,-0.6262,-93.9892, 37.9465,-511.7684, 0.0000, 0.0000, 0.0000
23-Jan-2019 09:46:11.228, 0.2806,-0.3076,-0.8924, 0.1639,-0.0797, 0.0829,-0.0214, 0.0362, 0.3728, 0.1105, 0.2280, 1.2966,49.737095,-123.098584, 2.9563, 72.9286, 140.842133, 6.0, 3.0,Unknown,High, 100.8120,-0.6262,-93.9892, 37.9465,-511.7684, 0.0000, 0.0000, 0.0000
23-Jan-2019 09:46:11.238, 0.2872,-0.3092,-0.9012, 0.1735,-0.0815, 0.0758,-0.0531, 0.0115, 0.3684, 0.1102, 0.2281, 1.3004,49.737095,-123.098584, 2.9563, 72.9286, 140.842133, 6.0, 3.0,Unknown,High, 100.8120,-0.6262,-94.2139, 37.8696,-511.9175, 0.0000, 0.0000, 0.0000
23-Jan-2019 09:46:11.249, 0.2892,-0.3107,-0.9061, 0.1808,-0.0833, 0.0671,-0.0828,-0.0110, 0.3703, 0.1095, 0.2279, 1.3043,49.737095,-123.098584, 2.9563, 72.9286, 140.842133, 6.0, 3.0,Unknown,High, 100.8120,-0.6262,-94.2139, 37.8696,-511.9175, 0.0000, 0.0000, 0.0000
23-Jan-2019 09:46:11.258, 0.2919,-0.3082,-0.9108, 0.1835,-0.0851, 0.0624,-0.0985,-0.0398, 0.3659, 0.1087, 0.2275, 1.3082,49.737095,-123.098584, 2.9563, 72.9286, 140.842133, 6.0, 3.0,Unknown,High, 100.8120,-0.6262,-94.2139, 37.8696,-511.9175, 0.0000, 0.0000, 0.0000
23-Jan-2019 09:46:11.268, 0.2964,-0.3062,-0.9166, 0.1873,-0.0830, 0.0579,-0.0962,-0.0642, 0.3584, 0.1076, 0.2272, 1.3119,49.737095,-123.098584, 2.9563, 71.8206, 140.842133, 6.0, 3.0,Unknown,High, 100.8120,-0.6262,-94.2139, 37.8696,-511.9175, 0.0000, 0.0000, 0.0000
23-Jan-2019 09:46:11.278, 0.3011,-0.3042,-0.9250, 0.1930,-0.0811, 0.0522,-0.0833,-0.0790, 0.3521, 0.1064, 0.2270, 1.3156,49.737095,-123.098584, 2.9563, 71.8206, 140.842133, 6.0, 3.0,Unknown,High, 100.8120,-0.6262,-94.5891, 37.8666,-511.9904, 0.0000, 0.0000, 0.0000
23-Jan-2019 09:46:11.288, 0.3025,-0.2996,-0.9335, 0.1991,-0.0792, 0.0440,-0.0672,-0.1024, 0.3617, 0.1050, 0.2270, 1.3194,49.737095,-123.098584, 2.9563, 71.8206, 140.842133, 6.0, 3.0,Unknown,High, 100.8120,-0.6262,-94.5891, 37.8666,-511.9904, 0.0000, 0.0000, 0.0000
23-Jan-2019 09:46:11.298, 0.2994,-0.2901,-0.9385, 0.2019,-0.0743, 0.0355,-0.0385,-0.1141, 0.3842, 0.1034, 0.2273, 1.3234,49.737095,-123.098584, 2.9563, 71.8206, 140.842133, 6.0, 3.0,Unknown,High, 100.8120,-0.6262,-94.5891, 37.8666,-511.9904, 0.0000, 0.0000, 0.0000
23-Jan-2019 09:46:11.308, 0.2894,-0.2819,-0.9427, 0.2003,-0.0642, 0.0306,-0.0131,-0.1109, 0.4141, 0.1019, 0.2279, 1.3276,49.737095,-123.098584, 2.9563, 71.8206, 140.842133, 6.0, 3.0,Unknown,High, 100.8120,-0.6262,-94.5891, 37.8666,-511.9904, 0.0000, 0.0000, 0.0000
23-Jan-2019 09:46:11.318, 0.2774,-0.2750,-0.9480, 0.1915,-0.0554, 0.0264,-0.0114,-0.0770, 0.4419, 0.1007, 0.2285, 1.3321,49.737095,-123.098584, 2.9563, 70.7009, 140.842133, 6.0, 3.0,Unknown,High, 100.8120,-0.6262,-94.5156, 38.0167,-512.2151, 0.0000, 0.0000, 0.0000
23-Jan-2019 09:46:11.328, 0.2681,-0.2760,-0.9511, 0.1803,-0.0480, 0.0210,-0.0310,-0.0357, 0.4664, 0.0999, 0.2290, 1.3368,49.737095,-123.098584, 2.9563, 70.7009, 140.842133, 6.0, 3.0,Unknown,High, 100.8120,-0.6262,-94.5156, 38.0167,-512.2151, 0.0000, 0.0000, 0.0000
23-Jan-2019 09:46:11.337, 0.2691,-0.2844,-0.9528, 0.1716,-0.0488, 0.0179,-0.0568,-0.0019, 0.4738, 0.0993, 0.2292, 1.3417,49.737095,-123.098584, 2.9563, 70.7009, 140.842133, 6.0, 3.0,Unknown,High, 100.8120,-0.6262,-94.5156, 38.0167,-512.2151, 0.0000, 0.0000, 0.0000
23-Jan-2019 09:46:11.347, 0.2710,-0.2949,-0.9518, 0.1728,-0.0571, 0.0163,-0.0707, 0.0226, 0.4642, 0.0991, 0.2293, 1.3465,49.737095,-123.098584, 2.9563, 70.7009, 140.842133, 6.0, 3.0,Unknown,High, 100.8120,-0.6262,-94.5156, 38.0167,-512.2151, 0.0000, 0.0000, 0.0000
23-Jan-2019 09:46:11.358, 0.2726,-0.3007,-0.9410, 0.1750,-0.0674, 0.0172,-0.0558, 0.0163, 0.4642, 0.0987, 0.2295, 1.3512,49.737095,-123.098584, 2.9563, 70.7009, 140.842133, 6.0, 3.0,Unknown,High, 100.8120,-0.6262,-94.1392, 37.7188,-512.5937, 0.0000, 0.0000, 0.0000
23-Jan-2019 09:46:11.368, 0.2723,-0.2974,-0.9257, 0.1773,-0.0727, 0.0280,-0.0216,-0.0155, 0.4739, 0.0981, 0.2300, 1.3561,49.737095,-123.098584, 2.9563, 69.3406, 140.842133, 6.0, 3.0,Unknown,High, 100.8120,-0.6262,-94.1392, 37.7188,-512.5937, 0.0000, 0.0000, 0.0000
23-Jan-2019 09:46:11.377, 0.2675,-0.2946,-0.9149, 0.1781,-0.0686, 0.0432, 0.0085,-0.0644, 0.4942, 0.0969, 0.2308, 1.3611,49.737095,-123.098584, 2.9563, 69.3406, 140.842133, 6.0, 3.0,Unknown,High, 100.8120,-0.6262,-94.1392, 37.7188,-512.5937, 0.0000, 0.0000, 0.0000
23-Jan-2019 09:46:11.387, 0.2545,-0.3001,-0.9082, 0.1750,-0.0650, 0.0539, 0.0193,-0.1017, 0.5123, 0.0952, 0.2317, 1.3663,49.737095,-123.098584, 2.9563, 69.3406, 140.842133, 6.0, 3.0,Unknown,High, 100.8120,-0.6262,-94.1392, 37.7188,-512.5937, 0.0000, 0.0000, 0.0000
23-Jan-2019 09:46:11.398, 0.2411,-0.3102,-0.9016, 0.1637,-0.0696, 0.0606, 0.0118,-0.1114, 0.5261, 0.0934, 0.2325, 1.3716,49.737095,-123.098584, 2.9563, 69.3406, 140.842133, 6.0, 3.0,Unknown,High, 100.8120,-0.6262,-93.2378, 37.4249,-512.9001, 0.0000, 0.0000, 0.0000
23-Jan-2019 09:46:11.408, 0.2307,-0.3192,-0.9006, 0.1521,-0.0792, 0.0673,-0.0117,-0.1062, 0.5303, 0.0916, 0.2331, 1.3770,49.737095,-123.098584, 2.9563, 69.3406, 140.842133, 6.0, 3.0,Unknown,High, 100.8120,-0.6262,-93.2378, 37.4249,-512.9001, 0.0000, 0.0000, 0.0000
23-Jan-2019 09:46:11.417, 0.2151,-0.3313,-0.9043, 0.1432,-0.0880, 0.0684,-0.0393,-0.0924, 0.5099, 0.0900, 0.2333, 1.3822,49.737095,-123.098584, 2.9563, 67.8539, 140.842133, 6.0, 3.0,Unknown,High, 100.8120,-0.6262,-93.2378, 37.4249,-512.9001, 0.0000, 0.0000, 0.0000
23-Jan-2019 09:46:11.427, 0.2099,-0.3453,-0.9001, 0.1288,-0.0999, 0.0647,-0.0510,-0.0571, 0.4630, 0.0889, 0.2334, 1.3870,49.737095,-123.098584, 2.9563, 67.8539, 140.842133, 6.0, 3.0,Unknown,High, 100.8120,-0.6262,-93.2378, 37.4249,-512.9001, 0.0000, 0.0000, 0.0000
23-Jan-2019 09:46:11.437, 0.2155,-0.3535,-0.9018, 0.1243,-0.1139, 0.0689,-0.0519,-0.0312, 0.3992, 0.0881, 0.2335, 1.3911,49.737095,-123.098584, 2.9563, 67.8539, 140.842133, 6.0, 3.0,Unknown,High, 100.8120,-0.6262,-92.6379, 37.3538,-513.2037, 0.0000, 0.0000, 0.0000
23-Jan-2019 09:46:11.448, 0.2227,-0.3533,-0.9070, 0.1303,-0.1221, 0.0673,-0.0538,-0.0202, 0.3331, 0.0877, 0.2335, 1.3945,49.737095,-123.098584, 2.9563, 67.8539, 140.842133, 6.0, 3.0,Unknown,High, 100.8120,-0.6262,-92.6379, 37.3538,-513.2037, 0.0000, 0.0000, 0.0000
23-Jan-2019 09:46:11.457, 0.2276,-0.3411,-0.9118, 0.1374,-0.1221, 0.0621,-0.0718, 0.0129, 0.2841, 0.0877, 0.2333, 1.3975,49.737095,-123.098584, 2.9563, 67.8539, 140.842133, 6.0, 3.0,Unknown,High, 100.8120,-0.6262,-92.6379, 37.3538,-513.2037, 0.0000, 0.0000, 0.0000
23-Jan-2019 09:46:11.467, 0.2371,-0.3255,-0.9191, 0.1421,-0.1104, 0.0575,-0.1028, 0.0416, 0.2638, 0.0880, 0.2328, 1.4003,49.737095,-123.098584, 2.9563, 66.7048, 140.842133, 6.0, 3.0,Unknown,High, 100.8120,-0.6262,-92.6379, 37.3538,-513.2037, 0.0000, 0.0000, 0.0000
23-Jan-2019 09:46:11.477, 0.2483,-0.3095,-0.9258, 0.1512,-0.0956, 0.0503,-0.1337, 0.0489, 0.2657, 0.0884, 0.2320, 1.4032,49.737095,-123.098584, 2.9563, 66.7048, 140.842133, 6.0, 3.0,Unknown,High, 100.8120,-0.6262,-92.5648, 37.8056,-512.6019, 0.0000, 0.0000, 0.0000
23-Jan-2019 09:46:11.487, 0.2613,-0.2987,-0.9343, 0.1621,-0.0805, 0.0438,-0.1475, 0.0381, 0.2720, 0.0886, 0.2311, 1.4061,49.737095,-123.098584, 2.9563, 66.7048, 140.842133, 6.0, 3.0,Unknown,High, 100.8120,-0.6262,-92.5648, 37.8056,-512.6019, 0.0000, 0.0000, 0.0000
23-Jan-2019 09:46:11.497, 0.2715,-0.2880,-0.9429, 0.1752,-0.0704, 0.0355,-0.1400, 0.0189, 0.2838, 0.0886, 0.2303, 1.4091,49.737095,-123.098584, 2.9563, 66.7048, 140.842133, 6.0, 3.0,Unknown,High, 100.8120,-0.6262,-92.5648, 37.8056,-512.6019, 0.0000, 0.0000, 0.0000
23-Jan-2019 09:46:11.507, 0.2782,-0.2730,-0.9480, 0.1858,-0.0601, 0.0270,-0.1058,-0.0076, 0.2977, 0.0882, 0.2299, 1.4123,49.737095,-123.098584, 2.9563, 66.7048, 140.842133, 6.0, 3.0,Unknown,High, 100.8120,-0.6262,-92.5648, 37.8056,-512.6019, 0.0000, 0.0000, 0.0000
23-Jan-2019 09:46:11.517, 0.2804,-0.2558,-0.9452, 0.1931,-0.0450, 0.0219,-0.0589,-0.0372, 0.3192, 0.0875, 0.2300, 1.4156,49.737095,-123.098584, 2.9563, 66.7048, 140.842133, 6.0, 3.0,Unknown,High, 100.8120,-0.6262,-92.8725, 39.0040,-512.2192, 0.0000, 0.0000, 0.0000
23-Jan-2019 09:46:11.526, 0.2807,-0.2400,-0.9406, 0.1962,-0.0273, 0.0247,-0.0174,-0.0562, 0.3386, 0.0866, 0.2305, 1.4191,49.737095,-123.098584, 2.9563, 66.7048, 140.842133, 6.0, 3.0,Unknown,High, 100.8120,-0.6262,-92.8725, 39.0040,-512.2192, 0.0000, 0.0000, 0.0000
23-Jan-2019 09:46:11.536, 0.2780,-0.2294,-0.9415, 0.1973,-0.0109, 0.0292,-0.0048,-0.0467, 0.3621, 0.0857, 0.2312, 1.4228,49.737095,-123.098584, 2.9563, 65.3490, 140.842133, 6.0, 3.0,Unknown,High, 100.8120,-0.6262,-92.8725, 39.0040,-512.2192, 0.0000, 0.0000, 0.0000
23-Jan-2019 09:46:11.546, 0.2707,-0.2211,-0.9438, 0.1952, 0.0002, 0.0283,-0.0222,-0.0097, 0.3898, 0.0852, 0.2316, 1.4268,49.737095,-123.098584, 2.9563, 65.3490, 140.842133, 6.0, 3.0,Unknown,High, 100.8120,-0.6262,-92.8725, 39.0040,-512.2192, 0.0000, 0.0000, 0.0000
23-Jan-2019 09:46:11.556, 0.2633,-0.2146,-0.9437, 0.1880, 0.0085, 0.0259,-0.0610, 0.0378, 0.4142, 0.0851, 0.2317, 1.4311,49.737095,-123.098584, 2.9563, 65.3490, 140.842133, 6.0, 3.0,Unknown,High, 100.8120,-0.6262,-92.1239, 39.3104,-511.8468, 0.0000, 0.0000, 0.0000
23-Jan-2019 09:46:11.566, 0.2603,-0.2079,-0.9398, 0.1804, 0.0147, 0.0262,-0.1028, 0.0716, 0.4236, 0.0853, 0.2313, 1.4355,49.737095,-123.098584, 2.9563, 65.3490, 140.842133, 6.0, 3.0,Unknown,High, 100.8120,-0.6262,-92.1239, 39.3104,-511.8468, 0.0000, 0.0000, 0.0000
23-Jan-2019 09:46:11.576, 0.2622,-0.2083,-0.9396, 0.1770, 0.0207, 0.0302,-0.1336, 0.0832, 0.4086, 0.0857, 0.2306, 1.4398,49.737095,-123.098584, 2.9563, 65.3490, 140.842133, 6.0, 3.0,Unknown,High, 100.8120,-0.6262,-92.1239, 39.3104,-511.8468, 0.0000, 0.0000, 0.0000
23-Jan-2019 09:46:11.586, 0.2649,-0.2108,-0.9447, 0.1786, 0.0194, 0.0306,-0.1600, 0.0682, 0.3924, 0.0860, 0.2296, 1.4439,49.737095,-123.098584, 2.9563, 64.1442, 140.842133, 6.0, 3.0,Unknown,High, 100.8120,-0.6262,-92.1239, 39.3104,-511.8468, 0.0000, 0.0000, 0.0000
23-Jan-2019 09:46:11.596, 0.2652,-0.2090,-0.9486, 0.1812, 0.0157, 0.0257,-0.1758, 0.0383, 0.3934, 0.0860, 0.2284, 1.4481,49.737095,-123.098584, 2.9563, 64.1442, 140.842133, 6.0, 3.0,Unknown,High, 100.8120,-0.6262,-91.3001, 39.6174,-511.3998, 0.0000, 0.0000, 0.0000
23-Jan-2019 09:46:11.606, 0.2649,-0.2017,-0.9491, 0.1819, 0.0163, 0.0222,-0.1757, 0.0031, 0.4114, 0.0856, 0.2272, 1.4524,49.737095,-123.098584, 2.9563, 64.1442, 140.842133, 6.0, 3.0,Unknown,High, 100.8120,-0.6262,-91.3001, 39.6174,-511.3998, 0.0000, 0.0000, 0.0000
23-Jan-2019 09:46:11.616, 0.2644,-0.1959,-0.9526, 0.1823, 0.0223, 0.0220,-0.1766,-0.0289, 0.4348, 0.0849, 0.2259, 1.4570,49.737095,-123.098584, 2.9563, 64.1442, 140.842133, 6.0, 3.0,Unknown,High, 100.8120,-0.6262,-91.3001, 39.6174,-511.3998, 0.0000, 0.0000, 0.0000
23-Jan-2019 09:46:11.626, 0.2596,-0.1951,-0.9582, 0.1828, 0.0269, 0.0188,-0.1841,-0.0558, 0.4656, 0.0838, 0.2246, 1.4619,49.737095,-123.098584, 2.9563, 64.1442, 140.842133, 6.0, 3.0,Unknown,High, 100.8120,-0.6262,-91.3001, 39.6174,-511.3998, 0.0000, 0.0000, 0.0000
23-Jan-2019 09:46:11.636, 0.2492,-0.1998,-0.9599, 0.1792, 0.0263, 0.0136,-0.1873,-0.0751, 0.5007, 0.0825, 0.2233, 1.4671,49.737095,-123.098584, 2.9563, 62.8344, 140.842133, 6.0, 3.0,Unknown,High, 100.8120,-0.6262,-91.3001, 39.6174,-511.3998, 0.0000, 0.0000, 0.0000
23-Jan-2019 09:46:11.646, 0.2424,-0.2050,-0.9627, 0.1704, 0.0203, 0.0124,-0.1916,-0.0966, 0.5273, 0.0809, 0.2219, 1.4726,49.737095,-123.098584, 2.9563, 62.8344, 140.842133, 6.0, 3.0,Unknown,High, 100.8120,-0.6262,-90.4691, 39.1011,-510.2069, 0.0000, 0.0000, 0.0000
23-Jan-2019 09:46:11.656, 0.2372,-0.2138,-0.9670, 0.1653, 0.0137, 0.0100,-0.1968,-0.1137, 0.5293, 0.0791, 0.2205, 1.4782,49.737095,-123.098584, 2.9563, 62.8344, 140.842133, 6.0, 3.0,Unknown,High, 100.8120,-0.6262,-90.4691, 39.1011,-510.2069, 0.0000, 0.0000, 0.0000
23-Jan-2019 09:46:11.666, 0.2300,-0.2251,-0.9765, 0.1619, 0.0033, 0.0063,-0.2062,-0.1285, 0.5154, 0.0772, 0.2189, 1.4836,49.737095,-123.098584, 2.9563, 62.8344, 140.842133, 6.0, 3.0,Unknown,High, 100.8120,-0.6262,-90.4691, 39.1011,-510.2069, 0.0000, 0.0000, 0.0000
23-Jan-2019 09:46:11.675, 0.2239,-0.2342,-0.9861, 0.1563,-0.0097,-0.0028,-0.2210,-0.1189, 0.4834, 0.0756, 0.2171, 1.4886,49.737095,-123.098584, 2.9563, 62.8344, 140.842133, 6.0, 3.0,Unknown,High, 100.8120,-0.6262,-90.4691, 39.1011,-510.2069, 0.0000, 0.0000, 0.0000
23-Jan-2019 09:46:11.685, 0.2249,-0.2354,-0.9954, 0.1512,-0.0208,-0.0118,-0.2510,-0.0603, 0.4461, 0.0745, 0.2151, 1.4934,49.737095,-123.098584, 2.9563, 61.3187, 140.842133, 6.0, 3.0,Unknown,High, 100.8120,-0.6262,-89.4855, 38.0598,-509.5425, 0.0000, 0.0000, 0.0000
23-Jan-2019 09:46:11.696, 0.2265,-0.2323,-1.0087, 0.1527,-0.0242,-0.0206,-0.2725,-0.0124, 0.4269, 0.0740, 0.2128, 1.4979,49.737095,-123.098584, 2.9563, 61.3187, 140.842133, 6.0, 3.0,Unknown,High, 100.8120,-0.6262,-89.4855, 38.0598,-509.5425, 0.0000, 0.0000, 0.0000
23-Jan-2019 09:46:11.705, 0.2266,-0.2237,-1.0160, 0.1545,-0.0233,-0.0335,-0.2642, 0.0153, 0.4302, 0.0737, 0.2106, 1.5025,49.737095,-123.098584, 2.9563, 61.3187, 140.842133, 6.0, 3.0,Unknown,High, 100.8120,-0.6262,-89.4855, 38.0598,-509.5425, 0.0000, 0.0000, 0.0000
23-Jan-2019 09:46:11.716, 0.2249,-0.2101,-1.0134, 0.1548,-0.0165,-0.0403,-0.2240, 0.0388, 0.4485, 0.0735, 0.2087, 1.5073,49.737095,-123.098584, 2.9563, 61.3187, 140.842133, 6.0, 3.0,Unknown,High, 100.8120,-0.6262,-89.4855, 38.0598,-509.5425, 0.0000, 0.0000, 0.0000
23-Jan-2019 09:46:11.725, 0.2232,-0.2010,-1.0089, 0.1533,-0.0040,-0.0375,-0.1623, 0.0316, 0.4712, 0.0732, 0.2076, 1.5122,49.737095,-123.098584, 2.9563, 61.3187, 140.842133, 6.0, 3.0,Unknown,High, 100.8120,-0.6262,-89.0279, 37.1645,-508.8745, 0.0000, 0.0000, 0.0000
23-Jan-2019 09:46:11.735, 0.2166,-0.1994,-0.9999, 0.1521, 0.0047,-0.0328,-0.0921, 0.0138, 0.4917, 0.0727, 0.2071, 1.5173,49.737095,-123.098584, 2.9563, 59.9553, 140.842133, 6.0, 3.0,Unknown,High, 100.8120,-0.6262,-89.0279, 37.1645,-508.8745, 0.0000, 0.0000, 0.0000
23-Jan-2019 09:46:11.745, 0.2126,-0.2065,-0.9890, 0.1461, 0.0063,-0.0239,-0.0421, 0.0140, 0.5005, 0.0721, 0.2071, 1.5224,49.737095,-123.098584, 2.9563, 59.9553, 140.842133, 6.0, 3.0,Unknown,High, 100.8120,-0.6262,-89.0279, 37.1645,-508.8745, 0.0000, 0.0000, 0.0000
23-Jan-2019 09:46:11.755, 0.2124,-0.2219,-0.9833, 0.1426,-0.0006,-0.0129,-0.0272, 0.0163, 0.4921, 0.0716, 0.2073, 1.5275,49.737095,-123.098584, 2.9563, 59.9553, 140.842133, 6.0, 3.0,Unknown,High, 100.8120,-0.6262,-89.0279, 37.1645,-508.8745, 0.0000, 0.0000, 0.0000
23-Jan-2019 09:46:11.765, 0.2130,-0.2406,-0.9734, 0.1429,-0.0159,-0.0073,-0.0314, 0.0174, 0.4750, 0.0710, 0.2075, 1.5324,49.737095,-123.098584, 2.9563, 59.9553, 140.842133, 6.0, 3.0,Unknown,High, 100.8120,-0.6262,-88.8721, 36.3407,-508.8795, 0.0000, 0.0000, 0.0000
23-Jan-2019 09:46:11.775, 0.2165,-0.2504,-0.9631, 0.1440,-0.0346, 0.0028,-0.0440, 0.0154, 0.4483, 0.0705, 0.2075, 1.5370,49.737095,-123.098584, 2.9563, 59.9553, 140.842133, 6.0, 3.0,Unknown,High, 100.8120,-0.6262,-88.8721, 36.3407,-508.8795, 0.0000, 0.0000, 0.0000
23-Jan-2019 09:46:11.785, 0.2185,-0.2530,-0.9548, 0.1481,-0.0445, 0.0131,-0.0597, 0.0080, 0.4173, 0.0700, 0.2073, 1.5414,49.737095,-123.098584, 2.9563, 58.5596, 140.842133, 6.0, 3.0,Unknown,High, 100.8120,-0.6262,-88.8721, 36.3407,-508.8795, 0.0000, 0.0000, 0.0000
23-Jan-2019 09:46:11.795, 0.2180,-0.2574,-0.9504, 0.1506,-0.0476, 0.0215,-0.0787,-0.0047, 0.3906, 0.0695, 0.2069, 1.5455,49.737095,-123.098584, 2.9563, 58.5596, 140.842133, 6.0, 3.0,Unknown,High, 100.8120,-0.6262,-88.8721, 36.3407,-508.8795, 0.0000, 0.0000, 0.0000
23-Jan-2019 09:46:11.805, 0.2202,-0.2625,-0.9535, 0.1507,-0.0526, 0.0260,-0.0965,-0.0175, 0.3670, 0.0688, 0.2063, 1.5493,49.737095,-123.098584, 2.9563, 58.5596, 140.842133, 6.0, 3.0,Unknown,High, 100.8120,-0.6262,-88.8668, 35.5909,-508.8083, 0.0000, 0.0000, 0.0000
23-Jan-2019 09:46:11.815, 0.2267,-0.2669,-0.9665, 0.1535,-0.0585, 0.0232,-0.1187,-0.0228, 0.3403, 0.0682, 0.2055, 1.5529,49.737095,-123.098584, 2.9563, 58.5596, 140.842133, 6.0, 3.0,Unknown,High, 100.8120,-0.6262,-88.8668, 35.5909,-508.8083, 0.0000, 0.0000, 0.0000
23-Jan-2019 09:46:11.825, 0.2312,-0.2683,-0.9839, 0.1605,-0.0639, 0.0105,-0.1314,-0.0142, 0.3168, 0.0676, 0.2045, 1.5563,49.737095,-123.098584, 2.9563, 58.5596, 140.842133, 6.0, 3.0,Unknown,High, 100.8120,-0.6262,-88.8668, 35.5909,-508.8083, 0.0000, 0.0000, 0.0000
23-Jan-2019 09:46:11.834, 0.2355,-0.2647,-0.9924, 0.1652,-0.0661,-0.0068,-0.1166, 0.0136, 0.3041, 0.0674, 0.2036, 1.5595,49.737095,-123.098584, 2.9563, 57.5021, 140.842133, 6.0, 3.0,Unknown,High, 100.8120,-0.6262,-88.8668, 35.5909,-508.8083, 0.0000, 0.0000, 0.0000
23-Jan-2019 09:46:11.844, 0.2446,-0.2562,-0.9914, 0.1694,-0.0629,-0.0152,-0.0818, 0.0500, 0.3022, 0.0675, 0.2032, 1.5627,49.737095,-123.098584, 2.9563, 57.5021, 140.842133, 6.0, 3.0,Unknown,High, 100.8120,-0.6262,-88.9425, 35.7406,-508.6571, 0.0000, 0.0000, 0.0000
23-Jan-2019 09:46:11.855, 0.2565,-0.2494,-0.9883, 0.1782,-0.0544,-0.0143,-0.0297, 0.0673, 0.3025, 0.0678, 0.2032, 1.5659,49.737095,-123.098584, 2.9563, 57.5021, 140.842133, 6.0, 3.0,Unknown,High, 100.8120,-0.6262,-88.9425, 35.7406,-508.6571, 0.0000, 0.0000, 0.0000
23-Jan-2019 09:46:11.864, 0.2628,-0.2463,-0.9779, 0.1898,-0.0471,-0.0112, 0.0149, 0.0718, 0.3187, 0.0682, 0.2037, 1.5692,49.737095,-123.098584, 2.9563, 57.5021, 140.842133, 6.0, 3.0,Unknown,High, 100.8120,-0.6262,-88.9425, 35.7406,-508.6571, 0.0000, 0.0000, 0.0000
23-Jan-2019 09:46:11.874, 0.2641,-0.2429,-0.9638, 0.1959,-0.0431,-0.0011, 0.0520, 0.0580, 0.3477, 0.0683, 0.2046, 1.5728,49.737095,-123.098584, 2.9563, 57.5021, 140.842133, 6.0, 3.0,Unknown,High, 100.8120,-0.6262,-88.9425, 35.7406,-508.6571, 0.0000, 0.0000, 0.0000
23-Jan-2019 09:46:11.884, 0.2643,-0.2371,-0.9541, 0.1974,-0.0387, 0.0129, 0.0606, 0.0313, 0.3753, 0.0682, 0.2057, 1.5766,49.737095,-123.098584, 2.9563, 57.5021, 140.842133, 6.0, 3.0,Unknown,High, 100.8120,-0.6262,-89.4686, 35.9621,-508.4281, 0.0000, 0.0000, 0.0000
23-Jan-2019 09:46:11.894, 0.2628,-0.2350,-0.9489, 0.1980,-0.0320, 0.0223, 0.0489, 0.0098, 0.3944, 0.0678, 0.2066, 1.5806,49.737095,-123.098584, 2.9563, 57.5021, 140.842133, 6.0, 3.0,Unknown,High, 100.8120,-0.6262,-89.4686, 35.9621,-508.4281, 0.0000, 0.0000, 0.0000
23-Jan-2019 09:46:11.904, 0.2625,-0.2359,-0.9472, 0.1970,-0.0293, 0.0275, 0.0256,-0.0042, 0.4039, 0.0673, 0.2073, 1.5847,49.737095,-123.098584, 2.9563, 57.5021, 140.842133, 6.0, 3.0,Unknown,High, 100.8120,-0.6262,-89.4686, 35.9621,-508.4281, 0.0000, 0.0000, 0.0000
23-Jan-2019 09:46:11.914, 0.2612,-0.2338,-0.9451, 0.1972,-0.0295, 0.0291, 0.0139,-0.0096, 0.4049, 0.0667, 0.2079, 1.5889,49.737095,-123.098584, 2.9563, 55.9571, 140.842133, 6.0, 3.0,Unknown,High, 100.8120,-0.6262,-89.4686, 35.9621,-508.4281, 0.0000, 0.0000, 0.0000
23-Jan-2019 09:46:11.924, 0.2609,-0.2233,-0.9373, 0.1966,-0.0268, 0.0311, 0.0203,-0.0148, 0.3996, 0.0661, 0.2085, 1.5930,49.737095,-123.098584, 2.9563, 55.9571, 140.842133, 6.0, 3.0,Unknown,High, 100.8120,-0.6262,-88.8748, 36.7157,-508.8776, 0.0000, 0.0000, 0.0000
23-Jan-2019 09:46:11.933, 0.2621,-0.2079,-0.9275, 0.1971,-0.0154, 0.0388, 0.0417,-0.0275, 0.3943, 0.0653, 0.2093, 1.5970,49.737095,-123.098584, 2.9563, 55.9571, 140.842133, 6.0, 3.0,Unknown,High, 100.8120,-0.6262,-88.8748, 36.7157,-508.8776, 0.0000, 0.0000, 0.0000
23-Jan-2019 09:46:11.944, 0.2644,-0.1952,-0.9196, 0.1991, 0.0008, 0.0484, 0.0557,-0.0444, 0.3922, 0.0645, 0.2103, 1.6010,49.737095,-123.098584, 2.9563, 55.9571, 140.842133, 6.0, 3.0,Unknown,High, 100.8120,-0.6262,-88.8748, 36.7157,-508.8776, 0.0000, 0.0000, 0.0000
23-Jan-2019 09:46:11.954, 0.2643,-0.1887,-0.9149, 0.2024, 0.0144, 0.0563, 0.0494,-0.0604, 0.3986, 0.0635, 0.2112, 1.6050,49.737095,-123.098584, 2.9563, 55.9571, 140.842133, 6.0, 3.0,Unknown,High, 100.8120,-0.6262,-88.8748, 36.7157,-508.8776, 0.0000, 0.0000, 0.0000
23-Jan-2019 09:46:11.963, 0.2652,-0.1849,-0.9121, 0.2034, 0.0215, 0.0609, 0.0281,-0.0755, 0.4123, 0.0624, 0.2119, 1.6092,49.737095,-123.098584, 2.9563, 54.7947, 140.842133, 6.0, 3.0,Unknown,High, 100.8120,-0.6262,-88.8052, 37.4661,-508.9493, 0.0000, 0.0000, 0.0000
23-Jan-2019 09:46:11.973, 0.2638,-0.1832,-0.9136, 0.2055, 0.0258, 0.0636, 0.0057,-0.0864, 0.4324, 0.0611, 0.2123, 1.6136,49.737095,-123.098584, 2.9563, 54.7947, 140.842133, 6.0, 3.0,Unknown,High, 100.8120,-0.6262,-88.8052, 37.4661,-508.9493, 0.0000, 0.0000, 0.0000
23-Jan-2019 09:46:11.983, 0.2643,-0.1815,-0.9172, 0.2055, 0.0279, 0.0621,-0.0092,-0.0994, 0.4547, 0.0598, 0.2127, 1.6182,49.737095,-123.098584, 2.9563, 54.7947, 140.842133, 6.0, 3.0,Unknown,High, 100.8120,-0.6262,-88.8052, 37.4661,-508.9493, 0.0000, 0.0000, 0.0000
23-Jan-2019 09:46:11.993, 0.2643,-0.1813,-0.9184, 0.2073, 0.0299, 0.0585,-0.0070,-0.1079, 0.4642, 0.0583, 0.2130, 1.6230,49.737095,-123.098584, 2.9563, 54.7947, 140.842133, 6.0, 3.0,Unknown,High, 100.8120,-0.6262,-88.8052, 37.4661,-508.9493, 0.0000, 0.0000, 0.0000
23-Jan-2019 09:46:12.004, 0.2620,-0.1808,-0.9166, 0.2088, 0.0306, 0.0574, 0.0122,-0.1164, 0.4654, 0.0568, 0.2136, 1.6277,49.737095,-123.098584, 2.9563, 54.7947, 140.842133, 6.0, 3.0,Unknown,High, 100.8120,-0.6262,-88.5083, 37.8428,-509.1740, 0.0000, 0.0000, 0.0000
23-Jan-2019 09:46:12.013, 0.2565,-0.1826,-0.9146, 0.2080, 0.0317, 0.0591, 0.0196,-0.1131, 0.4612, 0.0553, 0.2141, 1.6324,49.737095,-123.098584, 2.9563, 53.4894, 140.842133, 6.0, 3.0,Unknown,High, 100.8120,-0.6262,-88.5083, 37.8428,-509.1740, 0.0000, 0.0000, 0.0000
23-Jan-2019 09:46:12.026, 0.2524,-0.1904,-0.9166, 0.2003, 0.0226, 0.0590, 0.0111,-0.1152, 0.4569, 0.0533, 0.2146, 1.6392,49.737095,-123.098584, 2.9563, 53.4894, 140.842133, 6.0, 3.0,Unknown,High, 100.8120,-0.6262,-88.5083, 37.8428,-509.1740, 0.0000, 0.0000, 0.0000
23-Jan-2019 09:46:12.038, 0.2496,-0.2012,-0.9190, 0.1992, 0.0118, 0.0568,-0.0343,-0.1409, 0.4289, 0.0516, 0.2147, 1.6437,49.737095,-123.098584, 2.9563, 53.4894, 140.842133, 6.0, 3.0,Unknown,High, 100.8120,-0.6262,-88.5083, 37.8428,-509.1740, 0.0000, 0.0000, 0.0000
23-Jan-2019 09:46:12.043, 0.2508,-0.2104,-0.9228, 0.2003, 0.0118, 0.0568,-0.0343,-0.1409, 0.4289, 0.0504, 0.2147, 1.6459,49.737095,-123.098584, 2.9563, 53.4894, 140.842133, 6.0, 3.0,Unknown,High, 100.8120,-0.6262,-88.0576, 37.7714,-509.1019, 0.0000, 0.0000, 0.0000
23-Jan-2019 09:46:12.058, 0.2543,-0.2198,-0.9316, 0.2075,-0.0073, 0.0444,-0.0838,-0.1739, 0.3753, 0.0479, 0.2141, 1.6519,49.737095,-123.098584, 2.9563, 53.4894, 140.842133, 6.0, 3.0,Unknown,High, 100.8120,-0.6262,-88.0576, 37.7714,-509.1019, 0.0000, 0.0000, 0.0000
23-Jan-2019 09:46:12.068, 0.2574,-0.2255,-0.9469, 0.2127,-0.0138, 0.0294,-0.1047,-0.2144, 0.3581, 0.0457, 0.2133, 1.6557,49.737095,-123.098584, 2.9563, 52.2139, 140.842133, 6.0, 3.0,Unknown,High, 100.8120,-0.6262,-88.0576, 37.7714,-509.1019, 0.0000, 0.0000, 0.0000
23-Jan-2019 09:46:12.072, 0.2606,-0.2262,-0.9643, 0.2142,-0.0142, 0.0296,-0.1047,-0.2144, 0.3581, 0.0442, 0.2129, 1.6576,49.737095,-123.098584, 2.9563, 52.2139, 140.842133, 6.0, 3.0,Unknown,High, 100.8120,-0.6262,-88.0576, 37.7714,-509.1019, 0.0000, 0.0000, 0.0000
23-Jan-2019 09:46:12.083, 0.2660,-0.2268,-0.9805, 0.2201,-0.0157, 0.0125,-0.1108,-0.2612, 0.3516, 0.0414, 0.2120, 1.6613,49.737095,-123.098584, 2.9563, 52.2139, 140.842133, 6.0, 3.0,Unknown,High, 100.8120,-0.6262,-87.6778, 37.1748,-508.8069, 0.0000, 0.0000, 0.0000
23-Jan-2019 09:46:12.092, 0.2699,-0.2276,-0.9965, 0.2286,-0.0171,-0.0034,-0.0967,-0.3016, 0.3569, 0.0382, 0.2113, 1.6649,49.737095,-123.098584, 2.9563, 52.2139, 140.842133, 6.0, 3.0,Unknown,High, 100.8120,-0.6262,-87.6778, 37.1748,-508.8069, 0.0000, 0.0000, 0.0000
23-Jan-2019 09:46:12.102, 0.2690,-0.2257,-1.0106, 0.2357,-0.0184,-0.0192,-0.0733,-0.3122, 0.3730, 0.0350, 0.2107, 1.6688,49.737095,-123.098584, 2.9563, 52.2139, 140.842133, 6.0, 3.0,Unknown,High, 100.8120,-0.6262,-87.6778, 37.1748,-508.8069, 0.0000, 0.0000, 0.0000
23-Jan-2019 09:46:12.112, 0.2668,-0.2245,-1.0245, 0.2377,-0.0169,-0.0331,-0.0566,-0.2845, 0.3955, 0.0320, 0.2103, 1.6728,49.737095,-123.098584, 2.9563, 51.1402, 140.842133, 6.0, 3.0,Unknown,High, 100.8120,-0.6262,-87.6778, 37.1748,-508.8069, 0.0000, 0.0000, 0.0000
23-Jan-2019 09:46:12.122, 0.2596,-0.2265,-1.0374, 0.2379,-0.0161,-0.0469,-0.0572,-0.2251, 0.4308, 0.0296, 0.2100, 1.6772,49.737095,-123.098584, 2.9563, 51.1402, 140.842133, 6.0, 3.0,Unknown,High, 100.8120,-0.6262,-87.4502, 36.8771,-508.5097, 0.0000, 0.0000, 0.0000
23-Jan-2019 09:46:12.133, 0.2503,-0.2316,-1.0481, 0.2323,-0.0186,-0.0597,-0.0739,-0.1425, 0.4777, 0.0278, 0.2095, 1.6821,49.737095,-123.098584, 2.9563, 51.1402, 140.842133, 6.0, 3.0,Unknown,High, 100.8120,-0.6262,-87.4502, 36.8771,-508.5097, 0.0000, 0.0000, 0.0000
23-Jan-2019 09:46:12.142, 0.2445,-0.2396,-1.0535, 0.2243,-0.0242,-0.0702,-0.0768,-0.0715, 0.5321, 0.0266, 0.2090, 1.6875,49.737095,-123.098584, 2.9563, 51.1402, 140.842133, 6.0, 3.0,Unknown,High, 100.8120,-0.6262,-87.4502, 36.8771,-508.5097, 0.0000, 0.0000, 0.0000
23-Jan-2019 09:46:12.152, 0.2337,-0.2361,-1.0536, 0.2193,-0.0324,-0.0755,-0.0584,-0.0067, 0.5782, 0.0258, 0.2087, 1.6934,49.737095,-123.098584, 2.9563, 51.1402, 140.842133, 6.0, 3.0,Unknown,High, 100.8120,-0.6262,-87.4502, 36.8771,-508.5097, 0.0000, 0.0000, 0.0000
23-Jan-2019 09:46:12.162, 0.2112,-0.2261,-1.0541, 0.2090,-0.0289,-0.0756,-0.0290, 0.0337, 0.6157, 0.0252, 0.2087, 1.6997,49.737095,-123.098584, 2.9563, 51.1402, 140.842133, 6.0, 3.0,Unknown,High, 100.8120,-0.6262,-86.3945, 36.0600,-508.5196, 0.0000, 0.0000, 0.0000
23-Jan-2019 09:46:12.172, 0.1938,-0.2186,-1.0518, 0.1871,-0.0185,-0.0762, 0.0123, 0.0466, 0.6383, 0.0247, 0.2091, 1.7062,49.737099,-123.098517, 4.4082, 49.6992, 140.842133, 6.0, 3.0,Unknown,High, 100.8120,-0.6262,-86.3945, 36.0600,-508.5196, 0.0000, 0.0000, 0.0000
23-Jan-2019 09:46:12.182, 0.1880,-0.2168,-1.0430, 0.1704,-0.0102,-0.0740, 0.0634, 0.0352, 0.6449, 0.0240, 0.2100, 1.7128,49.737099,-123.098517, 4.4082, 49.6992, 140.842133, 6.0, 3.0,Unknown,High, 100.8120,-0.6262,-86.3945, 36.0600,-508.5196, 0.0000, 0.0000, 0.0000
23-Jan-2019 09:46:12.192, 0.1823,-0.2128,-1.0320, 0.1655,-0.0069,-0.0655, 0.1200, 0.0131, 0.6462, 0.0230, 0.2114, 1.7194,49.737099,-123.098517, 4.4082, 49.6992, 140.842133, 6.0, 3.0,Unknown,High, 100.8120,-0.6262,-86.3945, 36.0600,-508.5196, 0.0000, 0.0000, 0.0000
23-Jan-2019 09:46:12.202, 0.1735,-0.2102,-1.0178, 0.1611,-0.0009,-0.0549, 0.1807,-0.0068, 0.6486, 0.0217, 0.2135, 1.7261,49.737099,-123.098517, 4.4082, 49.6992, 140.842133, 6.0, 3.0,Unknown,High, 100.8120,-0.6262,-84.6666, 35.4717,-509.1320, 0.0000, 0.0000, 0.0000
23-Jan-2019 09:46:12.211, 0.1695,-0.2131,-0.9902, 0.1537, 0.0042,-0.0412, 0.2403,-0.0064, 0.6500, 0.0203, 0.2161, 1.7328,49.737099,-123.098517, 4.4082, 47.8137, 140.842133, 6.0, 3.0,Unknown,High, 100.8120,-0.6262,-84.6666, 35.4717,-509.1320, 0.0000, 0.0000, 0.0000
23-Jan-2019 09:46:12.221, 0.1712,-0.2179,-0.9707, 0.1511, 0.0042,-0.0143, 0.2745,-0.0094, 0.6405, 0.0189, 0.2190, 1.7393,49.737099,-123.098517, 4.4082, 47.8137, 140.842133, 6.0, 3.0,Unknown,High, 100.8120,-0.6262,-84.6666, 35.4717,-509.1320, 0.0000, 0.0000, 0.0000
23-Jan-2019 09:46:12.231, 0.1708,-0.2278,-0.9551, 0.1541, 0.0022, 0.0047, 0.2671,-0.0050, 0.6160, 0.0176, 0.2218, 1.7457,49.737099,-123.098517, 4.4082, 47.8137, 140.842133, 6.0, 3.0,Unknown,High, 100.8120,-0.6262,-84.6666, 35.4717,-509.1320, 0.0000, 0.0000, 0.0000
